[
  {
    "name": "白龙潭公园",
    "category": "outdoor",
    "duration_minutes": 120,
    "rating": 4.0,
    "lat": 24.881772,
    "lon": 102.846693,
    "description": "地址: 锦绣大街 | 类别: 风景名胜;公园广场;公园",
    "city": "昆明"
  },
  {
    "name": "春融公园",
    "category": "outdoor",
    "duration_minutes": 120,
    "rating": 4.0,
    "lat": 24.887049,
    "lon": 102.831796,
    "description": "地址: 和谐路与春融街交汇处 | 类别: 风景名胜;公园广场;公园",
    "city": "昆明"
  },
  {
    "name": "洛龙公园",
    "category": "outdoor",
    "duration_minutes": 120,
    "rating": 4.0,
    "lat": 24.89031,
    "lon": 102.819208,
    "description": "地址: 龙城街道彩云北路与祥和路交汇处 | 类别: 风景名胜;公园广场;公园",
    "city": "昆明"
  },
  {
    "name": "昆明呈贡区城中心广场",
    "category": "outdoor",
    "duration_minutes": 120,
    "rating": 4.0,
    "lat": 24.888339,
    "lon": 102.7991,
    "description": "地址: 兴呈路与龙城街交叉口南80米 | 类别: 风景名胜;公园广场;城市广场",
    "city": "昆明"
  },
  {
    "name": "斗南湿地公园",
    "category": "outdoor",
    "duration_minutes": 120,
    "rating": 4.0,
    "lat": 24.893031,
    "lon": 102.76954,
    "description": "地址: 斗彩段与环湖东路交叉口 | 类别: 风景名胜;公园广场;公园",
    "city": "昆明"
  },
  {
    "name": "昆明卧龙古渔村",
    "category": "sightseeing",
    "duration_minutes": 120,
    "rating": 4.0,
    "lat": 24.856505,
    "lon": 102.789766,
    "description": "地址: 乌龙街道乌龙村 | 类别: 风景名胜;风景名胜;风景名胜",
    "city": "昆明"
  },
  {
    "name": "双拥公园",
    "category": "outdoor",
    "duration_minutes": 120,
    "rating": 4.0,
    "lat": 24.877135,
    "lon": 102.840972,
    "description": "地址: 驼峰街 | 类别: 风景名胜;公园广场;公园",
    "city": "昆明"
  },
  {
    "name": "昆明海趣花都海洋世界",
    "category": "outdoor",
    "duration_minutes": 120,
    "rating": 4.0,
    "lat": 24.902063,
    "lon": 102.789781,
    "description": "电话: 17387012233 | 地址: 斗南街道办事处斗南国际花卉产业园区一期5栋 | 类别: 风景名胜;公园广场;水族馆",
    "city": "昆明"
  },
  {
    "name": "昆明捞渔河湿地公园",
    "category": "outdoor",
    "duration_minutes": 120,
    "rating": 4.0,
    "lat": 24.822016,
    "lon": 102.769657,
    "description": "电话: 0871-67432558;18187053793 | 地址: 环湖东路 | 类别: 风景名胜;公园广场;公园",
    "city": "昆明"
  },
  {
    "name": "海宴村",
    "category": "outdoor",
    "duration_minutes": 120,
    "rating": 4.0,
    "lat": 24.875525,
    "lon": 102.820125,
    "description": "地址: 春融西路与朝云街交叉口东南200米 | 类别: 餐饮服务;中餐厅;中餐厅",
    "city": "昆明"
  },
  {
    "name": "三台山",
    "category": "outdoor",
    "duration_minutes": 120,
    "rating": 4.0,
    "lat": 24.89406,
    "lon": 102.796771,
    "description": "地址: 三台路 | 类别: 风景名胜;公园广场;公园",
    "city": "昆明"
  },
  {
    "name": "官渡古镇",
    "category": "sightseeing",
    "duration_minutes": 120,
    "rating": 4.0,
    "lat": 24.955125,
    "lon": 102.755581,
    "description": "电话: 0871-65171515 | 地址: 广福路 | 类别: 风景名胜;风景名胜;国家级景点",
    "city": "昆明"
  },
  {
    "name": "春城公园",
    "category": "outdoor",
    "duration_minutes": 120,
    "rating": 4.0,
    "lat": 24.877869,
    "lon": 102.830082,
    "description": "地址: 乌龙街道彩云南路与锦绣大街交叉口附近 | 类别: 风景名胜;公园广场;公园",
    "city": "昆明"
  },
  {
    "name": "滇池",
    "category": "sightseeing",
    "duration_minutes": 120,
    "rating": 4.0,
    "lat": 24.912641,
    "lon": 102.714854,
    "description": "电话: 0871-64310175 | 地址: 滇池路1318号 | 类别: 风景名胜;风景名胜;国家级景点",
    "city": "昆明"
  },
  {
    "name": "王官湿地公园",
    "category": "outdoor",
    "duration_minutes": 120,
    "rating": 4.0,
    "lat": 24.89937,
    "lon": 102.760159,
    "description": "地址: 环湖东路附近 | 类别: 风景名胜;公园广场;公园",
    "city": "昆明"
  },
  {
    "name": "昆明海晏村网红沙滩",
    "category": "outdoor",
    "duration_minutes": 120,
    "rating": 4.0,
    "lat": 24.807657,
    "lon": 102.764806,
    "description": "地址: 海晏村 | 类别: 风景名胜;风景名胜相关;旅游景点",
    "city": "昆明"
  },
  {
    "name": "云南省博物馆",
    "category": "museum",
    "duration_minutes": 120,
    "rating": 4.0,
    "lat": 24.949455,
    "lon": 102.753517,
    "description": "电话: 0871-67286223 | 地址: 广福路6393号 | 类别: 科教文化服务;博物馆;博物馆",
    "city": "昆明"
  },
  {
    "name": "沐春湖公园",
    "category": "outdoor",
    "duration_minutes": 120,
    "rating": 4.0,
    "lat": 24.872437,
    "lon": 102.824875,
    "description": "电话: 13378849631 | 地址: 锦绣大街与G8511昆磨高速入口交叉口东南160米 | 类别: 风景名胜;公园广场;公园广场",
    "city": "昆明"
  },
  {
    "name": "昆明大渔公园",
    "category": "outdoor",
    "duration_minutes": 120,
    "rating": 4.0,
    "lat": 24.828564,
    "lon": 102.803086,
    "description": "地址: 渔浦路怡和小区北侧 | 类别: 风景名胜;公园广场;公园",
    "city": "昆明"
  },
  {
    "name": "云南省见义勇为英雄纪念碑刻",
    "category": "history",
    "duration_minutes": 120,
    "rating": 4.0,
    "lat": 24.881219,
    "lon": 102.830288,
    "description": "地址: 春融街28号 | 类别: 风景名胜;风景名胜;纪念馆",
    "city": "昆明"
  },
  {
    "name": "滇池绿道草之桥",
    "category": "history",
    "duration_minutes": 120,
    "rating": 4.0,
    "lat": 24.847769,
    "lon": 102.784771,
    "description": "地址: 池畔街1045号 | 类别: 风景名胜;风景名胜;风景名胜",
    "city": "昆明"
  },
  {
    "name": "昆明市呈贡区回回营清真寺",
    "category": "sightseeing",
    "duration_minutes": 120,
    "rating": 4.0,
    "lat": 24.863278,
    "lon": 102.823907,
    "description": "地址: 回回营社区居委会 | 类别: 风景名胜;风景名胜;回教寺",
    "city": "昆明"
  },
  {
    "name": "滇池海埂公园",
    "category": "outdoor",
    "duration_minutes": 120,
    "rating": 4.0,
    "lat": 24.958925,
    "lon": 102.658412,
    "description": "电话: 0871-64311627 | 地址: 滇池路1318号 | 类别: 风景名胜;公园广场;公园",
    "city": "昆明"
  },
  {
    "name": "绿地·东海岸海滨时代风情广场",
    "category": "outdoor",
    "duration_minutes": 120,
    "rating": 4.0,
    "lat": 24.877331,
    "lon": 102.800363,
    "description": "电话: 0871-65919550 | 地址: 兴呈路绿地东海岸南侧约150米 | 类别: 商务住宅;住宅区;住宅小区",
    "city": "昆明"
  },
  {
    "name": "七彩云南·欢乐世界",
    "category": "sightseeing",
    "duration_minutes": 120,
    "rating": 4.0,
    "lat": 24.769433,
    "lon": 102.740062,
    "description": "电话: 0871-67831333 | 地址: 环湖南路 | 类别: 体育休闲服务;休闲场所;游乐场",
    "city": "昆明"
  },
  {
    "name": "宝丰湿地公园",
    "category": "outdoor",
    "duration_minutes": 120,
    "rating": 4.0,
    "lat": 24.922017,
    "lon": 102.725466,
    "description": "地址: 环湖东路与云秀路交叉口西南380米 | 类别: 风景名胜;公园广场;公园",
    "city": "昆明"
  },
  {
    "name": "云南民族大观园",
    "category": "sightseeing",
    "duration_minutes": 120,
    "rating": 4.0,
    "lat": 24.980283,
    "lon": 102.847496,
    "description": "地址: 石安公路 | 类别: 风景名胜;风景名胜;国家级景点",
    "city": "昆明"
  },
  {
    "name": "滇池绿道水之桥",
    "category": "history",
    "duration_minutes": 120,
    "rating": 4.0,
    "lat": 24.865544,
    "lon": 102.786883,
    "description": "电话: 0871-64885999 | 地址: 湖泽街681号 | 类别: 风景名胜;风景名胜;风景名胜",
    "city": "昆明"
  },
  {
    "name": "福保小三亚",
    "category": "sightseeing",
    "duration_minutes": 120,
    "rating": 4.0,
    "lat": 24.916979,
    "lon": 102.693179,
    "description": "类别: 风景名胜;风景名胜;风景名胜",
    "city": "昆明"
  },
  {
    "name": "翠湖公园",
    "category": "outdoor",
    "duration_minutes": 120,
    "rating": 4.0,
    "lat": 25.048474,
    "lon": 102.703689,
    "description": "电话: 0871-65318829 | 地址: 翠湖南路67号 | 类别: 风景名胜;公园广场;公园",
    "city": "昆明"
  },
  {
    "name": "云南民族村",
    "category": "sightseeing",
    "duration_minutes": 120,
    "rating": 4.0,
    "lat": 24.96606,
    "lon": 102.660893,
    "description": "电话: 0871-64311255;0871-68279327 | 地址: 滇池路1310号 | 类别: 风景名胜;风景名胜;国家级景点",
    "city": "昆明"
  },
  {
    "name": "洛龙河入滇口和谐公园",
    "category": "outdoor",
    "duration_minutes": 120,
    "rating": 4.0,
    "lat": 24.87314,
    "lon": 102.777978,
    "description": "地址: 斗南街道滇池 | 类别: 风景名胜;公园广场;公园",
    "city": "昆明"
  },
  {
    "name": "迎龙寺",
    "category": "history",
    "duration_minutes": 120,
    "rating": 4.0,
    "lat": 24.900342,
    "lon": 102.840074,
    "description": "地址: 大新册段晨农大厦西行200米 | 类别: 风景名胜;风景名胜;寺庙道观",
    "city": "昆明"
  },
  {
    "name": "昆明老街钱王街",
    "category": "sightseeing",
    "duration_minutes": 120,
    "rating": 4.0,
    "lat": 25.03955,
    "lon": 102.7091,
    "description": "电话: 0871-68378663 | 地址: 文庙直街钱王街3号 | 类别: 购物服务;特色商业街;特色商业街",
    "city": "昆明"
  },
  {
    "name": "昆明呈贡中央公园",
    "category": "outdoor",
    "duration_minutes": 120,
    "rating": 4.0,
    "lat": 24.874177,
    "lon": 102.830315,
    "description": "地址: 彩云南路辅路与锦绣大街交叉口东南160米 | 类别: 风景名胜;公园广场;公园",
    "city": "昆明"
  },
  {
    "name": "七彩云南古滇度假区",
    "category": "sightseeing",
    "duration_minutes": 120,
    "rating": 4.0,
    "lat": 24.771455,
    "lon": 102.761826,
    "description": "电话: 0871-67836111;0871-67888555;13808757702 | 地址: 环湖南路与与七彩迎宾大道交汇处东北侧 | 类别: 风景名胜;风景名胜;风景名胜",
    "city": "昆明"
  },
  {
    "name": "大观公园",
    "category": "outdoor",
    "duration_minutes": 120,
    "rating": 4.0,
    "lat": 25.021892,
    "lon": 102.67242,
    "description": "电话: 0871-68240124;0871-68242448 | 地址: 大观路284号 | 类别: 风景名胜;风景名胜相关;旅游景点",
    "city": "昆明"
  },
  {
    "name": "西山风景区",
    "category": "outdoor",
    "duration_minutes": 120,
    "rating": 4.0,
    "lat": 24.964622,
    "lon": 102.628595,
    "description": "电话: 18988468487;0871-68426668 | 地址: 西山公路 | 类别: 风景名胜;风景名胜;国家级景点",
    "city": "昆明"
  },
  {
    "name": "世界园艺博览园",
    "category": "sightseeing",
    "duration_minutes": 120,
    "rating": 4.0,
    "lat": 25.07516,
    "lon": 102.7635,
    "description": "电话: 0871-65012367 | 地址: 白龙路439号 | 类别: 风景名胜;风景名胜;国家级景点",
    "city": "昆明"
  },
  {
    "name": "云南果逸花谷宝珠梨文化旅游区",
    "category": "sightseeing",
    "duration_minutes": 120,
    "rating": 4.0,
    "lat": 24.84819,
    "lon": 102.873388,
    "description": "电话: 18108821439;19988712924 | 地址: 吴家营街道缪家营社区 | 类别: 风景名胜;风景名胜;风景名胜",
    "city": "昆明"
  },
  {
    "name": "盘龙寺",
    "category": "history",
    "duration_minutes": 120,
    "rating": 4.0,
    "lat": 24.696364,
    "lon": 102.772123,
    "description": "电话: 0871-67811064 | 地址: 盘龙寺段 | 类别: 风景名胜;风景名胜;寺庙道观",
    "city": "昆明"
  },
  {
    "name": "鲜花童话文旅城",
    "category": "sightseeing",
    "duration_minutes": 120,
    "rating": 4.0,
    "lat": 24.892006,
    "lon": 102.775482,
    "description": "地址: 环湖东路与金桂街交叉口西140米 | 类别: 风景名胜;风景名胜;风景名胜",
    "city": "昆明"
  },
  {
    "name": "花之城",
    "category": "sightseeing",
    "duration_minutes": 120,
    "rating": 4.0,
    "lat": 25.05415,
    "lon": 102.789368,
    "description": "电话: 4006668032 | 地址: 金瓦路8188号 | 类别: 风景名胜;风景名胜相关;旅游景点",
    "city": "昆明"
  },
  {
    "name": "俊发·西亮塘湿地公园",
    "category": "outdoor",
    "duration_minutes": 120,
    "rating": 4.0,
    "lat": 24.93576,
    "lon": 102.736684,
    "description": "地址: 云秀路4186号 | 类别: 风景名胜;公园广场;公园",
    "city": "昆明"
  },
  {
    "name": "金碧广场",
    "category": "outdoor",
    "duration_minutes": 120,
    "rating": 4.0,
    "lat": 25.033234,
    "lon": 102.71012,
    "description": "地址: 金碧路306号 | 类别: 风景名胜;公园广场;城市广场",
    "city": "昆明"
  },
  {
    "name": "阳宗海湿地",
    "category": "outdoor",
    "duration_minutes": 120,
    "rating": 4.0,
    "lat": 24.9552,
    "lon": 103.0033,
    "description": "电话: 0871-67517791 | 地址: 阳宗海风景名胜区汤池街道云南华侨城 | 类别: 风景名胜;风景名胜;省级景点",
    "city": "昆明"
  },
  {
    "name": "昆明动物园",
    "category": "outdoor",
    "duration_minutes": 120,
    "rating": 4.0,
    "lat": 25.053686,
    "lon": 102.710408,
    "description": "地址: 青年路92号 | 类别: 风景名胜;公园广场;动物园",
    "city": "昆明"
  },
  {
    "name": "滇池海鸥观景点",
    "category": "outdoor",
    "duration_minutes": 120,
    "rating": 4.0,
    "lat": 24.975135,
    "lon": 102.650767,
    "description": "地址: 观景路附1号 | 类别: 风景名胜;风景名胜;风景名胜",
    "city": "昆明"
  },
  {
    "name": "渔浦寒泉森林生态湿地公园",
    "category": "outdoor",
    "duration_minutes": 120,
    "rating": 4.0,
    "lat": 24.790139,
    "lon": 102.817307,
    "description": "地址: 文兴路 | 类别: 风景名胜;风景名胜;风景名胜",
    "city": "昆明"
  },
  {
    "name": "白鹿森林",
    "category": "outdoor",
    "duration_minutes": 120,
    "rating": 4.0,
    "lat": 25.037492,
    "lon": 102.796065,
    "description": "电话: 0871-68241122 | 地址: 青云街道办事处虹桥路车行天下二期旁 | 类别: 风景名胜;公园广场;公园",
    "city": "昆明"
  },
  {
    "name": "金马碧鸡坊",
    "category": "sightseeing",
    "duration_minutes": 120,
    "rating": 4.0,
    "lat": 25.033329,
    "lon": 102.709779,
    "description": "电话: 0871-63619908;13888428886 | 地址: 碧鸡巷2-3号 | 类别: 风景名胜;风景名胜;风景名胜",
    "city": "昆明"
  },
  {
    "name": "大观楼",
    "category": "sightseeing",
    "duration_minutes": 120,
    "rating": 4.0,
    "lat": 25.024196,
    "lon": 102.673887,
    "description": "电话: 0871-68242448 | 地址: 大观路284号 | 类别: 风景名胜;风景名胜;国家级景点",
    "city": "昆明"
  },
  {
    "name": "昙华寺公园",
    "category": "history",
    "duration_minutes": 120,
    "rating": 4.0,
    "lat": 25.046281,
    "lon": 102.749706,
    "description": "电话: 0871-63845448 | 地址: 昙华路533号 | 类别: 风景名胜;风景名胜;寺庙道观",
    "city": "昆明"
  },
  {
    "name": "海晏古渔村",
    "category": "outdoor",
    "duration_minutes": 120,
    "rating": 4.0,
    "lat": 24.809664,
    "lon": 102.770927,
    "description": "地址: 海晏社区内段与044乡道交叉口南20米 | 类别: 风景名胜;风景名胜;风景名胜",
    "city": "昆明"
  },
  {
    "name": "彩云公园",
    "category": "outdoor",
    "duration_minutes": 120,
    "rating": 4.0,
    "lat": 24.908955,
    "lon": 102.784095,
    "description": "地址: 殷家村线与斗南路交叉口西北280米 | 类别: 风景名胜;公园广场;公园",
    "city": "昆明"
  },
  {
    "name": "东风坝开合浮桥",
    "category": "history",
    "duration_minutes": 120,
    "rating": 4.0,
    "lat": 24.992398,
    "lon": 102.645315,
    "description": "地址: 闸口路165号 | 类别: 餐饮服务;咖啡厅;咖啡厅|风景名胜;风景名胜;风景名胜",
    "city": "昆明"
  },
  {
    "name": "瑞士园公园",
    "category": "outdoor",
    "duration_minutes": 120,
    "rating": 4.0,
    "lat": 24.935264,
    "lon": 102.739748,
    "description": "地址: 星耀路延长线俊发滇池ONE斜对面 | 类别: 风景名胜;公园广场;公园",
    "city": "昆明"
  },
  {
    "name": "马料河公园",
    "category": "outdoor",
    "duration_minutes": 120,
    "rating": 4.0,
    "lat": 24.958805,
    "lon": 102.843306,
    "description": "地址: 经开区信息产业基地林溪路(果林溪谷A区对面) | 类别: 风景名胜;公园广场;公园",
    "city": "昆明"
  },
  {
    "name": "金殿风景名胜区",
    "category": "sightseeing",
    "duration_minutes": 120,
    "rating": 4.0,
    "lat": 25.08447,
    "lon": 102.771482,
    "description": "电话: 0871-65018306;0871-65014511 | 地址: 穿金路 | 类别: 风景名胜;风景名胜;国家级景点",
    "city": "昆明"
  },
  {
    "name": "金宝山艺术园林",
    "category": "outdoor",
    "duration_minutes": 120,
    "rating": 4.0,
    "lat": 24.9087,
    "lon": 102.64245,
    "description": "电话: 0871-63167352;0871-68428241 | 类别: 生活服务;丧葬设施;公墓",
    "city": "昆明"
  },
  {
    "name": "昆明融创滇池后海",
    "category": "outdoor",
    "duration_minutes": 120,
    "rating": 4.0,
    "lat": 25.015786,
    "lon": 102.651071,
    "description": "电话: 4000803666 | 地址: 碧鸡路2999号 | 类别: 风景名胜;风景名胜;风景名胜",
    "city": "昆明"
  },
  {
    "name": "宝华寺",
    "category": "history",
    "duration_minutes": 120,
    "rating": 4.0,
    "lat": 24.966322,
    "lon": 102.71991,
    "description": "地址: 020乡道 | 类别: 风景名胜;风景名胜;寺庙道观",
    "city": "昆明"
  },
  {
    "name": "缪家营客堂",
    "category": "sightseeing",
    "duration_minutes": 120,
    "rating": 4.0,
    "lat": 24.851328,
    "lon": 102.868884,
    "description": "地址: 福宜高速与福宜高速出口交叉口东260米 | 类别: 风景名胜;风景名胜相关;旅游景点",
    "city": "昆明"
  },
  {
    "name": "小人国主题公园",
    "category": "outdoor",
    "duration_minutes": 120,
    "rating": 4.0,
    "lat": 24.851662,
    "lon": 102.613525,
    "description": "电话: 0871-65709090;0871-68505366;18088245537 | 地址: 碧鸡镇黑荞母村化底力二台坡蝴蝶生态园 | 类别: 风景名胜;风景名胜;风景名胜",
    "city": "昆明"
  },
  {
    "name": "网红打卡点",
    "category": "sightseeing",
    "duration_minutes": 120,
    "rating": 4.0,
    "lat": 24.875283,
    "lon": 102.775146,
    "description": "地址: 江尾小区4区西侧470米 | 类别: 风景名胜;风景名胜;风景名胜",
    "city": "昆明"
  },
  {
    "name": "宝海公园",
    "category": "outdoor",
    "duration_minutes": 120,
    "rating": 4.0,
    "lat": 25.014457,
    "lon": 102.736577,
    "description": "地址: 宝海路121号 | 类别: 风景名胜;公园广场;公园",
    "city": "昆明"
  },
  {
    "name": "东风坝七孔浮桥",
    "category": "history",
    "duration_minutes": 120,
    "rating": 4.0,
    "lat": 25.009539,
    "lon": 102.648269,
    "description": "类别: 风景名胜;风景名胜;风景名胜",
    "city": "昆明"
  },
  {
    "name": "基督教堂(春融东路)",
    "category": "sightseeing",
    "duration_minutes": 120,
    "rating": 4.0,
    "lat": 24.897218,
    "lon": 102.830642,
    "description": "地址: 洛龙街道呈贡新区春融东路 | 类别: 风景名胜;风景名胜;教堂",
    "city": "昆明"
  },
  {
    "name": "古滇精品湿地公园",
    "category": "outdoor",
    "duration_minutes": 120,
    "rating": 4.0,
    "lat": 24.772794,
    "lon": 102.744225,
    "description": "地址: 环湖东路北侧 | 类别: 风景名胜;风景名胜;风景名胜",
    "city": "昆明"
  },
  {
    "name": "云南野生动物园",
    "category": "outdoor",
    "duration_minutes": 120,
    "rating": 4.0,
    "lat": 25.096415,
    "lon": 102.786863,
    "description": "电话: 0871-65018888 | 地址: 沣源路 | 类别: 风景名胜;公园广场;动物园",
    "city": "昆明"
  },
  {
    "name": "昆明市博物馆",
    "category": "museum",
    "duration_minutes": 120,
    "rating": 4.0,
    "lat": 25.032498,
    "lon": 102.728465,
    "description": "电话: 0871-63153256;0871-63153392 | 地址: 拓东路93号(岔街地铁站D口步行490米) | 类别: 科教文化服务;博物馆;博物馆",
    "city": "昆明"
  },
  {
    "name": "七彩花朵城堡游乐园",
    "category": "sightseeing",
    "duration_minutes": 120,
    "rating": 4.0,
    "lat": 24.891738,
    "lon": 102.81931,
    "description": "地址: 龙城街道石龙路洛龙公园西北门旁 | 类别: 体育休闲服务;休闲场所;游乐场",
    "city": "昆明"
  },
  {
    "name": "洛龙湖",
    "category": "outdoor",
    "duration_minutes": 120,
    "rating": 4.0,
    "lat": 24.889157,
    "lon": 102.819843,
    "description": "地址: 洛龙公园 | 类别: 风景名胜;风景名胜;风景名胜",
    "city": "昆明"
  },
  {
    "name": "蓝光·滇池花田国际度假区",
    "category": "sightseeing",
    "duration_minutes": 120,
    "rating": 4.0,
    "lat": 24.891942,
    "lon": 102.776807,
    "description": "地址: 环湖东路与金桂街交叉口南40米 | 类别: 商务住宅;住宅区;住宅小区",
    "city": "昆明"
  },
  {
    "name": "融创文旅城",
    "category": "sightseeing",
    "duration_minutes": 120,
    "rating": 4.0,
    "lat": 25.02104,
    "lon": 102.649433,
    "description": "地址: 碧鸡路2999号 | 类别: 商务住宅;住宅区;住宅小区",
    "city": "昆明"
  },
  {
    "name": "昆明融创海世界",
    "category": "outdoor",
    "duration_minutes": 120,
    "rating": 4.0,
    "lat": 25.01654,
    "lon": 102.652477,
    "description": "电话: 4000803666 | 地址: 碧鸡路2999-1号 | 类别: 体育休闲服务;休闲场所;游乐场",
    "city": "昆明"
  },
  {
    "name": "圆通禅寺",
    "category": "history",
    "duration_minutes": 120,
    "rating": 4.0,
    "lat": 25.051477,
    "lon": 102.711862,
    "description": "电话: 0871-65193762;0871-65127433 | 地址: 圆通街30号 | 类别: 风景名胜;风景名胜;寺庙道观",
    "city": "昆明"
  },
  {
    "name": "捞渔河湿地公园-观景台",
    "category": "outdoor",
    "duration_minutes": 120,
    "rating": 4.0,
    "lat": 24.823627,
    "lon": 102.76636,
    "description": "地址: 环湖东路昆明捞渔河湿地公园(西北角) | 类别: 风景名胜;风景名胜;观景点",
    "city": "昆明"
  },
  {
    "name": "懒猫嘟嘟王国游乐园",
    "category": "sightseeing",
    "duration_minutes": 120,
    "rating": 4.0,
    "lat": 24.93557,
    "lon": 102.762186,
    "description": "地址: 金牌美食广场宏仁村999号 | 类别: 体育休闲服务;休闲场所;游乐场",
    "city": "昆明"
  },
  {
    "name": "抗战胜利堂",
    "category": "history",
    "duration_minutes": 120,
    "rating": 4.0,
    "lat": 25.040627,
    "lon": 102.707475,
    "description": "电话: 0871-63610856;0871-63631546 | 地址: 云瑞西路49号(五一路地铁站D口步行380米) | 类别: 风景名胜;风景名胜;纪念馆",
    "city": "昆明"
  },
  {
    "name": "呈贡文庙",
    "category": "history",
    "duration_minutes": 120,
    "rating": 4.0,
    "lat": 24.891911,
    "lon": 102.799471,
    "description": "地址: 东门街181号 | 类别: 风景名胜;风景名胜;寺庙道观",
    "city": "昆明"
  },
  {
    "name": "东风广场",
    "category": "outdoor",
    "duration_minutes": 120,
    "rating": 4.0,
    "lat": 25.037003,
    "lon": 102.718355,
    "description": "地址: 东风东路与北京路交叉口西南角 | 类别: 风景名胜;公园广场;城市广场",
    "city": "昆明"
  },
  {
    "name": "福保村观景台",
    "category": "sightseeing",
    "duration_minutes": 120,
    "rating": 4.0,
    "lat": 24.918411,
    "lon": 102.69811,
    "description": "地址: 通河街2599号福保村滇池边 | 类别: 风景名胜;风景名胜;风景名胜",
    "city": "昆明"
  },
  {
    "name": "官渡森林公园",
    "category": "outdoor",
    "duration_minutes": 120,
    "rating": 4.0,
    "lat": 25.00844,
    "lon": 102.751491,
    "description": "电话: 0871-67173018 | 地址: 关上街道关景路2号 | 类别: 风景名胜;公园广场;公园",
    "city": "昆明"
  },
  {
    "name": "国立西南联合大学旧址",
    "category": "history",
    "duration_minutes": 120,
    "rating": 4.0,
    "lat": 25.056356,
    "lon": 102.697251,
    "description": "电话: 0871-65516087 | 地址: 文昌路附近 | 类别: 风景名胜;风景名胜;纪念馆|风景名胜;风景名胜;红色景区",
    "city": "昆明"
  },
  {
    "name": "沙滩",
    "category": "sightseeing",
    "duration_minutes": 120,
    "rating": 4.0,
    "lat": 24.818373,
    "lon": 102.767265,
    "description": "电话: 0871-67432558 | 地址: 环湖东路昆明捞渔河湿地公园(西南角) | 类别: 风景名胜;风景名胜;海滩",
    "city": "昆明"
  },
  {
    "name": "弥勒寺公园",
    "category": "outdoor",
    "duration_minutes": 120,
    "rating": 4.0,
    "lat": 25.030614,
    "lon": 102.699143,
    "description": "地址: 西昌路249号(弥勒寺地铁站G1口步行50米) | 类别: 风景名胜;公园广场;公园",
    "city": "昆明"
  },
  {
    "name": "五谷寺",
    "category": "history",
    "duration_minutes": 120,
    "rating": 4.0,
    "lat": 24.877352,
    "lon": 102.849704,
    "description": "地址: 清和路与骆峰街交口(白龙潭地铁站A口步行440米) | 类别: 风景名胜;风景名胜;寺庙道观",
    "city": "昆明"
  },
  {
    "name": "昆明宪法主题公园",
    "category": "outdoor",
    "duration_minutes": 120,
    "rating": 4.0,
    "lat": 24.876384,
    "lon": 102.835516,
    "description": "地址: 锦绣大街与和谐路交叉口东240米 | 类别: 风景名胜;公园广场;公园",
    "city": "昆明"
  },
  {
    "name": "海埂大坝",
    "category": "outdoor",
    "duration_minutes": 120,
    "rating": 4.0,
    "lat": 24.973588,
    "lon": 102.650825,
    "description": "地址: 观景路(近滇池) | 类别: 风景名胜;风景名胜;风景名胜",
    "city": "昆明"
  },
  {
    "name": "海洪湿地",
    "category": "outdoor",
    "duration_minutes": 120,
    "rating": 4.0,
    "lat": 24.954465,
    "lon": 102.686037,
    "description": "地址: 昆明滇池国家旅游度假区湖滨路昆明滇池水务股份有限公司西南50米 | 类别: 风景名胜;公园广场;公园",
    "city": "昆明"
  },
  {
    "name": "呈贡·滇池湿地生态公园",
    "category": "outdoor",
    "duration_minutes": 120,
    "rating": 4.0,
    "lat": 24.889191,
    "lon": 102.770887,
    "description": "地址: 环湖东路 | 类别: 风景名胜;公园广场;公园",
    "city": "昆明"
  },
  {
    "name": "斗南湿地公园沙滩",
    "category": "outdoor",
    "duration_minutes": 120,
    "rating": 4.0,
    "lat": 24.891385,
    "lon": 102.767424,
    "description": "地址: 斗南湿地公园(西南角) | 类别: 风景名胜;公园广场;公园",
    "city": "昆明"
  },
  {
    "name": "云南陆军讲武堂历史博物馆(暂停开放)",
    "category": "history",
    "duration_minutes": 120,
    "rating": 4.0,
    "lat": 25.047875,
    "lon": 102.700647,
    "description": "电话: 0871-65322488;0871-65395952 | 地址: 翠湖西路22号 | 类别: 风景名胜;风景名胜;纪念馆",
    "city": "昆明"
  },
  {
    "name": "星海半岛湖滨生态湿地公园",
    "category": "outdoor",
    "duration_minutes": 120,
    "rating": 4.0,
    "lat": 24.946873,
    "lon": 102.687447,
    "description": "地址: 六甲街道环湖东路和湖滨路交叉口 | 类别: 风景名胜;公园广场;公园",
    "city": "昆明"
  },
  {
    "name": "中央公园",
    "category": "outdoor",
    "duration_minutes": 120,
    "rating": 4.0,
    "lat": 24.862935,
    "lon": 102.79423,
    "description": "地址: 驼峰街与海湖路交叉口北约160米 | 类别: 风景名胜;公园广场;公园",
    "city": "昆明"
  },
  {
    "name": "万溪冲登山步道(暂停开放)",
    "category": "outdoor",
    "duration_minutes": 120,
    "rating": 4.0,
    "lat": 24.812745,
    "lon": 102.898274,
    "description": "地址: 梨园小院东侧50米 | 类别: 风景名胜;风景名胜;风景名胜",
    "city": "昆明"
  },
  {
    "name": "官渡广场",
    "category": "outdoor",
    "duration_minutes": 120,
    "rating": 4.0,
    "lat": 25.0116,
    "lon": 102.743886,
    "description": "地址: 关上关平路31号 | 类别: 风景名胜;公园广场;城市广场",
    "city": "昆明"
  },
  {
    "name": "潘祥记梦橙花园(暂停开放)",
    "category": "outdoor",
    "duration_minutes": 120,
    "rating": 4.0,
    "lat": 24.829907,
    "lon": 102.802901,
    "description": "电话: 18508773966;19387262051 | 地址: 昆明大渔公园内(北侧)1号门6号 | 类别: 风景名胜;公园广场;公园|商务住宅;住宅区;住宅小区",
    "city": "昆明"
  },
  {
    "name": "草海隧道公园",
    "category": "outdoor",
    "duration_minutes": 120,
    "rating": 4.0,
    "lat": 25.016538,
    "lon": 102.669665,
    "description": "地址: 广福路东150米 | 类别: 风景名胜;公园广场;公园",
    "city": "昆明"
  },
  {
    "name": "昆船公园",
    "category": "outdoor",
    "duration_minutes": 120,
    "rating": 4.0,
    "lat": 24.994057,
    "lon": 102.796222,
    "description": "电话: 13629650632 | 地址: 昆明经济技术开发区昆船大道 | 类别: 风景名胜;公园广场;公园",
    "city": "昆明"
  },
  {
    "name": "西华园",
    "category": "outdoor",
    "duration_minutes": 120,
    "rating": 4.0,
    "lat": 25.022492,
    "lon": 102.684266,
    "description": "电话: 0871-64142644 | 地址: 西坝路40号 | 类别: 风景名胜;公园广场;公园",
    "city": "昆明"
  },
  {
    "name": "真庆观",
    "category": "history",
    "duration_minutes": 120,
    "rating": 4.0,
    "lat": 25.034454,
    "lon": 102.726013,
    "description": "电话: 0871-63125250;13888591495;18987481686 | 地址: 拓东路82号 | 类别: 风景名胜;风景名胜;寺庙道观",
    "city": "昆明"
  },
  {
    "name": "财神庙",
    "category": "history",
    "duration_minutes": 120,
    "rating": 4.0,
    "lat": 25.014487,
    "lon": 102.744627,
    "description": "地址: 关岭路2号 | 类别: 风景名胜;风景名胜;寺庙道观",
    "city": "昆明"
  },
  {
    "name": "云南民族博物馆",
    "category": "museum",
    "duration_minutes": 120,
    "rating": 4.0,
    "lat": 24.965068,
    "lon": 102.6692,
    "description": "电话: 0871-64311385 | 地址: 昆明滇池国家旅游度假区滇池路1503号 | 类别: 科教文化服务;博物馆;博物馆",
    "city": "昆明"
  },
  {
    "name": "昆明万溪冲梨园",
    "category": "sightseeing",
    "duration_minutes": 120,
    "rating": 4.0,
    "lat": 24.820591,
    "lon": 102.877167,
    "description": "电话: 18214574256 | 地址: 兴园路与智慧路交叉口北380米 | 类别: 生活服务;生活服务场所;生活服务场所",
    "city": "昆明"
  },
  {
    "name": "采莲河网红桥",
    "category": "history",
    "duration_minutes": 120,
    "rating": 4.0,
    "lat": 24.997901,
    "lon": 102.67408,
    "description": "地址: 紫苑路3号 | 类别: 风景名胜;风景名胜;风景名胜",
    "city": "昆明"
  },
  {
    "name": "宝丰湿地公园一期",
    "category": "outdoor",
    "duration_minutes": 120,
    "rating": 4.0,
    "lat": 24.922215,
    "lon": 102.729594,
    "description": "地址: 环湖东路海东村 | 类别: 风景名胜;公园广场;公园",
    "city": "昆明"
  },
  {
    "name": "昆明老街记忆",
    "category": "sightseeing",
    "duration_minutes": 120,
    "rating": 4.0,
    "lat": 25.038029,
    "lon": 102.707202,
    "description": "地址: 景星街102号 | 类别: 风景名胜;风景名胜;风景名胜",
    "city": "昆明"
  },
  {
    "name": "巫家坝中央公园",
    "category": "outdoor",
    "duration_minutes": 120,
    "rating": 4.0,
    "lat": 24.975968,
    "lon": 102.729964,
    "description": "地址: 巫家坝路与广福路交叉口北200米 | 类别: 风景名胜;公园广场;公园",
    "city": "昆明"
  },
  {
    "name": "小黑龙观景台",
    "category": "sightseeing",
    "duration_minutes": 120,
    "rating": 4.0,
    "lat": 24.927089,
    "lon": 102.63602,
    "description": "地址: 英武顶2350观景台西北侧270米 | 类别: 风景名胜;风景名胜;风景名胜",
    "city": "昆明"
  },
  {
    "name": "下沉广场",
    "category": "outdoor",
    "duration_minutes": 120,
    "rating": 4.0,
    "lat": 24.880845,
    "lon": 102.825309,
    "description": "地址: 彩云南路实力心城(春融街地铁站D口步行300米) | 类别: 风景名胜;公园广场;城市广场",
    "city": "昆明"
  },
  {
    "name": "石林天外天红枫园",
    "category": "sightseeing",
    "duration_minutes": 120,
    "rating": 4.0,
    "lat": 24.958546,
    "lon": 102.945007,
    "description": "地址: 324国道与兴旺路交叉口北400米 | 类别: 风景名胜;风景名胜;风景名胜",
    "city": "昆明"
  },
  {
    "name": "黑龙潭",
    "category": "sightseeing",
    "duration_minutes": 120,
    "rating": 4.0,
    "lat": 24.900556,
    "lon": 102.855509,
    "description": "地址: 梁王路与春漫大道交叉口东340米 | 类别: 风景名胜;风景名胜;风景名胜",
    "city": "昆明"
  },
  {
    "name": "七彩云南古滇温泉山庄",
    "category": "outdoor",
    "duration_minutes": 120,
    "rating": 4.0,
    "lat": 24.768046,
    "lon": 102.75738,
    "description": "电话: 0871-67818688;17606960544 | 地址: 环湖南路马鞍山 | 类别: 风景名胜;风景名胜相关;旅游景点",
    "city": "昆明"
  },
  {
    "name": "龙门",
    "category": "sightseeing",
    "duration_minutes": 120,
    "rating": 4.0,
    "lat": 24.949873,
    "lon": 102.63963,
    "description": "地址: 西山公路西山风景区(东南角) | 类别: 风景名胜;风景名胜;风景名胜",
    "city": "昆明"
  },
  {
    "name": "魁阁休闲公园",
    "category": "outdoor",
    "duration_minutes": 120,
    "rating": 4.0,
    "lat": 24.886821,
    "lon": 102.795391,
    "description": "地址: 魁阁南路 | 类别: 风景名胜;公园广场;公园",
    "city": "昆明"
  },
  {
    "name": "龙王庙",
    "category": "history",
    "duration_minutes": 120,
    "rating": 4.0,
    "lat": 24.8686,
    "lon": 102.78703,
    "description": "地址: 环湖东路 | 类别: 风景名胜;风景名胜;寺庙道观",
    "city": "昆明"
  },
  {
    "name": "顺城清真寺",
    "category": "history",
    "duration_minutes": 120,
    "rating": 4.0,
    "lat": 25.036075,
    "lon": 102.705125,
    "description": "电话: 0871-63602505;0871-63635781 | 地址: 敦仁巷9号 | 类别: 风景名胜;风景名胜;寺庙道观",
    "city": "昆明"
  },
  {
    "name": "文庙",
    "category": "history",
    "duration_minutes": 120,
    "rating": 4.0,
    "lat": 25.04296,
    "lon": 102.708804,
    "description": "地址: 护国街道人民中路96号 | 类别: 风景名胜;风景名胜;寺庙道观",
    "city": "昆明"
  },
  {
    "name": "紫曰薰衣草庄园",
    "category": "sightseeing",
    "duration_minutes": 120,
    "rating": 4.0,
    "lat": 24.832233,
    "lon": 102.775252,
    "description": "地址: 环湖东路 | 类别: 体育休闲服务;休闲场所;休闲场所",
    "city": "昆明"
  },
  {
    "name": "捞鱼河源头观景",
    "category": "sightseeing",
    "duration_minutes": 120,
    "rating": 4.0,
    "lat": 24.870748,
    "lon": 102.884028,
    "description": "地址: 呈贡渔乐谷西南侧130米 | 类别: 风景名胜;风景名胜;观景点",
    "city": "昆明"
  },
  {
    "name": "西华湿地公园",
    "category": "outdoor",
    "duration_minutes": 120,
    "rating": 4.0,
    "lat": 24.874848,
    "lon": 102.660726,
    "description": "地址: 收费站东侧 | 类别: 风景名胜;风景名胜;风景名胜",
    "city": "昆明"
  },
  {
    "name": "冰心旧居",
    "category": "history",
    "duration_minutes": 120,
    "rating": 4.0,
    "lat": 24.893339,
    "lon": 102.798166,
    "description": "地址: 三台路38号 | 类别: 风景名胜;风景名胜;纪念馆",
    "city": "昆明"
  },
  {
    "name": "阳宗海最美S弯",
    "category": "outdoor",
    "duration_minutes": 120,
    "rating": 4.0,
    "lat": 24.914419,
    "lon": 103.020466,
    "description": "类别: 风景名胜;风景名胜;风景名胜",
    "city": "昆明"
  },
  {
    "name": "庾园",
    "category": "outdoor",
    "duration_minutes": 120,
    "rating": 4.0,
    "lat": 25.017651,
    "lon": 102.673498,
    "description": "电话: 0871-68240158 | 地址: 福海街道五家堆234号大观楼南园(河对岸) | 类别: 风景名胜;公园广场;公园",
    "city": "昆明"
  },
  {
    "name": "百年穿越铜说历史",
    "category": "sightseeing",
    "duration_minutes": 120,
    "rating": 4.0,
    "lat": 24.886124,
    "lon": 102.852677,
    "description": "地址: 呈贡区火车时光沉浸世界2号门 | 类别: 风景名胜;风景名胜;风景名胜",
    "city": "昆明"
  },
  {
    "name": "三石头观景台",
    "category": "sightseeing",
    "duration_minutes": 120,
    "rating": 4.0,
    "lat": 24.804923,
    "lon": 102.897744,
    "description": "地址: 梁王山 | 类别: 风景名胜;风景名胜;风景名胜",
    "city": "昆明"
  },
  {
    "name": "护国寺",
    "category": "history",
    "duration_minutes": 120,
    "rating": 4.0,
    "lat": 24.949744,
    "lon": 102.773405,
    "description": "地址: 矣六街道子君村806号 | 类别: 风景名胜;风景名胜;寺庙道观",
    "city": "昆明"
  },
  {
    "name": "金马寺",
    "category": "history",
    "duration_minutes": 120,
    "rating": 4.0,
    "lat": 25.036749,
    "lon": 102.748016,
    "description": "地址: 金马路1979号 | 类别: 风景名胜;风景名胜;寺庙道观",
    "city": "昆明"
  },
  {
    "name": "云南师范大学红烛广场",
    "category": "outdoor",
    "duration_minutes": 120,
    "rating": 4.0,
    "lat": 24.860144,
    "lon": 102.848506,
    "description": "地址: 春耘路云南师范大学(呈贡校区) | 类别: 风景名胜;公园广场;公园广场",
    "city": "昆明"
  },
  {
    "name": "洛龙社区民族文化体育广场",
    "category": "outdoor",
    "duration_minutes": 120,
    "rating": 4.0,
    "lat": 24.892634,
    "lon": 102.823139,
    "description": "地址: 石洛段与彩云中路辅路交叉口东60米 | 类别: 风景名胜;公园广场;城市广场",
    "city": "昆明"
  },
  {
    "name": "月牙潭公园",
    "category": "outdoor",
    "duration_minutes": 120,
    "rating": 4.0,
    "lat": 25.090536,
    "lon": 102.726462,
    "description": "地址: 龙康路25-29号(近月牙塘小区) | 类别: 风景名胜;公园广场;公园",
    "city": "昆明"
  },
  {
    "name": "如意公园",
    "category": "outdoor",
    "duration_minutes": 120,
    "rating": 4.0,
    "lat": 24.965892,
    "lon": 102.755109,
    "description": "地址: 世纪城内 | 类别: 风景名胜;公园广场;公园",
    "city": "昆明"
  },
  {
    "name": "金殿",
    "category": "sightseeing",
    "duration_minutes": 120,
    "rating": 4.0,
    "lat": 25.087329,
    "lon": 102.770889,
    "description": "电话: 0871-65018306 | 地址: 穿金路771号 | 类别: 风景名胜;风景名胜;国家级景点",
    "city": "昆明"
  },
  {
    "name": "昆明聂耳故居",
    "category": "history",
    "duration_minutes": 120,
    "rating": 4.0,
    "lat": 25.038594,
    "lon": 102.707791,
    "description": "电话: 0871-63630423 | 地址: 文明街传统老字号商街(五一路地铁站E口步行340米) | 类别: 风景名胜;风景名胜;纪念馆",
    "city": "昆明"
  },
  {
    "name": "周山公园",
    "category": "outdoor",
    "duration_minutes": 120,
    "rating": 4.0,
    "lat": 24.940382,
    "lon": 102.84227,
    "description": "电话: 18237907419 | 地址: 洛羊镇经济开发区云锦路 | 类别: 风景名胜;公园广场;公园",
    "city": "昆明"
  },
  {
    "name": "滇池绿道山之桥",
    "category": "outdoor",
    "duration_minutes": 120,
    "rating": 4.0,
    "lat": 24.793462,
    "lon": 102.761067,
    "description": "地址: 环湖东路866号 | 类别: 风景名胜;风景名胜;风景名胜",
    "city": "昆明"
  },
  {
    "name": "滇池海鸥观景点2",
    "category": "outdoor",
    "duration_minutes": 120,
    "rating": 4.0,
    "lat": 24.97831,
    "lon": 102.650582,
    "description": "地址: 观景路5号 | 类别: 风景名胜;风景名胜;风景名胜",
    "city": "昆明"
  },
  {
    "name": "公园1903梦幻联邦乐园",
    "category": "outdoor",
    "duration_minutes": 120,
    "rating": 4.0,
    "lat": 24.9882,
    "lon": 102.67606,
    "description": "电话: 4001661903 | 地址: 前卫西路海宏路Park1903 | 类别: 风景名胜;风景名胜相关;旅游景点",
    "city": "昆明"
  },
  {
    "name": "黄公东街",
    "category": "sightseeing",
    "duration_minutes": 120,
    "rating": 4.0,
    "lat": 25.046653,
    "lon": 102.705091,
    "description": "地址: 翠湖南路与黄公东街交叉口东60米 | 类别: 风景名胜;风景名胜;风景名胜",
    "city": "昆明"
  },
  {
    "name": "昆明植物园",
    "category": "outdoor",
    "duration_minutes": 120,
    "rating": 4.0,
    "lat": 25.137912,
    "lon": 102.742754,
    "description": "电话: 0871-65223628 | 地址: 茨坝街道蓝黑路132号 | 类别: 风景名胜;公园广场;植物园",
    "city": "昆明"
  },
  {
    "name": "云南大学文典广场",
    "category": "outdoor",
    "duration_minutes": 120,
    "rating": 4.0,
    "lat": 24.82587,
    "lon": 102.845171,
    "description": "地址: 云南大学呈贡校区 | 类别: 风景名胜;公园广场;城市广场",
    "city": "昆明"
  },
  {
    "name": "乌龙垂恩寺",
    "category": "history",
    "duration_minutes": 120,
    "rating": 4.0,
    "lat": 24.857257,
    "lon": 102.787282,
    "description": "地址: 乌龙村 | 类别: 风景名胜;风景名胜;寺庙道观",
    "city": "昆明"
  },
  {
    "name": "白沙河休闲公园",
    "category": "outdoor",
    "duration_minutes": 120,
    "rating": 4.0,
    "lat": 25.039535,
    "lon": 102.784977,
    "description": "地址: 白沙河南路与照青路交叉口西北320米 | 类别: 风景名胜;公园广场;公园",
    "city": "昆明"
  },
  {
    "name": "海豚湾",
    "category": "outdoor",
    "duration_minutes": 120,
    "rating": 4.0,
    "lat": 24.932002,
    "lon": 102.776322,
    "description": "地址: 商博街与怡安路交叉口西北200米 | 类别: 生活服务;生活服务场所;生活服务场所",
    "city": "昆明"
  },
  {
    "name": "昆明瀑布公园",
    "category": "outdoor",
    "duration_minutes": 120,
    "rating": 4.0,
    "lat": 25.127026,
    "lon": 102.764914,
    "description": "地址: 昆澜街 | 类别: 风景名胜;公园广场;公园",
    "city": "昆明"
  },
  {
    "name": "经开区廉政文化公园",
    "category": "outdoor",
    "duration_minutes": 120,
    "rating": 4.0,
    "lat": 24.961702,
    "lon": 102.845168,
    "description": "地址: 溪谷路与辰逸路交叉口东北160米 | 类别: 风景名胜;公园广场;公园",
    "city": "昆明"
  },
  {
    "name": "麻园米轨公园",
    "category": "outdoor",
    "duration_minutes": 120,
    "rating": 4.0,
    "lat": 25.052597,
    "lon": 102.685304,
    "description": "地址: 丰宁街道滇缅大道336号米轨公园麻园站 | 类别: 风景名胜;公园广场;公园",
    "city": "昆明"
  },
  {
    "name": "宝丰半岛湿地公园-沉水廊道",
    "category": "outdoor",
    "duration_minutes": 120,
    "rating": 4.0,
    "lat": 24.922372,
    "lon": 102.723844,
    "description": "地址: 宝丰湿地公园内 | 类别: 风景名胜;风景名胜相关;旅游景点",
    "city": "昆明"
  },
  {
    "name": "干沟尾湿地公园天空之镜",
    "category": "outdoor",
    "duration_minutes": 120,
    "rating": 4.0,
    "lat": 25.000267,
    "lon": 102.631831,
    "description": "地址: 洪今木口腔东侧150米 | 类别: 风景名胜;风景名胜;风景名胜",
    "city": "昆明"
  },
  {
    "name": "滇池海鸥岛",
    "category": "outdoor",
    "duration_minutes": 120,
    "rating": 4.0,
    "lat": 24.983917,
    "lon": 102.651619,
    "description": "地址: 观景路与迎海路交叉口南80米 | 类别: 风景名胜;风景名胜;风景名胜",
    "city": "昆明"
  },
  {
    "name": "小新册党建文化广场",
    "category": "outdoor",
    "duration_minutes": 120,
    "rating": 4.0,
    "lat": 24.901916,
    "lon": 102.838079,
    "description": "地址: 大新册段与景明北路交叉口西北480米 | 类别: 风景名胜;公园广场;城市广场",
    "city": "昆明"
  },
  {
    "name": "张天虚故居",
    "category": "history",
    "duration_minutes": 120,
    "rating": 4.0,
    "lat": 24.883977,
    "lon": 102.802905,
    "description": "地址: 龙城镇龙街正街7号 | 类别: 风景名胜;风景名胜;纪念馆",
    "city": "昆明"
  },
  {
    "name": "施家咀湿地",
    "category": "sightseeing",
    "duration_minutes": 120,
    "rating": 4.0,
    "lat": 24.951964,
    "lon": 103.000938,
    "description": "地址: 阳宗海湿地 | 类别: 风景名胜;风景名胜;风景名胜",
    "city": "昆明"
  },
  {
    "name": "秘境M60创意园",
    "category": "sightseeing",
    "duration_minutes": 120,
    "rating": 4.0,
    "lat": 25.06771,
    "lon": 102.675452,
    "description": "电话: 0871-63374567 | 地址: 普吉路47号 | 类别: 商务住宅;产业园区;产业园区",
    "city": "昆明"
  },
  {
    "name": "滇池观景大堤南码头",
    "category": "sightseeing",
    "duration_minutes": 120,
    "rating": 4.0,
    "lat": 24.965677,
    "lon": 102.651061,
    "description": "地址: 昆明滇池国家旅游度假区海埂公园 | 类别: 风景名胜;风景名胜;风景名胜",
    "city": "昆明"
  },
  {
    "name": "云南师范大学呈贡校区东区贝壳广场",
    "category": "outdoor",
    "duration_minutes": 120,
    "rating": 4.0,
    "lat": 24.862257,
    "lon": 102.86082,
    "description": "地址: 梁王路辅路与聚贤街交叉口西北300米 | 类别: 风景名胜;公园广场;公园广场",
    "city": "昆明"
  },
  {
    "name": "轿子雪山游玩中心",
    "category": "outdoor",
    "duration_minutes": 120,
    "rating": 4.0,
    "lat": 25.009086,
    "lon": 102.745986,
    "description": "地址: 关育路与民航路交叉口南40米 | 类别: 风景名胜;风景名胜;风景名胜",
    "city": "昆明"
  },
  {
    "name": "新华文化创意广场",
    "category": "outdoor",
    "duration_minutes": 120,
    "rating": 4.0,
    "lat": 25.023815,
    "lon": 102.728822,
    "description": "地址: 吴井路269号 | 类别: 风景名胜;公园广场;城市广场",
    "city": "昆明"
  },
  {
    "name": "昆明市海口林场森林公园",
    "category": "outdoor",
    "duration_minutes": 120,
    "rating": 4.0,
    "lat": 24.801203,
    "lon": 102.60627,
    "description": "地址: 海口街道林海公路昆明市林业展览馆西侧 | 类别: 风景名胜;公园广场;公园",
    "city": "昆明"
  },
  {
    "name": "马家大院",
    "category": "sightseeing",
    "duration_minutes": 120,
    "rating": 4.0,
    "lat": 25.038435,
    "lon": 102.709134,
    "description": "地址: 护国街道正义坊钱王街4号 | 类别: 风景名胜;风景名胜;风景名胜",
    "city": "昆明"
  },
  {
    "name": "莲花池",
    "category": "outdoor",
    "duration_minutes": 120,
    "rating": 4.0,
    "lat": 25.06131,
    "lon": 102.701153,
    "description": "电话: 18788195322 | 地址: 民院路15号(小菜园地铁站A口步行400米) | 类别: 风景名胜;公园广场;公园",
    "city": "昆明"
  },
  {
    "name": "龙王庙",
    "category": "history",
    "duration_minutes": 120,
    "rating": 4.0,
    "lat": 24.959774,
    "lon": 102.652618,
    "description": "电话: 0871-64311627 | 地址: 湖滨路16号 | 类别: 风景名胜;风景名胜;寺庙道观",
    "city": "昆明"
  },
  {
    "name": "汗城温泉酒店",
    "category": "sightseeing",
    "duration_minutes": 120,
    "rating": 4.0,
    "lat": 24.958755,
    "lon": 102.771996,
    "description": "电话: 0871-68586555 | 地址: 子君路奥宸橙郡A1栋 | 类别: 生活服务;洗浴推拿场所;洗浴推拿场所|住宿服务;宾馆酒店;宾馆酒店",
    "city": "昆明"
  },
  {
    "name": "黑龙潭公园",
    "category": "outdoor",
    "duration_minutes": 120,
    "rating": 4.0,
    "lat": 25.142033,
    "lon": 102.750883,
    "description": "电话: 0871-65886882;0871-65150395 | 地址: 龙泉路612号 | 类别: 风景名胜;风景名胜;风景名胜",
    "city": "昆明"
  },
  {
    "name": "云山鲜云顶",
    "category": "outdoor",
    "duration_minutes": 120,
    "rating": 4.0,
    "lat": 24.827241,
    "lon": 102.848804,
    "description": "地址: 云南大学呈贡校区云山 | 类别: 风景名胜;风景名胜;风景名胜",
    "city": "昆明"
  },
  {
    "name": "云山植物园",
    "category": "outdoor",
    "duration_minutes": 120,
    "rating": 4.0,
    "lat": 24.827941,
    "lon": 102.84818,
    "description": "地址: 雨花路1076号 | 类别: 风景名胜;公园广场;植物园",
    "city": "昆明"
  },
  {
    "name": "云南大学呈贡校区泽湖",
    "category": "outdoor",
    "duration_minutes": 120,
    "rating": 4.0,
    "lat": 24.830812,
    "lon": 102.845091,
    "description": "地址: 广田东路与庆来西路交叉口东北120米 | 类别: 风景名胜;风景名胜;风景名胜",
    "city": "昆明"
  },
  {
    "name": "观音寺",
    "category": "history",
    "duration_minutes": 120,
    "rating": 4.0,
    "lat": 24.837129,
    "lon": 102.664046,
    "description": "地址: 高蒋段与014县道交叉口西北240米 | 类别: 风景名胜;风景名胜;寺庙道观",
    "city": "昆明"
  },
  {
    "name": "俊发·滇忆456红石榴广场",
    "category": "outdoor",
    "duration_minutes": 120,
    "rating": 4.0,
    "lat": 24.931362,
    "lon": 102.775173,
    "description": "地址: 商博街与彩云北路辅路交叉口东北140米 | 类别: 风景名胜;公园广场;城市广场",
    "city": "昆明"
  },
  {
    "name": "青方豆腐博物馆",
    "category": "museum",
    "duration_minutes": 120,
    "rating": 4.0,
    "lat": 24.87195,
    "lon": 102.813863,
    "description": "地址: 七步场七步香门口 | 类别: 科教文化服务;科教文化场所;科教文化场所",
    "city": "昆明"
  },
  {
    "name": "桃源广场",
    "category": "outdoor",
    "duration_minutes": 120,
    "rating": 4.0,
    "lat": 25.048039,
    "lon": 102.716449,
    "description": "地址: 盘龙江东岸豆腐厂巷口至桃源街27号对面 | 类别: 风景名胜;公园广场;公园广场",
    "city": "昆明"
  },
  {
    "name": "白龙潭云龙寺",
    "category": "history",
    "duration_minutes": 120,
    "rating": 4.0,
    "lat": 24.871226,
    "lon": 102.854993,
    "description": "地址: 祥园街与启程路交叉口西120米 | 类别: 风景名胜;风景名胜;寺庙道观",
    "city": "昆明"
  },
  {
    "name": "金刚塔",
    "category": "history",
    "duration_minutes": 120,
    "rating": 4.0,
    "lat": 24.956765,
    "lon": 102.757235,
    "description": "电话: 0871-67262799 | 地址: 官渡古镇(东北角) | 类别: 风景名胜;风景名胜;风景名胜",
    "city": "昆明"
  },
  {
    "name": "云南师范大学(呈贡校区)-三校纪念碑",
    "category": "history",
    "duration_minutes": 120,
    "rating": 4.0,
    "lat": 24.85961,
    "lon": 102.846785,
    "description": "地址: 春耘路 | 类别: 风景名胜;风景名胜;纪念馆",
    "city": "昆明"
  },
  {
    "name": "龙门石窟",
    "category": "sightseeing",
    "duration_minutes": 120,
    "rating": 4.0,
    "lat": 24.958576,
    "lon": 102.633683,
    "description": "电话: 0871-68426668 | 地址: 西山公路西山国家风景名胜区内 | 类别: 风景名胜;风景名胜;风景名胜",
    "city": "昆明"
  },
  {
    "name": "滇池绿道林之桥",
    "category": "history",
    "duration_minutes": 120,
    "rating": 4.0,
    "lat": 24.830314,
    "lon": 102.774421,
    "description": "电话: 0871-64885999 | 地址: 渔阳路7号 | 类别: 风景名胜;风景名胜;风景名胜",
    "city": "昆明"
  },
  {
    "name": "费孝通旧居",
    "category": "history",
    "duration_minutes": 120,
    "rating": 4.0,
    "lat": 24.884669,
    "lon": 102.794291,
    "description": "地址: 古龙路59号(古城地铁站E口步行450米) | 类别: 风景名胜;风景名胜;纪念馆",
    "city": "昆明"
  },
  {
    "name": "顺城双塔东塔",
    "category": "history",
    "duration_minutes": 120,
    "rating": 4.0,
    "lat": 25.036159,
    "lon": 102.707734,
    "description": "地址: 东风西路11号(五一路地铁站B口步行70米) | 类别: 商务住宅;楼宇;商务写字楼",
    "city": "昆明"
  },
  {
    "name": "顺城双塔东塔",
    "category": "history",
    "duration_minutes": 120,
    "rating": 4.0,
    "lat": 25.036159,
    "lon": 102.707734,
    "description": "地址: 东风西路11号(五一路地铁站B口步行70米) | 类别: 商务住宅;楼宇;商务写字楼",
    "city": "昆明"
  },
  {
    "name": "龙江公园",
    "category": "outdoor",
    "duration_minutes": 120,
    "rating": 4.0,
    "lat": 24.999408,
    "lon": 102.718847,
    "description": "地址: 云南省昆明市西山区希望路观澜汇9栋 | 类别: 风景名胜;公园广场;公园",
    "city": "昆明"
  },
  {
    "name": "水上森林",
    "category": "outdoor",
    "duration_minutes": 120,
    "rating": 4.0,
    "lat": 24.950034,
    "lon": 102.689856,
    "description": "地址: 星海半岛湖滨生态湿地公园(东北角) | 类别: 风景名胜;风景名胜相关;旅游景点",
    "city": "昆明"
  },
  {
    "name": "云南师范大学-西南联大博物馆",
    "category": "museum",
    "duration_minutes": 120,
    "rating": 4.0,
    "lat": 25.055932,
    "lon": 102.696979,
    "description": "电话: 0871-65516087 | 地址: 华山街道一二一大街298号云南师范大学内 | 类别: 科教文化服务;博物馆;博物馆",
    "city": "昆明"
  },
  {
    "name": "新河湖滨生态湿地",
    "category": "outdoor",
    "duration_minutes": 120,
    "rating": 4.0,
    "lat": 24.991364,
    "lon": 102.651799,
    "description": "地址: 闸口路165号 | 类别: 风景名胜;风景名胜;风景名胜",
    "city": "昆明"
  },
  {
    "name": "大清河河长林",
    "category": "sightseeing",
    "duration_minutes": 120,
    "rating": 4.0,
    "lat": 24.938289,
    "lon": 102.687593,
    "description": "地址: 官南大道 | 类别: 风景名胜;风景名胜相关;旅游景点",
    "city": "昆明"
  },
  {
    "name": "别样院景点晴茗苑",
    "category": "sightseeing",
    "duration_minutes": 120,
    "rating": 4.0,
    "lat": 24.99205,
    "lon": 102.737841,
    "description": "电话: 0871-67017588;0871-67017599 | 地址: 春城路昆明国际机场以西800米 | 类别: 商务住宅;住宅区;住宅小区",
    "city": "昆明"
  },
  {
    "name": "滇池绿道薰衣草",
    "category": "sightseeing",
    "duration_minutes": 120,
    "rating": 4.0,
    "lat": 24.836598,
    "lon": 102.774051,
    "description": "地址: 环湖东路与渔浦路交叉口西北360米 | 类别: 风景名胜;风景名胜;风景名胜",
    "city": "昆明"
  },
  {
    "name": "昆明动物博物馆",
    "category": "museum",
    "duration_minutes": 120,
    "rating": 4.0,
    "lat": 25.067211,
    "lon": 102.704965,
    "description": "电话: 0871-65199680 | 地址: 教场东路32号 | 类别: 科教文化服务;博物馆;博物馆",
    "city": "昆明"
  },
  {
    "name": "小洛羊廻龙庵",
    "category": "sightseeing",
    "duration_minutes": 120,
    "rating": 4.0,
    "lat": 24.913566,
    "lon": 102.808425,
    "description": "地址: 呈荣大道112号 | 类别: 风景名胜;风景名胜;风景名胜",
    "city": "昆明"
  },
  {
    "name": "滇西索道",
    "category": "outdoor",
    "duration_minutes": 120,
    "rating": 4.0,
    "lat": 24.95927,
    "lon": 102.63449,
    "description": "地址: 西山公路西山国家风景名胜区昆明西山森林公园内昆明市公安局西山分局西山风景区派出所附近 | 类别: 生活服务;售票处;公园景点售票处",
    "city": "昆明"
  },
  {
    "name": "观山公园",
    "category": "outdoor",
    "duration_minutes": 120,
    "rating": 4.0,
    "lat": 24.952943,
    "lon": 102.844584,
    "description": "地址: 经开区云景路 | 类别: 风景名胜;公园广场;公园",
    "city": "昆明"
  },
  {
    "name": "镇海阁",
    "category": "outdoor",
    "duration_minutes": 120,
    "rating": 4.0,
    "lat": 24.916113,
    "lon": 102.717672,
    "description": "类别: 风景名胜;风景名胜;风景名胜",
    "city": "昆明"
  },
  {
    "name": "玫瑰花瀑布",
    "category": "sightseeing",
    "duration_minutes": 120,
    "rating": 4.0,
    "lat": 25.049897,
    "lon": 102.704724,
    "description": "地址: 翠湖东路与圆通街交叉口西220米 | 类别: 风景名胜;风景名胜;风景名胜",
    "city": "昆明"
  },
  {
    "name": "昆明热雪奇迹",
    "category": "sightseeing",
    "duration_minutes": 120,
    "rating": 4.0,
    "lat": 25.015372,
    "lon": 102.649567,
    "description": "地址: 碧鸡路2999-2 | 类别: 体育休闲服务;休闲场所;游乐场|风景名胜;风景名胜相关;旅游景点",
    "city": "昆明"
  },
  {
    "name": "云南起义纪念馆",
    "category": "history",
    "duration_minutes": 120,
    "rating": 4.0,
    "lat": 25.048673,
    "lon": 102.707044,
    "description": "电话: 0871-67212102 | 地址: 翠湖南路4号(华山西路地铁站D口步行430米) | 类别: 风景名胜;风景名胜;纪念馆",
    "city": "昆明"
  },
  {
    "name": "积善广场",
    "category": "outdoor",
    "duration_minutes": 120,
    "rating": 4.0,
    "lat": 25.013541,
    "lon": 102.65076,
    "description": "地址: 滇池融创施柏阁酒店西侧180米 | 类别: 风景名胜;公园广场;城市广场",
    "city": "昆明"
  },
  {
    "name": "野鸭湖度假区",
    "category": "outdoor",
    "duration_minutes": 120,
    "rating": 4.0,
    "lat": 25.126698,
    "lon": 102.86355,
    "description": "电话: 0871-67339480 | 地址: 金浑公路北段野鸭湖旅游区附近 | 类别: 风景名胜;风景名胜;国家级景点",
    "city": "昆明"
  },
  {
    "name": "滇池草海湖滨湿地",
    "category": "outdoor",
    "duration_minutes": 120,
    "rating": 4.0,
    "lat": 25.000283,
    "lon": 102.648142,
    "description": "地址: 湖滨生态湿地公园北侧 | 类别: 风景名胜;风景名胜;风景名胜",
    "city": "昆明"
  },
  {
    "name": "昆明洪崖洞分洞",
    "category": "sightseeing",
    "duration_minutes": 120,
    "rating": 4.0,
    "lat": 24.971161,
    "lon": 102.743647,
    "description": "地址: 蓝橙齿科(海乐院区)东侧180米 | 类别: 风景名胜;风景名胜;风景名胜",
    "city": "昆明"
  },
  {
    "name": "王家堆湿地公园",
    "category": "outdoor",
    "duration_minutes": 120,
    "rating": 4.0,
    "lat": 24.989626,
    "lon": 102.629298,
    "description": "地址: 草海环湖路 | 类别: 风景名胜;公园广场;公园",
    "city": "昆明"
  },
  {
    "name": "五甲塘城市公园(暂停开放)",
    "category": "outdoor",
    "duration_minutes": 120,
    "rating": 4.0,
    "lat": 24.948113,
    "lon": 102.717162,
    "description": "电话: 0871-67161592 | 地址: 昌宏路(中航云玺大宅)附近 | 类别: 风景名胜;公园广场;公园",
    "city": "昆明"
  },
  {
    "name": "滇池海埂公园-百年桉树群",
    "category": "outdoor",
    "duration_minutes": 120,
    "rating": 4.0,
    "lat": 24.960584,
    "lon": 102.665171,
    "description": "地址: 滇池路1318号滇池海埂公园内 | 类别: 风景名胜;风景名胜相关;旅游景点",
    "city": "昆明"
  },
  {
    "name": "凌虚阁",
    "category": "sightseeing",
    "duration_minutes": 120,
    "rating": 4.0,
    "lat": 24.947782,
    "lon": 102.639602,
    "description": "电话: 18988468487 | 地址: 西山公路西山国家风景名胜区龙门景区内 | 类别: 风景名胜;风景名胜相关;旅游景点",
    "city": "昆明"
  },
  {
    "name": "龟龙湖公园",
    "category": "outdoor",
    "duration_minutes": 120,
    "rating": 4.0,
    "lat": 25.070175,
    "lon": 102.714559,
    "description": "地址: 盘江东路839号 | 类别: 风景名胜;公园广场;公园",
    "city": "昆明"
  },
  {
    "name": "白龙寺",
    "category": "history",
    "duration_minutes": 120,
    "rating": 4.0,
    "lat": 25.062134,
    "lon": 102.75316,
    "description": "地址: 白龙路421号 | 类别: 风景名胜;风景名胜;寺庙道观",
    "city": "昆明"
  },
  {
    "name": "勇敢者篮羽运动公园(玉缘店)",
    "category": "outdoor",
    "duration_minutes": 120,
    "rating": 4.0,
    "lat": 24.967675,
    "lon": 102.788216,
    "description": "电话: 13708483893 | 地址: 顺通大道104号(玉缘路地铁站E口步行490米) | 类别: 体育休闲服务;体育休闲服务场所;体育休闲服务场所",
    "city": "昆明"
  },
  {
    "name": "西山森林公园",
    "category": "outdoor",
    "duration_minutes": 120,
    "rating": 4.0,
    "lat": 24.964647,
    "lon": 102.62964,
    "description": "电话: 0871-68426668 | 地址: 西山景区-太华寺北侧320米 | 类别: 风景名胜;风景名胜;国家级景点|地名地址信息;热点地名;热点地名",
    "city": "昆明"
  },
  {
    "name": "俊发东海岸公园",
    "category": "outdoor",
    "duration_minutes": 120,
    "rating": 4.0,
    "lat": 24.931004,
    "lon": 102.73593,
    "description": "地址: 海东路昆明滇池泛亚国际城市湿地 | 类别: 风景名胜;公园广场;公园",
    "city": "昆明"
  },
  {
    "name": "朱德旧居",
    "category": "sightseeing",
    "duration_minutes": 120,
    "rating": 4.0,
    "lat": 25.048422,
    "lon": 102.708762,
    "description": "电话: 0871-63617017 | 地址: 华山西路红花巷4号 | 类别: 风景名胜;风景名胜;风景名胜",
    "city": "昆明"
  },
  {
    "name": "石林天外天",
    "category": "sightseeing",
    "duration_minutes": 120,
    "rating": 4.0,
    "lat": 24.95502,
    "lon": 102.946422,
    "description": "电话: 0871-63366502 | 地址: 七甸乡七甸村 | 类别: 公司企业;工厂;工厂",
    "city": "昆明"
  },
  {
    "name": "昆明植物园-西园",
    "category": "outdoor",
    "duration_minutes": 120,
    "rating": 4.0,
    "lat": 25.138362,
    "lon": 102.74238,
    "description": "电话: 0871-65223628 | 地址: 蓝黑路132号昆明植物园内(北侧) | 类别: 风景名胜;公园广场;植物园",
    "city": "昆明"
  },
  {
    "name": "云南民族大学雨花校区民族博物馆",
    "category": "museum",
    "duration_minutes": 120,
    "rating": 4.0,
    "lat": 24.837031,
    "lon": 102.849374,
    "description": "地址: 月华街2929号云南民族大学雨花校区 | 类别: 科教文化服务;博物馆;博物馆",
    "city": "昆明"
  },
  {
    "name": "六甲星海体育运动公园",
    "category": "outdoor",
    "duration_minutes": 120,
    "rating": 4.0,
    "lat": 24.939949,
    "lon": 102.686899,
    "description": "电话: 13658867250 | 地址: 六甲街道办事处星海社区山海荟以南清河村以北 | 类别: 风景名胜;公园广场;公园",
    "city": "昆明"
  },
  {
    "name": "华亭禅寺",
    "category": "sightseeing",
    "duration_minutes": 120,
    "rating": 4.0,
    "lat": 24.970569,
    "lon": 102.627249,
    "description": "电话: 13529046461;18087055667 | 地址: 碧鸡街道碧鸡街道海会塔 | 类别: 风景名胜;风景名胜相关;旅游景点",
    "city": "昆明"
  },
  {
    "name": "清真古寺",
    "category": "sightseeing",
    "duration_minutes": 120,
    "rating": 4.0,
    "lat": 24.891899,
    "lon": 102.79619,
    "description": "地址: 北门街17号 | 类别: 风景名胜;风景名胜;回教寺",
    "city": "昆明"
  },
  {
    "name": "阳宗海国家级旅游度假区施家咀网红沙滩",
    "category": "outdoor",
    "duration_minutes": 120,
    "rating": 4.0,
    "lat": 24.951761,
    "lon": 103.005814,
    "description": "地址: 阳宗海湿地(东南角) | 类别: 风景名胜;风景名胜;海滩",
    "city": "昆明"
  },
  {
    "name": "银杏公园",
    "category": "outdoor",
    "duration_minutes": 120,
    "rating": 4.0,
    "lat": 24.773753,
    "lon": 102.821167,
    "description": "地址: 马金铺街道国家生物产业基地 | 类别: 风景名胜;公园广场;公园",
    "city": "昆明"
  },
  {
    "name": "五华广场",
    "category": "outdoor",
    "duration_minutes": 120,
    "rating": 4.0,
    "lat": 25.044014,
    "lon": 102.706007,
    "description": "地址: 人民中路与五一路交叉口 | 类别: 风景名胜;公园广场;城市广场",
    "city": "昆明"
  },
  {
    "name": "虚宁寺",
    "category": "history",
    "duration_minutes": 120,
    "rating": 4.0,
    "lat": 25.109607,
    "lon": 102.713736,
    "description": "地址: 红云街道龙泉路沙坝营 | 类别: 风景名胜;风景名胜;寺庙道观",
    "city": "昆明"
  }
]