[
  {
    "name": "长春世界雕塑园",
    "category": "sightseeing",
    "duration_minutes": 120,
    "rating": 4.0,
    "lat": 43.823572,
    "lon": 125.333336,
    "description": "电话: 0431-85379019;0431-85379013 | 地址: 人民大街9518号 | 类别: 风景名胜;风景名胜;国家级景点",
    "city": "长春"
  },
  {
    "name": "南溪湿地公园",
    "category": "outdoor",
    "duration_minutes": 120,
    "rating": 4.0,
    "lat": 43.80421,
    "lon": 125.347341,
    "description": "电话: 0431-88900999 | 地址: 富裕街道畅溪路与荷香路交叉口 | 类别: 风景名胜;风景名胜;风景名胜",
    "city": "长春"
  },
  {
    "name": "南湖公园",
    "category": "outdoor",
    "duration_minutes": 120,
    "rating": 4.0,
    "lat": 43.856452,
    "lon": 125.306789,
    "description": "电话: 0431-85663059;0431-85664455 | 地址: 工农大路2715号 | 类别: 风景名胜;公园广场;公园",
    "city": "长春"
  },
  {
    "name": "百木园",
    "category": "outdoor",
    "duration_minutes": 120,
    "rating": 4.0,
    "lat": 43.813311,
    "lon": 125.289003,
    "description": "地址: 明珠街道前进大街4146号 | 类别: 风景名胜;公园广场;公园",
    "city": "长春"
  },
  {
    "name": "长春市动植物公园",
    "category": "outdoor",
    "duration_minutes": 120,
    "rating": 4.0,
    "lat": 43.868108,
    "lon": 125.335289,
    "description": "电话: 0431-85640196 | 地址: 自由大路2121号 | 类别: 风景名胜;公园广场;动物园",
    "city": "长春"
  },
  {
    "name": "友谊公园",
    "category": "outdoor",
    "duration_minutes": 120,
    "rating": 4.0,
    "lat": 43.81437,
    "lon": 125.321363,
    "description": "地址: 政府南侧 | 类别: 风景名胜;公园广场;公园",
    "city": "长春"
  },
  {
    "name": "长春市百花园",
    "category": "outdoor",
    "duration_minutes": 120,
    "rating": 4.0,
    "lat": 43.813006,
    "lon": 125.280151,
    "description": "地址: 南三环蔚山路与芳草街交会处 | 类别: 风景名胜;公园广场;植物园",
    "city": "长春"
  },
  {
    "name": "长影旧址博物馆",
    "category": "museum",
    "duration_minutes": 120,
    "rating": 4.0,
    "lat": 43.86364,
    "lon": 125.292355,
    "description": "电话: 0431-89238777 | 地址: 红旗街1118号 | 类别: 风景名胜;风景名胜;国家级景点|科教文化服务;博物馆;博物馆",
    "city": "长春"
  },
  {
    "name": "城投·南溪里",
    "category": "sightseeing",
    "duration_minutes": 120,
    "rating": 4.0,
    "lat": 43.800664,
    "lon": 125.353061,
    "description": "地址: 听溪路与溪畔街交汇城投南溪里文旅小镇 | 类别: 风景名胜;风景名胜;风景名胜",
    "city": "长春"
  },
  {
    "name": "长春新民大街",
    "category": "sightseeing",
    "duration_minutes": 120,
    "rating": 4.0,
    "lat": 43.864946,
    "lon": 125.307698,
    "description": "地址: 新民大街(海航长白山宾馆西) | 类别: 风景名胜;风景名胜相关;旅游景点",
    "city": "长春"
  },
  {
    "name": "肆季南河",
    "category": "sightseeing",
    "duration_minutes": 120,
    "rating": 4.0,
    "lat": 43.760964,
    "lon": 125.34604,
    "description": "地址: 畅溪街与敏学路交叉口南160米 | 类别: 购物服务;购物相关场所;购物相关场所",
    "city": "长春"
  },
  {
    "name": "长春中泰海洋世界",
    "category": "outdoor",
    "duration_minutes": 120,
    "rating": 4.0,
    "lat": 43.872123,
    "lon": 125.306236,
    "description": "电话: 0431-89580828 | 地址: 清华路1399号(新民大街与清华路交汇) | 类别: 风景名胜;公园广场;水族馆",
    "city": "长春"
  },
  {
    "name": "人民广场",
    "category": "outdoor",
    "duration_minutes": 120,
    "rating": 4.0,
    "lat": 43.886907,
    "lon": 125.3247,
    "description": "地址: 人民大街中段 | 类别: 风景名胜;公园广场;城市广场",
    "city": "长春"
  },
  {
    "name": "肆季南河粉色沙滩",
    "category": "sightseeing",
    "duration_minutes": 120,
    "rating": 4.0,
    "lat": 43.763878,
    "lon": 125.340926,
    "description": "地址: 畅溪街与勤学路交叉口西南360米 | 类别: 风景名胜;风景名胜;海滩",
    "city": "长春"
  },
  {
    "name": "梨花园",
    "category": "outdoor",
    "duration_minutes": 120,
    "rating": 4.0,
    "lat": 43.808615,
    "lon": 125.313899,
    "description": "电话: 0431-89996139 | 地址: 明珠街道华运街与华昌路交汇 | 类别: 风景名胜;公园广场;公园",
    "city": "长春"
  },
  {
    "name": "中国长春国际友好城市雕塑园",
    "category": "sightseeing",
    "duration_minutes": 120,
    "rating": 4.0,
    "lat": 43.815505,
    "lon": 125.324898,
    "description": "地址: 人民大街长春市政府南20米 | 类别: 风景名胜;风景名胜相关;旅游景点",
    "city": "长春"
  },
  {
    "name": "青怡坊云琅艺术中心",
    "category": "sightseeing",
    "duration_minutes": 120,
    "rating": 4.0,
    "lat": 43.79533,
    "lon": 125.370143,
    "description": "电话: 18844118826 | 地址: 青怡坊云琅售楼处 | 类别: 科教文化服务;科教文化场所;科教文化场所",
    "city": "长春"
  },
  {
    "name": "长影制片厂门",
    "category": "sightseeing",
    "duration_minutes": 120,
    "rating": 4.0,
    "lat": 43.86364,
    "lon": 125.292319,
    "description": "电话: 0431-85953511 | 地址: 红旗街1118号 | 类别: 科教文化服务;传媒机构;出版社",
    "city": "长春"
  },
  {
    "name": "伪满洲国国务院旧址",
    "category": "history",
    "duration_minutes": 120,
    "rating": 4.0,
    "lat": 43.87669,
    "lon": 125.309541,
    "description": "电话: 0431-82868516 | 地址: 新民大街126号(文化广场地铁站C1口步行90米) | 类别: 风景名胜;风景名胜;纪念馆",
    "city": "长春"
  },
  {
    "name": "新民广场",
    "category": "outdoor",
    "duration_minutes": 120,
    "rating": 4.0,
    "lat": 43.863932,
    "lon": 125.308119,
    "description": "地址: 万宝街 | 类别: 风景名胜;公园广场;城市广场",
    "city": "长春"
  },
  {
    "name": "劳动公园",
    "category": "outdoor",
    "duration_minutes": 120,
    "rating": 4.0,
    "lat": 43.877204,
    "lon": 125.36984,
    "description": "电话: 0431-84941254 | 地址: 岭东路465号 | 类别: 风景名胜;公园广场;公园",
    "city": "长春"
  },
  {
    "name": "吉林大学考古与艺术博物馆分馆",
    "category": "museum",
    "duration_minutes": 120,
    "rating": 4.0,
    "lat": 43.811269,
    "lon": 125.319962,
    "description": "地址: 华弘街111号2-3层 | 类别: 科教文化服务;博物馆;博物馆",
    "city": "长春"
  },
  {
    "name": "九州温泉(前进大街店)",
    "category": "sightseeing",
    "duration_minutes": 120,
    "rating": 4.0,
    "lat": 43.828052,
    "lon": 125.289458,
    "description": "电话: 0431-81208888 | 地址: 前进大街与修正路交汇处北行100米 | 类别: 生活服务;洗浴推拿场所;洗浴推拿场所",
    "city": "长春"
  },
  {
    "name": "南湖公园-金沙滩",
    "category": "outdoor",
    "duration_minutes": 120,
    "rating": 4.0,
    "lat": 43.853128,
    "lon": 125.318181,
    "description": "电话: 0431-85663059 | 地址: 工农大路与昂昂溪路交汇处西100米 | 类别: 风景名胜;风景名胜;海滩",
    "city": "长春"
  },
  {
    "name": "净月潭国家森林公园",
    "category": "outdoor",
    "duration_minutes": 120,
    "rating": 4.0,
    "lat": 43.801388,
    "lon": 125.455345,
    "description": "电话: 0431-84518000 | 地址: 净月大街5840号 | 类别: 风景名胜;风景名胜;国家级景点",
    "city": "长春"
  },
  {
    "name": "长春历史文化博物馆",
    "category": "museum",
    "duration_minutes": 120,
    "rating": 4.0,
    "lat": 43.868896,
    "lon": 125.308926,
    "description": "地址: 桂林街道新民大街1002号 | 类别: 科教文化服务;博物馆;博物馆",
    "city": "长春"
  },
  {
    "name": "长春雕塑博物馆",
    "category": "museum",
    "duration_minutes": 120,
    "rating": 4.0,
    "lat": 43.819338,
    "lon": 125.336262,
    "description": "电话: 0431-85379019 | 地址: 人民大街9518号长春世界雕塑园(东南角) | 类别: 科教文化服务;博物馆;博物馆",
    "city": "长春"
  },
  {
    "name": "孔子文化园",
    "category": "sightseeing",
    "duration_minutes": 120,
    "rating": 4.0,
    "lat": 43.886478,
    "lon": 125.350736,
    "description": "电话: 0431-89612677 | 地址: 亚泰大街与东头道交汇处(东天街239号) | 类别: 风景名胜;风景名胜;风景名胜",
    "city": "长春"
  },
  {
    "name": "伪满皇宫博物院",
    "category": "history",
    "duration_minutes": 120,
    "rating": 4.0,
    "lat": 43.905618,
    "lon": 125.348749,
    "description": "电话: 0431-82866611 | 地址: 光复北路5号 | 类别: 风景名胜;风景名胜;国家级景点",
    "city": "长春"
  },
  {
    "name": "长影世纪城",
    "category": "sightseeing",
    "duration_minutes": 120,
    "rating": 4.0,
    "lat": 43.772507,
    "lon": 125.446222,
    "description": "电话: 0431-84550888 | 地址: 永顺路路北 | 类别: 风景名胜;风景名胜;国家级景点",
    "city": "长春"
  },
  {
    "name": "文化广场",
    "category": "outdoor",
    "duration_minutes": 120,
    "rating": 4.0,
    "lat": 43.879624,
    "lon": 125.307773,
    "description": "地址: 清和街道新民大街与解放大路交汇处 | 类别: 风景名胜;公园广场;城市广场",
    "city": "长春"
  },
  {
    "name": "东方广场",
    "category": "outdoor",
    "duration_minutes": 120,
    "rating": 4.0,
    "lat": 43.881522,
    "lon": 125.427246,
    "description": "地址: 东吉林大路与吉林大路交叉口 | 类别: 风景名胜;公园广场;城市广场",
    "city": "长春"
  },
  {
    "name": "兰桡湖公园",
    "category": "outdoor",
    "duration_minutes": 120,
    "rating": 4.0,
    "lat": 43.798018,
    "lon": 125.291737,
    "description": "地址: 幸福乡南部新城至前进大街、西至丙六十四路、南至金宇大路、北至丙四十七路 | 类别: 风景名胜;公园广场;公园",
    "city": "长春"
  },
  {
    "name": "山水湾公园",
    "category": "outdoor",
    "duration_minutes": 120,
    "rating": 4.0,
    "lat": 43.825854,
    "lon": 125.320204,
    "description": "地址: 湖畔路与警港路交叉口西北200米 | 类别: 风景名胜;公园广场;公园",
    "city": "长春"
  },
  {
    "name": "长春工业轨迹公园",
    "category": "outdoor",
    "duration_minutes": 120,
    "rating": 4.0,
    "lat": 43.829048,
    "lon": 125.349657,
    "description": "地址: 东岭南街长春工业轨迹公园 | 类别: 风景名胜;公园广场;公园",
    "city": "长春"
  },
  {
    "name": "长春莲花岛影视城",
    "category": "sightseeing",
    "duration_minutes": 120,
    "rating": 4.0,
    "lat": 43.735888,
    "lon": 125.331002,
    "description": "电话: 13756146677 | 地址: 永春镇柳家村文化路1777号 | 类别: 风景名胜;风景名胜;国家级景点",
    "city": "长春"
  },
  {
    "name": "长春德苑",
    "category": "outdoor",
    "duration_minutes": 120,
    "rating": 4.0,
    "lat": 43.873901,
    "lon": 125.303819,
    "description": "地址: 红旗街道新民大街7号 | 类别: 风景名胜;公园广场;公园",
    "city": "长春"
  },
  {
    "name": "月荷文化公园",
    "category": "outdoor",
    "duration_minutes": 120,
    "rating": 4.0,
    "lat": 43.876628,
    "lon": 125.357188,
    "description": "地址: 吉林街道滨河路与公平桥交汇北行200米 | 类别: 风景名胜;公园广场;公园",
    "city": "长春"
  },
  {
    "name": "护国般若寺",
    "category": "history",
    "duration_minutes": 120,
    "rating": 4.0,
    "lat": 43.889223,
    "lon": 125.328106,
    "description": "电话: 0431-88914771 | 地址: 长春大街137号(人民广场地铁站C口步行310米) | 类别: 风景名胜;风景名胜;寺庙道观",
    "city": "长春"
  },
  {
    "name": "工农广场",
    "category": "outdoor",
    "duration_minutes": 120,
    "rating": 4.0,
    "lat": 43.851943,
    "lon": 125.325055,
    "description": "地址: 人民大街6969号(工农广场地铁站A口旁) | 类别: 风景名胜;公园广场;城市广场",
    "city": "长春"
  },
  {
    "name": "百草园",
    "category": "outdoor",
    "duration_minutes": 120,
    "rating": 4.0,
    "lat": 43.8072,
    "lon": 125.272867,
    "description": "地址: 丙十七路与翠语路交汇 | 类别: 风景名胜;公园广场;公园",
    "city": "长春"
  },
  {
    "name": "长春市胜利公园",
    "category": "outdoor",
    "duration_minutes": 120,
    "rating": 4.0,
    "lat": 43.900013,
    "lon": 125.319895,
    "description": "电话: 0431-82799452;0431-82716319 | 地址: 人民大街955号(胜利公园地铁站A口步行50米) | 类别: 风景名胜;公园广场;公园",
    "city": "长春"
  },
  {
    "name": "吉林省博物院",
    "category": "museum",
    "duration_minutes": 120,
    "rating": 4.0,
    "lat": 43.768588,
    "lon": 125.432521,
    "description": "电话: 0431-88917353;0431-81959582 | 地址: 永顺路1666号 | 类别: 科教文化服务;博物馆;博物馆",
    "city": "长春"
  },
  {
    "name": "文庙",
    "category": "museum",
    "duration_minutes": 120,
    "rating": 4.0,
    "lat": 43.887011,
    "lon": 125.351261,
    "description": "电话: 0431-89612677 | 地址: 东头道街239号(亚泰大街路口) | 类别: 科教文化服务;博物馆;博物馆",
    "city": "长春"
  },
  {
    "name": "三佳湖公园",
    "category": "outdoor",
    "duration_minutes": 120,
    "rating": 4.0,
    "lat": 43.816453,
    "lon": 125.267638,
    "description": "地址: 飞跃街道吉林大学前卫校区南区(中心校区)西门对面 | 类别: 风景名胜;公园广场;公园",
    "city": "长春"
  },
  {
    "name": "长春公园",
    "category": "outdoor",
    "duration_minutes": 120,
    "rating": 4.0,
    "lat": 43.894709,
    "lon": 125.276155,
    "description": "电话: 0431-89856456 | 地址: 皓月大路1411号 | 类别: 风景名胜;公园广场;公园",
    "city": "长春"
  },
  {
    "name": "北京大街西历史文化街区",
    "category": "sightseeing",
    "duration_minutes": 120,
    "rating": 4.0,
    "lat": 43.897124,
    "lon": 125.32751,
    "description": "地址: 光耀胡同与清明街交叉口西40米 | 类别: 购物服务;特色商业街;特色商业街",
    "city": "长春"
  },
  {
    "name": "建设广场",
    "category": "sightseeing",
    "duration_minutes": 120,
    "rating": 4.0,
    "lat": 43.877418,
    "lon": 125.295891,
    "description": "地址: 朝阳区 | 类别: 地名地址信息;地名地址信息;地名地址信息",
    "city": "长春"
  },
  {
    "name": "吉林省酒文化博物馆",
    "category": "museum",
    "duration_minutes": 120,
    "rating": 4.0,
    "lat": 43.828283,
    "lon": 125.340496,
    "description": "电话: 0431-88508899 | 地址: 明珠街道亚泰大街9699号 | 类别: 科教文化服务;博物馆;博物馆",
    "city": "长春"
  },
  {
    "name": "尚都动漫小镇",
    "category": "sightseeing",
    "duration_minutes": 120,
    "rating": 4.0,
    "lat": 43.778406,
    "lon": 125.403289,
    "description": "地址: 柳莺西路 | 类别: 商务住宅;住宅区;住宅小区",
    "city": "长春"
  },
  {
    "name": "长春北湖湿地公园",
    "category": "outdoor",
    "duration_minutes": 120,
    "rating": 4.0,
    "lat": 43.977003,
    "lon": 125.363691,
    "description": "电话: 15304309710 | 地址: 天拓路666号 | 类别: 风景名胜;风景名胜;国家级景点",
    "city": "长春"
  },
  {
    "name": "吉林省自然博物馆",
    "category": "museum",
    "duration_minutes": 120,
    "rating": 4.0,
    "lat": 43.829554,
    "lon": 125.432919,
    "description": "电话: 0431-84537568 | 地址: 净月经济开发区净月大街2556号 | 类别: 科教文化服务;博物馆;博物馆",
    "city": "长春"
  },
  {
    "name": "净月中央公园",
    "category": "outdoor",
    "duration_minutes": 120,
    "rating": 4.0,
    "lat": 43.793989,
    "lon": 125.388445,
    "description": "地址: 新城大街与银杏路交会处 | 类别: 风景名胜;公园广场;公园",
    "city": "长春"
  },
  {
    "name": "西广场",
    "category": "outdoor",
    "duration_minutes": 120,
    "rating": 4.0,
    "lat": 43.904685,
    "lon": 125.318574,
    "description": "地址: 汉口大街与北京大街交汇处 | 类别: 风景名胜;公园广场;城市广场|地名地址信息;交通地名;环岛名|风景名胜;风景名胜;风景名胜",
    "city": "长春"
  },
  {
    "name": "南广场",
    "category": "outdoor",
    "duration_minutes": 120,
    "rating": 4.0,
    "lat": 43.904925,
    "lon": 125.332893,
    "description": "地址: 南广场与珠江路交汇处东50米 | 类别: 风景名胜;公园广场;城市广场",
    "city": "长春"
  },
  {
    "name": "长春动植物公园-动物表演场",
    "category": "outdoor",
    "duration_minutes": 120,
    "rating": 4.0,
    "lat": 43.866944,
    "lon": 125.332622,
    "description": "电话: 0431-85640196 | 地址: 曙光街道自由大路2121号长春市动植物公园 | 类别: 风景名胜;风景名胜相关;旅游景点",
    "city": "长春"
  },
  {
    "name": "清水音公园",
    "category": "outdoor",
    "duration_minutes": 120,
    "rating": 4.0,
    "lat": 43.792517,
    "lon": 125.320618,
    "description": "地址: 新明街附近 | 类别: 风景名胜;公园广场;公园",
    "city": "长春"
  },
  {
    "name": "蓝天公园",
    "category": "outdoor",
    "duration_minutes": 120,
    "rating": 4.0,
    "lat": 43.896789,
    "lon": 125.203816,
    "description": "地址: 航空展览馆前面 | 类别: 风景名胜;公园广场;公园",
    "city": "长春"
  },
  {
    "name": "长春动植物公园-主入口广场",
    "category": "outdoor",
    "duration_minutes": 120,
    "rating": 4.0,
    "lat": 43.865513,
    "lon": 125.334592,
    "description": "电话: 0431-85640196 | 地址: 自由大路2121号长春市动植物公园内(南侧) | 类别: 风景名胜;公园广场;城市广场",
    "city": "长春"
  },
  {
    "name": "长春市儿童公园",
    "category": "outdoor",
    "duration_minutes": 120,
    "rating": 4.0,
    "lat": 43.883126,
    "lon": 125.327852,
    "description": "电话: 0431-88913871 | 地址: 民康街道树勋街248号 | 类别: 风景名胜;公园广场;公园",
    "city": "长春"
  },
  {
    "name": "咏春公园",
    "category": "outdoor",
    "duration_minutes": 120,
    "rating": 4.0,
    "lat": 43.755253,
    "lon": 125.323833,
    "description": "地址: 永春街777号 | 类别: 风景名胜;公园广场;公园",
    "city": "长春"
  },
  {
    "name": "东北师范大学东北民族民俗博物馆(新城大街)",
    "category": "museum",
    "duration_minutes": 120,
    "rating": 4.0,
    "lat": 43.837609,
    "lon": 125.403772,
    "description": "电话: 0431-89165518 | 地址: 经济技术开发区世纪广场卫星路1号 | 类别: 科教文化服务;博物馆;博物馆",
    "city": "长春"
  },
  {
    "name": "吉林省东北虎园",
    "category": "outdoor",
    "duration_minutes": 120,
    "rating": 4.0,
    "lat": 43.767726,
    "lon": 125.461534,
    "description": "电话: 0431-84530001;0431-84554080 | 地址: 净月大街10500号 | 类别: 风景名胜;公园广场;动物园",
    "city": "长春"
  },
  {
    "name": "长春冰雪新天地",
    "category": "sightseeing",
    "duration_minutes": 120,
    "rating": 4.0,
    "lat": 43.874547,
    "lon": 125.588697,
    "description": "地址: 冰雪大路 | 类别: 风景名胜;风景名胜;风景名胜",
    "city": "长春"
  },
  {
    "name": "长春关东文化园",
    "category": "sightseeing",
    "duration_minutes": 120,
    "rating": 4.0,
    "lat": 43.945823,
    "lon": 125.220055,
    "description": "电话: 19500334089 | 地址: 城西镇跃进村 | 类别: 风景名胜;风景名胜;风景名胜",
    "city": "长春"
  },
  {
    "name": "万寿寺",
    "category": "history",
    "duration_minutes": 120,
    "rating": 4.0,
    "lat": 43.99723,
    "lon": 125.361381,
    "description": "电话: 0431-81170000 | 地址: 长春北湖湿地公园 | 类别: 风景名胜;风景名胜;寺庙道观",
    "city": "长春"
  },
  {
    "name": "长拖1958",
    "category": "sightseeing",
    "duration_minutes": 120,
    "rating": 4.0,
    "lat": 43.892585,
    "lon": 125.385172,
    "description": "电话: 0431-77770805 | 地址: 东新路与福安街交会西行100米 | 类别: 科教文化服务;科教文化场所;科教文化场所",
    "city": "长春"
  },
  {
    "name": "海绵城市广场",
    "category": "outdoor",
    "duration_minutes": 120,
    "rating": 4.0,
    "lat": 43.847707,
    "lon": 125.345042,
    "description": "地址: 亚泰大街净水路交汇北行长春水文化生态园内(东北角) | 类别: 风景名胜;公园广场;城市广场",
    "city": "长春"
  },
  {
    "name": "长春市牡丹园",
    "category": "outdoor",
    "duration_minutes": 120,
    "rating": 4.0,
    "lat": 43.880467,
    "lon": 125.322151,
    "description": "地址: 人民大街3133号(解放大路地铁站A口步行230米) | 类别: 风景名胜;公园广场;公园",
    "city": "长春"
  },
  {
    "name": "湿地园-月亮岛",
    "category": "sightseeing",
    "duration_minutes": 120,
    "rating": 4.0,
    "lat": 43.877252,
    "lon": 125.358274,
    "description": "地址: 月荷文化公园 | 类别: 风景名胜;风景名胜相关;旅游景点",
    "city": "长春"
  },
  {
    "name": "ChangchunCity·长春哈王国游乐园",
    "category": "sightseeing",
    "duration_minutes": 120,
    "rating": 4.0,
    "lat": 43.761505,
    "lon": 125.248479,
    "description": "地址: 超越大街辅路与城南大路交叉口西100米 | 类别: 体育休闲服务;休闲场所;游乐场",
    "city": "长春"
  },
  {
    "name": "光明公园",
    "category": "outdoor",
    "duration_minutes": 120,
    "rating": 4.0,
    "lat": 43.805967,
    "lon": 125.320405,
    "description": "地址: 南四环路 | 类别: 风景名胜;公园广场;公园",
    "city": "长春"
  },
  {
    "name": "皓月广场",
    "category": "outdoor",
    "duration_minutes": 120,
    "rating": 4.0,
    "lat": 43.892909,
    "lon": 125.161071,
    "description": "地址: 皓月大路和秋实街交叉口 | 类别: 风景名胜;公园广场;城市广场",
    "city": "长春"
  },
  {
    "name": "龙翔广场",
    "category": "outdoor",
    "duration_minutes": 120,
    "rating": 4.0,
    "lat": 43.975709,
    "lon": 125.384875,
    "description": "地址: 北四环路与北远达大街交汇处 | 类别: 风景名胜;公园广场;城市广场",
    "city": "长春"
  },
  {
    "name": "东广场",
    "category": "outdoor",
    "duration_minutes": 120,
    "rating": 4.0,
    "lat": 43.907999,
    "lon": 125.337755,
    "description": "地址: 黑水路28号远东服装大厦 | 类别: 风景名胜;公园广场;城市广场",
    "city": "长春"
  },
  {
    "name": "清真寺",
    "category": "sightseeing",
    "duration_minutes": 120,
    "rating": 4.0,
    "lat": 43.900419,
    "lon": 125.349615,
    "description": "地址: 长通街道长通路430-4号 | 类别: 风景名胜;风景名胜;回教寺",
    "city": "长春"
  },
  {
    "name": "大洲广场",
    "category": "outdoor",
    "duration_minutes": 120,
    "rating": 4.0,
    "lat": 43.816257,
    "lon": 125.202621,
    "description": "地址: 长沈路与西湖大路交汇处 | 类别: 风景名胜;公园广场;城市广场",
    "city": "长春"
  },
  {
    "name": "岱山公园",
    "category": "outdoor",
    "duration_minutes": 120,
    "rating": 4.0,
    "lat": 43.854555,
    "lon": 125.223565,
    "description": "电话: 0431-85984095 | 地址: 创业大街4413号 | 类别: 风景名胜;公园广场;公园",
    "city": "长春"
  },
  {
    "name": "莲花山生态旅游度假区",
    "category": "outdoor",
    "duration_minutes": 120,
    "rating": 4.0,
    "lat": 43.88594,
    "lon": 125.546194,
    "description": "地址: 雾九路1号 | 类别: 商务住宅;产业园区;产业园区",
    "city": "长春"
  },
  {
    "name": "净月潭滑雪场",
    "category": "sightseeing",
    "duration_minutes": 120,
    "rating": 4.0,
    "lat": 43.765648,
    "lon": 125.474352,
    "description": "电话: 0431-84520609;0431-84529399 | 地址: 玉潭镇净月大街5840号净月潭国家森林公园内(东南角) | 类别: 体育休闲服务;运动场馆;滑雪场",
    "city": "长春"
  },
  {
    "name": "动植物公园儿童动物园",
    "category": "outdoor",
    "duration_minutes": 120,
    "rating": 4.0,
    "lat": 43.869977,
    "lon": 125.33371,
    "description": "地址: 自由大路2121号长春动植物公园内 | 类别: 风景名胜;公园广场;动物园",
    "city": "长春"
  },
  {
    "name": "天定山滑雪场",
    "category": "outdoor",
    "duration_minutes": 120,
    "rating": 4.0,
    "lat": 43.881006,
    "lon": 125.600097,
    "description": "地址: 莲花山生态旅游度假区泉眼镇泉眼村先锋屯泉眼大街 | 类别: 体育休闲服务;运动场馆;滑雪场",
    "city": "长春"
  },
  {
    "name": "天茂湖哈王国滑雪场冰雪乐园",
    "category": "outdoor",
    "duration_minutes": 120,
    "rating": 4.0,
    "lat": 43.762088,
    "lon": 125.251367,
    "description": "地址: 超越大街与城南大路交汇处 | 类别: 体育休闲服务;运动场馆;滑雪场",
    "city": "长春"
  },
  {
    "name": "卫星广场",
    "category": "outdoor",
    "duration_minutes": 120,
    "rating": 4.0,
    "lat": 43.832935,
    "lon": 125.325868,
    "description": "地址: 卫星路与人民大街交汇处 | 类别: 风景名胜;公园广场;城市广场",
    "city": "长春"
  },
  {
    "name": "长春博物馆",
    "category": "museum",
    "duration_minutes": 120,
    "rating": 4.0,
    "lat": 43.811211,
    "lon": 125.31912,
    "description": "电话: 0431-80514008 | 地址: 华弘街111号 | 类别: 科教文化服务;博物馆;博物馆",
    "city": "长春"
  },
  {
    "name": "南湖广场",
    "category": "outdoor",
    "duration_minutes": 120,
    "rating": 4.0,
    "lat": 43.850692,
    "lon": 125.289451,
    "description": "地址: 南湖大路 | 类别: 风景名胜;公园广场;城市广场",
    "city": "长春"
  },
  {
    "name": "生态广场",
    "category": "outdoor",
    "duration_minutes": 120,
    "rating": 4.0,
    "lat": 43.819276,
    "lon": 125.377699,
    "description": "地址: 东方广场街道办事处(长春经济技术开发区) | 类别: 风景名胜;公园广场;城市广场",
    "city": "长春"
  },
  {
    "name": "赛得广场",
    "category": "outdoor",
    "duration_minutes": 120,
    "rating": 4.0,
    "lat": 43.851831,
    "lon": 125.377026,
    "description": "地址: 东南湖大路与仙台大街交汇处 | 类别: 风景名胜;公园广场;城市广场",
    "city": "长春"
  },
  {
    "name": "世纪广场",
    "category": "outdoor",
    "duration_minutes": 120,
    "rating": 4.0,
    "lat": 43.839849,
    "lon": 125.404437,
    "description": "地址: 卫星路与东环城路交汇处 | 类别: 风景名胜;公园广场;城市广场",
    "city": "长春"
  },
  {
    "name": "万龙百草园(建设中)",
    "category": "sightseeing",
    "duration_minutes": 120,
    "rating": 4.0,
    "lat": 43.807727,
    "lon": 125.275963,
    "description": "地址: 芳草街与林语路交汇(市法院地铁站A口步行260米) | 类别: 商务住宅;住宅区;住宅小区",
    "city": "长春"
  },
  {
    "name": "长春农业博览园(暂停开放)",
    "category": "sightseeing",
    "duration_minutes": 120,
    "rating": 4.0,
    "lat": 43.810515,
    "lon": 125.429928,
    "description": "电话: 0431-81985050;0431-81985100 | 地址: 净月大街4775号 | 类别: 风景名胜;风景名胜;风景名胜",
    "city": "长春"
  },
  {
    "name": "景阳广场",
    "category": "outdoor",
    "duration_minutes": 120,
    "rating": 4.0,
    "lat": 43.884331,
    "lon": 125.271519,
    "description": "地址: 景阳大路1388号(景阳广场地铁站A口步行230米) | 类别: 风景名胜;公园广场;城市广场",
    "city": "长春"
  },
  {
    "name": "大佛寺",
    "category": "history",
    "duration_minutes": 120,
    "rating": 4.0,
    "lat": 43.845321,
    "lon": 125.320442,
    "description": "地址: 湖滨街613号 | 类别: 风景名胜;风景名胜;寺庙道观",
    "city": "长春"
  },
  {
    "name": "飞跃广场",
    "category": "outdoor",
    "duration_minutes": 120,
    "rating": 4.0,
    "lat": 43.848724,
    "lon": 125.229858,
    "description": "地址: 汽车产业开发区 | 类别: 风景名胜;公园广场;城市广场",
    "city": "长春"
  },
  {
    "name": "樱花岛",
    "category": "outdoor",
    "duration_minutes": 120,
    "rating": 4.0,
    "lat": 43.846898,
    "lon": 125.356336,
    "description": "地址: 东南湖大路220号 | 类别: 风景名胜;公园广场;公园",
    "city": "长春"
  },
  {
    "name": "红嘴鸥赶海公园(暂停营业)",
    "category": "outdoor",
    "duration_minutes": 120,
    "rating": 4.0,
    "lat": 43.763209,
    "lon": 125.340142,
    "description": "地址: 畅溪街与勤学路交叉口西南460米 | 类别: 体育休闲服务;休闲场所;休闲场所",
    "city": "长春"
  },
  {
    "name": "北海公园",
    "category": "outdoor",
    "duration_minutes": 120,
    "rating": 4.0,
    "lat": 43.843293,
    "lon": 125.38829,
    "description": "地址: 会展大街100号 | 类别: 风景名胜;公园广场;公园",
    "city": "长春"
  },
  {
    "name": "西安广场",
    "category": "outdoor",
    "duration_minutes": 120,
    "rating": 4.0,
    "lat": 43.902487,
    "lon": 125.276333,
    "description": "电话: 13944993413 | 地址: 西安大路169号 | 类别: 风景名胜;公园广场;城市广场",
    "city": "长春"
  },
  {
    "name": "旧八大部(不对外开放)",
    "category": "sightseeing",
    "duration_minutes": 120,
    "rating": 4.0,
    "lat": 43.877053,
    "lon": 125.309681,
    "description": "地址: 永昌街道新民大街126号附近 | 类别: 风景名胜;风景名胜相关;旅游景点",
    "city": "长春"
  },
  {
    "name": "天主教堂",
    "category": "sightseeing",
    "duration_minutes": 120,
    "rating": 4.0,
    "lat": 43.890749,
    "lon": 125.346719,
    "description": "地址: 东四道街106号 | 类别: 风景名胜;风景名胜;教堂",
    "city": "长春"
  },
  {
    "name": "长春亚泰新城温泉饭店",
    "category": "sightseeing",
    "duration_minutes": 120,
    "rating": 4.0,
    "lat": 43.764142,
    "lon": 125.398803,
    "description": "电话: 0431-84541777;0431-84541888;0431-84541888,0 | 地址: 新城大街8888号 | 类别: 住宿服务;宾馆酒店;四星级宾馆",
    "city": "长春"
  },
  {
    "name": "第一汽车制造厂1号门景观喷泉",
    "category": "sightseeing",
    "duration_minutes": 120,
    "rating": 4.0,
    "lat": 43.856961,
    "lon": 125.248133,
    "description": "地址: 东风大街 | 类别: 风景名胜;风景名胜;风景名胜",
    "city": "长春"
  },
  {
    "name": "博文湖公园",
    "category": "outdoor",
    "duration_minutes": 120,
    "rating": 4.0,
    "lat": 43.819013,
    "lon": 125.316758,
    "description": "地址: 华新街与政兴路交叉口西180米 | 类别: 风景名胜;公园广场;公园",
    "city": "长春"
  },
  {
    "name": "北海湿地公园",
    "category": "outdoor",
    "duration_minutes": 120,
    "rating": 4.0,
    "lat": 43.83865,
    "lon": 125.359012,
    "description": "地址: 堤顶东路 | 类别: 风景名胜;公园广场;公园",
    "city": "长春"
  },
  {
    "name": "国信南山温泉",
    "category": "outdoor",
    "duration_minutes": 120,
    "rating": 4.0,
    "lat": 43.685738,
    "lon": 125.528192,
    "description": "电话: 0431-85837777 | 地址: 长清公路16公里处 | 类别: 风景名胜;风景名胜相关;旅游景点",
    "city": "长春"
  },
  {
    "name": "松山韩蓉非洲艺术收藏博物馆",
    "category": "museum",
    "duration_minutes": 120,
    "rating": 4.0,
    "lat": 43.825511,
    "lon": 125.33962,
    "description": "电话: 0431-89189377 | 地址: 亚泰大街9777号长春世界雕塑公园内 | 类别: 科教文化服务;科教文化场所;科教文化场所",
    "city": "长春"
  },
  {
    "name": "东北沦陷史陈列馆",
    "category": "sightseeing",
    "duration_minutes": 120,
    "rating": 4.0,
    "lat": 43.906658,
    "lon": 125.351597,
    "description": "地址: 东广街道光复北路5号(近伪满皇宫东部) | 类别: 科教文化服务;展览馆;展览馆",
    "city": "长春"
  },
  {
    "name": "劲风体育公园",
    "category": "outdoor",
    "duration_minutes": 120,
    "rating": 4.0,
    "lat": 43.837521,
    "lon": 125.436056,
    "description": "电话: 0431-86868333 | 地址: 金城街与银丰路交叉口东北约120米 | 类别: 体育休闲服务;体育休闲服务场所;体育休闲服务场所",
    "city": "长春"
  },
  {
    "name": "吉林恒大水世界(暂停营业)",
    "category": "sightseeing",
    "duration_minutes": 120,
    "rating": 4.0,
    "lat": 43.847072,
    "lon": 125.095465,
    "description": "地址: 富民大街1777号 | 类别: 体育休闲服务;休闲场所;水上活动中心",
    "city": "长春"
  },
  {
    "name": "长春国际汽车公园",
    "category": "outdoor",
    "duration_minutes": 120,
    "rating": 4.0,
    "lat": 43.828471,
    "lon": 125.176229,
    "description": "地址: 长春汽车产业开发区东风街道长春汽车产业开发区东风大街与西湖大路交汇处 | 类别: 风景名胜;公园广场;公园",
    "city": "长春"
  },
  {
    "name": "长春解放纪念碑",
    "category": "history",
    "duration_minutes": 120,
    "rating": 4.0,
    "lat": 43.862076,
    "lon": 125.308158,
    "description": "电话: 0431-85664455 | 地址: 新民广场南侧南湖公园3号门内南走200米 | 类别: 风景名胜;风景名胜;纪念馆",
    "city": "长春"
  },
  {
    "name": "长春西湖公园",
    "category": "outdoor",
    "duration_minutes": 120,
    "rating": 4.0,
    "lat": 43.864498,
    "lon": 125.157301,
    "description": "地址: 富民大街与西湖大路交叉口西北角 | 类别: 风景名胜;公园广场;公园",
    "city": "长春"
  },
  {
    "name": "伪满中央银行旧址",
    "category": "history",
    "duration_minutes": 120,
    "rating": 4.0,
    "lat": 43.888619,
    "lon": 125.323117,
    "description": "地址: 人民大街2303号(人民广场地铁站D1口步行120米) | 类别: 风景名胜;风景名胜;纪念馆",
    "city": "长春"
  },
  {
    "name": "三角广场",
    "category": "outdoor",
    "duration_minutes": 120,
    "rating": 4.0,
    "lat": 43.812498,
    "lon": 125.32297,
    "description": "地址: 谊民路与华弘街交叉口东120米 | 类别: 风景名胜;公园广场;城市广场",
    "city": "长春"
  },
  {
    "name": "前进广场",
    "category": "sightseeing",
    "duration_minutes": 120,
    "rating": 4.0,
    "lat": 43.830652,
    "lon": 125.291291,
    "description": "地址: 长春市高新技术产业开发区 | 类别: 风景名胜;风景名胜相关;旅游景点",
    "city": "长春"
  },
  {
    "name": "五行山下",
    "category": "outdoor",
    "duration_minutes": 120,
    "rating": 4.0,
    "lat": 43.865787,
    "lon": 125.33861,
    "description": "地址: 吉顺街与自由大路交叉口西北220米 | 类别: 风景名胜;风景名胜;风景名胜",
    "city": "长春"
  },
  {
    "name": "南溪湿地公园-沙滩区",
    "category": "outdoor",
    "duration_minutes": 120,
    "rating": 4.0,
    "lat": 43.808253,
    "lon": 125.349926,
    "description": "地址: 南溪湿地公园(东北角) | 类别: 风景名胜;风景名胜;海滩",
    "city": "长春"
  },
  {
    "name": "锦程公园",
    "category": "outdoor",
    "duration_minutes": 120,
    "rating": 4.0,
    "lat": 43.854575,
    "lon": 125.233061,
    "description": "地址: 汽车产业开发区锦程大街和奔驰路交汇处 | 类别: 风景名胜;公园广场;公园",
    "city": "长春"
  },
  {
    "name": "长春市西五马路基督教堂",
    "category": "sightseeing",
    "duration_minutes": 120,
    "rating": 4.0,
    "lat": 43.896828,
    "lon": 125.33239,
    "description": "电话: 0431-82957722 | 地址: 西五马路615号 | 类别: 风景名胜;风景名胜;教堂",
    "city": "长春"
  },
  {
    "name": "百国兴隆寺",
    "category": "history",
    "duration_minutes": 120,
    "rating": 4.0,
    "lat": 43.93364,
    "lon": 125.276515,
    "description": "电话: 0431-87867155 | 地址: 柳影街道新月路44号 | 类别: 风景名胜;风景名胜;寺庙道观",
    "city": "长春"
  },
  {
    "name": "八一公园",
    "category": "outdoor",
    "duration_minutes": 120,
    "rating": 4.0,
    "lat": 43.781125,
    "lon": 125.280768,
    "description": "地址: 长春高新技术产业开发区长春南部新城 | 类别: 风景名胜;公园广场;公园",
    "city": "长春"
  },
  {
    "name": "天定山旅游度假小镇",
    "category": "outdoor",
    "duration_minutes": 120,
    "rating": 4.0,
    "lat": 43.87459,
    "lon": 125.585307,
    "description": "电话: 0431-80545678 | 地址: 冰雪大路 | 类别: 体育休闲服务;度假疗养场所;度假村",
    "city": "长春"
  },
  {
    "name": "吉柴文化广场",
    "category": "outdoor",
    "duration_minutes": 120,
    "rating": 4.0,
    "lat": 43.890648,
    "lon": 125.375243,
    "description": "地址: 东盛大街与阜丰路交汇 | 类别: 风景名胜;公园广场;城市广场",
    "city": "长春"
  },
  {
    "name": "大顶子山爬山点",
    "category": "outdoor",
    "duration_minutes": 120,
    "rating": 4.0,
    "lat": 43.706493,
    "lon": 125.465484,
    "description": "地址: 建国路188号 | 类别: 风景名胜;风景名胜;风景名胜",
    "city": "长春"
  },
  {
    "name": "裕华园",
    "category": "outdoor",
    "duration_minutes": 120,
    "rating": 4.0,
    "lat": 43.887173,
    "lon": 125.307833,
    "description": "地址: 东民主大街与锦水路交叉口西40米 | 类别: 风景名胜;公园广场;公园",
    "city": "长春"
  },
  {
    "name": "沙俄领事馆旧址",
    "category": "sightseeing",
    "duration_minutes": 120,
    "rating": 4.0,
    "lat": 43.900169,
    "lon": 125.348117,
    "description": "地址: 长通路与东四马路交叉口西北80米 | 类别: 风景名胜;风景名胜相关;旅游景点",
    "city": "长春"
  },
  {
    "name": "如意溪公园",
    "category": "outdoor",
    "duration_minutes": 120,
    "rating": 4.0,
    "lat": 43.81065,
    "lon": 125.306355,
    "description": "地址: 翠语路与南湖中街交叉口东北100米 | 类别: 风景名胜;公园广场;公园",
    "city": "长春"
  },
  {
    "name": "锦江公园",
    "category": "outdoor",
    "duration_minutes": 120,
    "rating": 4.0,
    "lat": 43.87883,
    "lon": 125.258689,
    "description": "地址: 春城街道春城大街与锦阳路交汇 | 类别: 风景名胜;公园广场;公园",
    "city": "长春"
  },
  {
    "name": "硅谷广场",
    "category": "sightseeing",
    "duration_minutes": 120,
    "rating": 4.0,
    "lat": 43.824694,
    "lon": 125.26246,
    "description": "地址: 朝阳区 | 类别: 地名地址信息;热点地名;热点地名",
    "city": "长春"
  },
  {
    "name": "白桦林",
    "category": "sightseeing",
    "duration_minutes": 120,
    "rating": 4.0,
    "lat": 43.851661,
    "lon": 125.307588,
    "description": "地址: 南湖大路与南湖新村东街交叉口东300米 | 类别: 风景名胜;风景名胜;风景名胜",
    "city": "长春"
  },
  {
    "name": "天茂湖公园",
    "category": "outdoor",
    "duration_minutes": 120,
    "rating": 4.0,
    "lat": 43.764671,
    "lon": 125.243564,
    "description": "地址: 超越大街辅路与湖韵街交叉口西南420米 | 类别: 风景名胜;公园广场;公园",
    "city": "长春"
  },
  {
    "name": "长春奥林匹克公园",
    "category": "outdoor",
    "duration_minutes": 120,
    "rating": 4.0,
    "lat": 43.993868,
    "lon": 125.418615,
    "description": "地址: 长春新区中科大街与大学城路交汇处 | 类别: 风景名胜;公园广场;公园",
    "city": "长春"
  },
  {
    "name": "长春水文化生态园-主入口广场",
    "category": "outdoor",
    "duration_minutes": 120,
    "rating": 4.0,
    "lat": 43.844903,
    "lon": 125.338173,
    "description": "地址: 亚泰大街净水路交汇北行长春水文化生态园内(西侧) | 类别: 风景名胜;公园广场;城市广场",
    "city": "长春"
  },
  {
    "name": "回忆岛",
    "category": "outdoor",
    "duration_minutes": 120,
    "rating": 4.0,
    "lat": 43.857573,
    "lon": 125.360017,
    "description": "地址: 临河街与浦东路交叉口西380米 | 类别: 风景名胜;公园广场;公园",
    "city": "长春"
  },
  {
    "name": "北观音寺",
    "category": "history",
    "duration_minutes": 120,
    "rating": 4.0,
    "lat": 43.876574,
    "lon": 125.366457,
    "description": "地址: 利民路147号 | 类别: 风景名胜;风景名胜;寺庙道观",
    "city": "长春"
  },
  {
    "name": "吉林省民间工艺美术馆",
    "category": "museum",
    "duration_minutes": 120,
    "rating": 4.0,
    "lat": 43.783951,
    "lon": 125.441934,
    "description": "地址: 福祉大路宝相街66号 | 类别: 科教文化服务;美术馆;美术馆|风景名胜;风景名胜相关;旅游景点",
    "city": "长春"
  },
  {
    "name": "同心湖公园",
    "category": "outdoor",
    "duration_minutes": 120,
    "rating": 4.0,
    "lat": 43.872069,
    "lon": 125.23601,
    "description": "地址: 自立街与振兴路交叉口东北380米 | 类别: 风景名胜;公园广场;公园",
    "city": "长春"
  },
  {
    "name": "长春宁溪公园",
    "category": "outdoor",
    "duration_minutes": 120,
    "rating": 4.0,
    "lat": 43.992438,
    "lon": 125.393388,
    "description": "地址: 中盛路与北湾东街交叉口西北160米 | 类别: 风景名胜;公园广场;公园",
    "city": "长春"
  },
  {
    "name": "伟峰东域下沉广场",
    "category": "outdoor",
    "duration_minutes": 120,
    "rating": 4.0,
    "lat": 43.770111,
    "lon": 125.410326,
    "description": "地址: 永顺路与樱花东街交叉口西南140米 | 类别: 风景名胜;公园广场;城市广场",
    "city": "长春"
  },
  {
    "name": "枫叶好看",
    "category": "sightseeing",
    "duration_minutes": 120,
    "rating": 4.0,
    "lat": 43.857193,
    "lon": 125.301363,
    "description": "地址: 延安大街885号 | 类别: 风景名胜;风景名胜;风景名胜",
    "city": "长春"
  },
  {
    "name": "东本愿寺",
    "category": "history",
    "duration_minutes": 120,
    "rating": 4.0,
    "lat": 43.893675,
    "lon": 125.322374,
    "description": "地址: 文化街与北安路交叉口东北80米 | 类别: 风景名胜;风景名胜;寺庙道观",
    "city": "长春"
  },
  {
    "name": "长春观",
    "category": "history",
    "duration_minutes": 120,
    "rating": 4.0,
    "lat": 43.93472,
    "lon": 125.299454,
    "description": "地址: 柳影街道美景天城1期 | 类别: 风景名胜;风景名胜;寺庙道观",
    "city": "长春"
  },
  {
    "name": "体育文化园",
    "category": "outdoor",
    "duration_minutes": 120,
    "rating": 4.0,
    "lat": 43.785102,
    "lon": 125.344286,
    "description": "地址: 福祉大路与畅溪街交汇北100米 | 类别: 风景名胜;公园广场;公园",
    "city": "长春"
  },
  {
    "name": "吉林大学前卫南区考古与艺术博物馆",
    "category": "museum",
    "duration_minutes": 120,
    "rating": 4.0,
    "lat": 43.823701,
    "lon": 125.276261,
    "description": "电话: 0431-85166018 | 地址: 双德乡高新技术产业开发区前进大街2699号吉林大学前卫南区北门 | 类别: 科教文化服务;博物馆;博物馆",
    "city": "长春"
  },
  {
    "name": "女神广场",
    "category": "sightseeing",
    "duration_minutes": 120,
    "rating": 4.0,
    "lat": 43.799894,
    "lon": 125.453956,
    "description": "电话: 0431-84518000 | 地址: 玉潭镇长春净月开发区净月大街5840号净月潭国家级风景名胜区内 | 类别: 商务住宅;住宅区;社区中心",
    "city": "长春"
  },
  {
    "name": "卡伦湖度假村",
    "category": "outdoor",
    "duration_minutes": 120,
    "rating": 4.0,
    "lat": 43.969868,
    "lon": 125.543263,
    "description": "地址: 卡伦湖大街南 | 类别: 体育休闲服务;度假疗养场所;度假村|风景名胜;风景名胜;风景名胜",
    "city": "长春"
  },
  {
    "name": "长春北湖企鹅村(暂停开放)",
    "category": "outdoor",
    "duration_minutes": 120,
    "rating": 4.0,
    "lat": 43.994539,
    "lon": 125.361696,
    "description": "地址: 北湖街道龙湖大路北湖湿地公园湖心岛内 | 类别: 风景名胜;风景名胜相关;旅游景点",
    "city": "长春"
  },
  {
    "name": "长春海洋馆",
    "category": "outdoor",
    "duration_minutes": 120,
    "rating": 4.0,
    "lat": 43.871919,
    "lon": 125.306321,
    "description": "电话: 0431-89580828 | 地址: 清华路1399号长春中泰海洋世界 | 类别: 风景名胜;公园广场;水族馆",
    "city": "长春"
  },
  {
    "name": "运动派主题公园(长春店)",
    "category": "outdoor",
    "duration_minutes": 120,
    "rating": 4.0,
    "lat": 43.791808,
    "lon": 125.227495,
    "description": "电话: 0431-81178666 | 地址: 硅谷大街7270号中商世界里购物中心5层 | 类别: 体育休闲服务;体育休闲服务场所;体育休闲服务场所",
    "city": "长春"
  },
  {
    "name": "凌碧桥",
    "category": "history",
    "duration_minutes": 120,
    "rating": 4.0,
    "lat": 43.852845,
    "lon": 125.306337,
    "description": "电话: 0431-85663059 | 地址: 南湖大路南湖公园(南侧) | 类别: 风景名胜;风景名胜相关;旅游景点",
    "city": "长春"
  },
  {
    "name": "现代诗公园",
    "category": "outdoor",
    "duration_minutes": 120,
    "rating": 4.0,
    "lat": 43.809617,
    "lon": 125.364591,
    "description": "地址: 中海国际社区南侧(宜盛街轻轨站B口步行230米) | 类别: 风景名胜;公园广场;公园",
    "city": "长春"
  },
  {
    "name": "长拖1958工业遗迹公园",
    "category": "outdoor",
    "duration_minutes": 120,
    "rating": 4.0,
    "lat": 43.887401,
    "lon": 125.386477,
    "description": "地址: 荣光路与福安街交汇处 | 类别: 风景名胜;风景名胜;风景名胜",
    "city": "长春"
  },
  {
    "name": "中铁长春博览城冰雪动力王国(暂停开放)",
    "category": "sightseeing",
    "duration_minutes": 120,
    "rating": 4.0,
    "lat": 43.758583,
    "lon": 125.302371,
    "description": "电话: 15948082705 | 地址: 永春镇G229 | 类别: 风景名胜;风景名胜相关;旅游景点",
    "city": "长春"
  },
  {
    "name": "长春市三清观",
    "category": "history",
    "duration_minutes": 120,
    "rating": 4.0,
    "lat": 43.951837,
    "lon": 125.089801,
    "description": "地址: 上善路1233号 | 类别: 风景名胜;风景名胜;寺庙道观",
    "city": "长春"
  },
  {
    "name": "长春市革命烈士陵园",
    "category": "sightseeing",
    "duration_minutes": 120,
    "rating": 4.0,
    "lat": 43.87304,
    "lon": 125.473524,
    "description": "地址: 英俊镇九龙源 | 类别: 风景名胜;风景名胜;红色景区|生活服务;丧葬设施;陵园",
    "city": "长春"
  },
  {
    "name": "长征郊野公园",
    "category": "outdoor",
    "duration_minutes": 120,
    "rating": 4.0,
    "lat": 43.708246,
    "lon": 125.464782,
    "description": "地址: 玉潭镇南孔家屯 | 类别: 风景名胜;风景名胜相关;旅游景点",
    "city": "长春"
  },
  {
    "name": "普门寺",
    "category": "history",
    "duration_minutes": 120,
    "rating": 4.0,
    "lat": 43.712157,
    "lon": 125.376169,
    "description": "地址: 长东公路新立城段9641号 | 类别: 风景名胜;风景名胜;寺庙道观",
    "city": "长春"
  },
  {
    "name": "日本神武殿旧址",
    "category": "sightseeing",
    "duration_minutes": 120,
    "rating": 4.0,
    "lat": 43.880753,
    "lon": 125.321264,
    "description": "地址: 东中华路与百汇胡同交叉口南80米 | 类别: 风景名胜;风景名胜相关;旅游景点",
    "city": "长春"
  },
  {
    "name": "林园",
    "category": "outdoor",
    "duration_minutes": 120,
    "rating": 4.0,
    "lat": 43.905972,
    "lon": 125.270887,
    "description": "电话: 0431-87997589 | 地址: 学府大道 | 类别: 风景名胜;公园广场;公园",
    "city": "长春"
  },
  {
    "name": "长春动植物公园-西门前广场",
    "category": "outdoor",
    "duration_minutes": 120,
    "rating": 4.0,
    "lat": 43.868342,
    "lon": 125.329721,
    "description": "电话: 0431-85640196 | 地址: 自由大路2121号长春市动植物公园内(西侧) | 类别: 风景名胜;公园广场;城市广场",
    "city": "长春"
  },
  {
    "name": "幸福街基督教堂",
    "category": "sightseeing",
    "duration_minutes": 120,
    "rating": 4.0,
    "lat": 43.827991,
    "lon": 125.317755,
    "description": "地址: 幸福二路与幸福一路交叉口西南60米 | 类别: 风景名胜;风景名胜;教堂",
    "city": "长春"
  },
  {
    "name": "天嘉公园",
    "category": "outdoor",
    "duration_minutes": 120,
    "rating": 4.0,
    "lat": 43.90644,
    "lon": 125.28239,
    "description": "地址: 清溪路与新竹路交汇处 | 类别: 风景名胜;公园广场;公园",
    "city": "长春"
  },
  {
    "name": "同春广场",
    "category": "outdoor",
    "duration_minutes": 120,
    "rating": 4.0,
    "lat": 43.801807,
    "lon": 125.399352,
    "description": "地址: 诺睿德国际商务广场 | 类别: 风景名胜;公园广场;城市广场",
    "city": "长春"
  },
  {
    "name": "北普陀寺",
    "category": "history",
    "duration_minutes": 120,
    "rating": 4.0,
    "lat": 43.795656,
    "lon": 125.452662,
    "description": "电话: 0431-84518000 | 地址: 净月大街5840号净月潭国家森林公园内(西南角) | 类别: 风景名胜;风景名胜;寺庙道观",
    "city": "长春"
  },
  {
    "name": "第二届长春雕塑冰雪天地",
    "category": "sightseeing",
    "duration_minutes": 120,
    "rating": 4.0,
    "lat": 43.823571,
    "lon": 125.333335,
    "description": "地址: 人民大街9518号长春世界雕塑园 | 类别: 风景名胜;风景名胜相关;旅游景点",
    "city": "长春"
  },
  {
    "name": "南溪湿地公园-光影岛",
    "category": "outdoor",
    "duration_minutes": 120,
    "rating": 4.0,
    "lat": 43.800125,
    "lon": 125.340396,
    "description": "地址: 南溪湿地公园(西南角) | 类别: 风景名胜;风景名胜相关;旅游景点",
    "city": "长春"
  },
  {
    "name": "长春亚泰新城饭店温泉",
    "category": "sightseeing",
    "duration_minutes": 120,
    "rating": 4.0,
    "lat": 43.764341,
    "lon": 125.399114,
    "description": "地址: 新城大街8888号 | 类别: 体育休闲服务;体育休闲服务场所;体育休闲服务场所",
    "city": "长春"
  },
  {
    "name": "宽城区政府中心公园",
    "category": "outdoor",
    "duration_minutes": 120,
    "rating": 4.0,
    "lat": 43.939646,
    "lon": 125.327896,
    "description": "地址: 丙十七路与九台北路交汇处(宽城区政府对面) | 类别: 风景名胜;公园广场;公园",
    "city": "长春"
  },
  {
    "name": "基督教堂",
    "category": "sightseeing",
    "duration_minutes": 120,
    "rating": 4.0,
    "lat": 43.847286,
    "lon": 125.263019,
    "description": "地址: 电台街长春南站 | 类别: 风景名胜;风景名胜;教堂",
    "city": "长春"
  },
  {
    "name": "天香公园",
    "category": "outdoor",
    "duration_minutes": 120,
    "rating": 4.0,
    "lat": 43.880421,
    "lon": 125.214094,
    "description": "电话: 0431-84956080 | 地址: 天香街与南阳北路交叉口西北180米 | 类别: 风景名胜;公园广场;公园",
    "city": "长春"
  },
  {
    "name": "前进公园",
    "category": "outdoor",
    "duration_minutes": 120,
    "rating": 4.0,
    "lat": 43.826126,
    "lon": 125.255243,
    "description": "地址: 荷园路与华光街交叉口东北120米 | 类别: 风景名胜;公园广场;公园",
    "city": "长春"
  },
  {
    "name": "恐龙探险岛(暂停营业)",
    "category": "sightseeing",
    "duration_minutes": 120,
    "rating": 4.0,
    "lat": 43.986838,
    "lon": 125.360487,
    "description": "电话: 13331667817 | 地址: 龙湖大路长春北湖湿地公园内(北侧) | 类别: 体育休闲服务;休闲场所;游乐场",
    "city": "长春"
  },
  {
    "name": "锦绣公园",
    "category": "outdoor",
    "duration_minutes": 120,
    "rating": 4.0,
    "lat": 43.852538,
    "lon": 125.233844,
    "description": "地址: 奔驰路1746号 | 类别: 风景名胜;公园广场;公园",
    "city": "长春"
  },
  {
    "name": "净月潭国家森林公园-净月潭水库大坝",
    "category": "outdoor",
    "duration_minutes": 120,
    "rating": 4.0,
    "lat": 43.793394,
    "lon": 125.456723,
    "description": "电话: 0431-84518000 | 地址: 玉潭镇净月经济开发区净月大街5840号净月潭 | 类别: 风景名胜;风景名胜相关;旅游景点",
    "city": "长春"
  },
  {
    "name": "地藏寺",
    "category": "history",
    "duration_minutes": 120,
    "rating": 4.0,
    "lat": 43.897544,
    "lon": 125.35321,
    "description": "地址: 东大小区2-4号 | 类别: 风景名胜;风景名胜;寺庙道观",
    "city": "长春"
  },
  {
    "name": "伪满洲国交通部旧址",
    "category": "sightseeing",
    "duration_minutes": 120,
    "rating": 4.0,
    "lat": 43.867258,
    "lon": 125.306968,
    "description": "电话: 0431-85619431 | 地址: 新民大街1163伪满交通部旧址附近 | 类别: 风景名胜;风景名胜相关;旅游景点",
    "city": "长春"
  },
  {
    "name": "伪满洲国司法部旧址",
    "category": "history",
    "duration_minutes": 120,
    "rating": 4.0,
    "lat": 43.870402,
    "lon": 125.309359,
    "description": "电话: 0431-82287551 | 地址: 旧八大部(不对外开放) | 类别: 风景名胜;风景名胜;纪念馆",
    "city": "长春"
  },
  {
    "name": "香湾公园",
    "category": "outdoor",
    "duration_minutes": 120,
    "rating": 4.0,
    "lat": 43.77753,
    "lon": 125.269148,
    "description": "地址: 高新技术产业开发区香湾街与宜居北路交叉口东北220米 | 类别: 风景名胜;公园广场;公园",
    "city": "长春"
  },
  {
    "name": "乾安路基督教堂",
    "category": "sightseeing",
    "duration_minutes": 120,
    "rating": 4.0,
    "lat": 43.92088,
    "lon": 125.372782,
    "description": "地址: 八里堡街道远达大街迁安路 | 类别: 风景名胜;风景名胜;教堂",
    "city": "长春"
  },
  {
    "name": "长春市宽城区君子兰公园",
    "category": "outdoor",
    "duration_minutes": 120,
    "rating": 4.0,
    "lat": 43.918196,
    "lon": 125.341675,
    "description": "电话: 0431-82689230 | 地址: 亚泰北大街1068号 | 类别: 风景名胜;公园广场;公园广场",
    "city": "长春"
  },
  {
    "name": "伪满洲国军事部旧址",
    "category": "sightseeing",
    "duration_minutes": 120,
    "rating": 4.0,
    "lat": 43.877716,
    "lon": 125.307164,
    "description": "电话: 0431-82287551 | 地址: 红旗街道新民大街71号 | 类别: 风景名胜;风景名胜相关;旅游景点",
    "city": "长春"
  },
  {
    "name": "吉林大学历史名人纪念馆",
    "category": "history",
    "duration_minutes": 120,
    "rating": 4.0,
    "lat": 43.881506,
    "lon": 125.319389,
    "description": "地址: 东中华路13号 | 类别: 风景名胜;风景名胜;纪念馆",
    "city": "长春"
  },
  {
    "name": "南湖公园-湖心岛",
    "category": "outdoor",
    "duration_minutes": 120,
    "rating": 4.0,
    "lat": 43.856639,
    "lon": 125.312258,
    "description": "电话: 0431-85663059 | 地址: 工农大路2715号南湖公园内(东侧) | 类别: 风景名胜;风景名胜相关;旅游景点",
    "city": "长春"
  },
  {
    "name": "桃桃城堡(环球广场店)",
    "category": "sightseeing",
    "duration_minutes": 120,
    "rating": 4.0,
    "lat": 43.814131,
    "lon": 125.379112,
    "description": "电话: 0431-85814406 | 地址: 生态大街与和融路交汇环球广场3层 | 类别: 体育休闲服务;休闲场所;游乐场",
    "city": "长春"
  },
  {
    "name": "长春市长乐宫",
    "category": "history",
    "duration_minutes": 120,
    "rating": 4.0,
    "lat": 43.5632,
    "lon": 125.287267,
    "description": "电话: 15643190003 | 类别: 风景名胜;风景名胜;寺庙道观",
    "city": "长春"
  },
  {
    "name": "富裕公园",
    "category": "outdoor",
    "duration_minutes": 120,
    "rating": 4.0,
    "lat": 43.784472,
    "lon": 125.228671,
    "description": "地址: 硅谷大街和锦湖大路交口 | 类别: 风景名胜;公园广场;公园",
    "city": "长春"
  },
  {
    "name": "莲花山滑雪场",
    "category": "outdoor",
    "duration_minutes": 120,
    "rating": 4.0,
    "lat": 43.861025,
    "lon": 125.746687,
    "description": "地址: 四家乡青山村 | 类别: 体育休闲服务;运动场馆;滑雪场",
    "city": "长春"
  },
  {
    "name": "月潭溪谷文化园",
    "category": "sightseeing",
    "duration_minutes": 120,
    "rating": 4.0,
    "lat": 43.799501,
    "lon": 125.497819,
    "description": "电话: 13069011155 | 类别: 风景名胜;风景名胜;风景名胜",
    "city": "长春"
  },
  {
    "name": "长春师范大学主校区-尚德广场",
    "category": "outdoor",
    "duration_minutes": 120,
    "rating": 4.0,
    "lat": 43.913701,
    "lon": 125.39598,
    "description": "地址: 长吉北线677号 | 类别: 风景名胜;公园广场;公园广场",
    "city": "长春"
  },
  {
    "name": "伪满建国忠灵庙",
    "category": "history",
    "duration_minutes": 120,
    "rating": 4.0,
    "lat": 43.842582,
    "lon": 125.322441,
    "description": "地址: 湖宁路附近 | 类别: 风景名胜;风景名胜;寺庙道观",
    "city": "长春"
  },
  {
    "name": "净月潭国家森林公园中国瓦萨博物馆",
    "category": "museum",
    "duration_minutes": 120,
    "rating": 4.0,
    "lat": 43.769661,
    "lon": 125.481024,
    "description": "地址: 净月大街5840号净月潭国家森林公园(东南角) | 类别: 科教文化服务;博物馆;博物馆",
    "city": "长春"
  },
  {
    "name": "伪满洲国文教部旧址",
    "category": "sightseeing",
    "duration_minutes": 120,
    "rating": 4.0,
    "lat": 43.863315,
    "lon": 125.317168,
    "description": "电话: 0431-85616988 | 地址: 旧八大部(不对外开放) | 类别: 风景名胜;风景名胜相关;旅游景点",
    "city": "长春"
  },
  {
    "name": "馨苑",
    "category": "outdoor",
    "duration_minutes": 120,
    "rating": 4.0,
    "lat": 43.828584,
    "lon": 125.443849,
    "description": "地址: 银锦路与金屏街交叉口东120米 | 类别: 风景名胜;公园广场;城市广场",
    "city": "长春"
  },
  {
    "name": "狐仙庙",
    "category": "history",
    "duration_minutes": 120,
    "rating": 4.0,
    "lat": 43.850413,
    "lon": 125.440523,
    "description": "电话: 13756909453 | 地址: 银屏路前拉拉屯 | 类别: 风景名胜;风景名胜;寺庙道观",
    "city": "长春"
  },
  {
    "name": "南湖大桥音乐喷泉",
    "category": "outdoor",
    "duration_minutes": 120,
    "rating": 4.0,
    "lat": 43.851105,
    "lon": 125.316491,
    "description": "地址: 南湖大桥 | 类别: 风景名胜;风景名胜;风景名胜",
    "city": "长春"
  },
  {
    "name": "长春动植物公园-猛兽谷",
    "category": "outdoor",
    "duration_minutes": 120,
    "rating": 4.0,
    "lat": 43.8668,
    "lon": 125.33091,
    "description": "电话: 0431-85640196 | 地址: 自由大路2121号长春动植物公园内(西侧) | 类别: 风景名胜;风景名胜相关;旅游景点",
    "city": "长春"
  },
  {
    "name": "伟峰东域广场",
    "category": "outdoor",
    "duration_minutes": 120,
    "rating": 4.0,
    "lat": 43.770111,
    "lon": 125.410326,
    "description": "地址: 擎天树街1766号(樱花街地铁站C口步行120米) | 类别: 风景名胜;公园广场;城市广场",
    "city": "长春"
  },
  {
    "name": "长春世界雕塑公园-米开朗基罗广场",
    "category": "outdoor",
    "duration_minutes": 120,
    "rating": 4.0,
    "lat": 43.825868,
    "lon": 125.333346,
    "description": "电话: 0431-85379068 | 地址: 人民大街9518号长春世界雕塑园内(北侧) | 类别: 风景名胜;公园广场;城市广场",
    "city": "长春"
  },
  {
    "name": "炮楼遗址",
    "category": "history",
    "duration_minutes": 120,
    "rating": 4.0,
    "lat": 43.843581,
    "lon": 125.346632,
    "description": "地址: 亚泰大街净水路交汇北行长春水文化生态园内(东侧) | 类别: 风景名胜;风景名胜相关;旅游景点",
    "city": "长春"
  },
  {
    "name": "如意湖",
    "category": "outdoor",
    "duration_minutes": 120,
    "rating": 4.0,
    "lat": 43.807452,
    "lon": 125.297445,
    "description": "地址: 翠语路与前进大街辅路交叉口东120米 | 类别: 风景名胜;风景名胜;风景名胜",
    "city": "长春"
  },
  {
    "name": "卡伦沙滩",
    "category": "sightseeing",
    "duration_minutes": 120,
    "rating": 4.0,
    "lat": 43.948993,
    "lon": 125.535557,
    "description": "地址: 卡伦冰湖小镇南侧 | 类别: 风景名胜;风景名胜相关;旅游景点",
    "city": "长春"
  },
  {
    "name": "幻影星空主题乐园(万达广场长春上海路店)",
    "category": "outdoor",
    "duration_minutes": 120,
    "rating": 4.0,
    "lat": 43.901341,
    "lon": 125.332482,
    "description": "地址: 东三条街与宁波路交叉口西100米 | 类别: 体育休闲服务;休闲场所;游乐场",
    "city": "长春"
  },
  {
    "name": "海狮公园",
    "category": "outdoor",
    "duration_minutes": 120,
    "rating": 4.0,
    "lat": 43.930302,
    "lon": 125.318036,
    "description": "地址: 凯旋路 | 类别: 风景名胜;公园广场;公园",
    "city": "长春"
  },
  {
    "name": "园中园",
    "category": "outdoor",
    "duration_minutes": 120,
    "rating": 4.0,
    "lat": 43.905156,
    "lon": 125.297644,
    "description": "地址: 青荫路731号 | 类别: 风景名胜;公园广场;公园",
    "city": "长春"
  },
  {
    "name": "净月大顶山",
    "category": "outdoor",
    "duration_minutes": 120,
    "rating": 4.0,
    "lat": 43.689108,
    "lon": 125.470656,
    "description": "地址: 净月大街5840号净月潭国家级森林公园附近 | 类别: 风景名胜;风景名胜相关;旅游景点",
    "city": "长春"
  },
  {
    "name": "长春梦幻乐园(暂停开放)",
    "category": "outdoor",
    "duration_minutes": 120,
    "rating": 4.0,
    "lat": 43.900836,
    "lon": 125.32046,
    "description": "电话: 0431-82793504;15948074748 | 地址: 站前街道人民大街955号胜利公园内 | 类别: 风景名胜;公园广场;公园",
    "city": "长春"
  },
  {
    "name": "净月中央公园西区",
    "category": "outdoor",
    "duration_minutes": 120,
    "rating": 4.0,
    "lat": 43.794398,
    "lon": 125.38145,
    "description": "地址: 新城大街与银杏路交会处净月中央公园内(西侧) | 类别: 风景名胜;公园广场;公园",
    "city": "长春"
  },
  {
    "name": "宽平基督教堂",
    "category": "sightseeing",
    "duration_minutes": 120,
    "rating": 4.0,
    "lat": 43.857637,
    "lon": 125.27458,
    "description": "电话: 0431-81707986 | 地址: 进化街59号 | 类别: 风景名胜;风景名胜;教堂",
    "city": "长春"
  },
  {
    "name": "长春动植物公园-大象馆",
    "category": "outdoor",
    "duration_minutes": 120,
    "rating": 4.0,
    "lat": 43.869296,
    "lon": 125.332381,
    "description": "电话: 0431-85640196 | 地址: 自由大路2121号长春市动植物公园内(西侧) | 类别: 风景名胜;风景名胜相关;旅游景点",
    "city": "长春"
  },
  {
    "name": "伪满洲国综合法衙旧址",
    "category": "sightseeing",
    "duration_minutes": 120,
    "rating": 4.0,
    "lat": 43.863161,
    "lon": 125.310603,
    "description": "地址: 自由大路108号 | 类别: 风景名胜;风景名胜相关;旅游景点",
    "city": "长春"
  },
  {
    "name": "净月潭大天池",
    "category": "sightseeing",
    "duration_minutes": 120,
    "rating": 4.0,
    "lat": 43.820671,
    "lon": 125.484264,
    "description": "类别: 风景名胜;风景名胜;风景名胜",
    "city": "长春"
  },
  {
    "name": "侵华日军第100部队遗址",
    "category": "outdoor",
    "duration_minutes": 120,
    "rating": 4.0,
    "lat": 43.865205,
    "lon": 125.236572,
    "description": "地址: 振兴路与红领巾路交叉口东北200米 | 类别: 风景名胜;公园广场;公园",
    "city": "长春"
  },
  {
    "name": "大和旅馆旧址",
    "category": "sightseeing",
    "duration_minutes": 120,
    "rating": 4.0,
    "lat": 43.907756,
    "lon": 125.324823,
    "description": "地址: 人民大街80号 | 类别: 风景名胜;风景名胜相关;旅游景点",
    "city": "长春"
  },
  {
    "name": "万科拾光公园",
    "category": "outdoor",
    "duration_minutes": 120,
    "rating": 4.0,
    "lat": 43.909246,
    "lon": 125.359901,
    "description": "地址: 永宁路与东莱北街交叉口东420米 | 类别: 风景名胜;公园广场;公园",
    "city": "长春"
  },
  {
    "name": "福业广场",
    "category": "outdoor",
    "duration_minutes": 120,
    "rating": 4.0,
    "lat": 43.783561,
    "lon": 125.42221,
    "description": "地址: 福祉大路1572号 | 类别: 风景名胜;公园广场;城市广场",
    "city": "长春"
  },
  {
    "name": "基督教堂(新星宇之郡西南)",
    "category": "sightseeing",
    "duration_minutes": 120,
    "rating": 4.0,
    "lat": 43.87715,
    "lon": 125.401961,
    "description": "地址: 合肥路北乐东小区北区 | 类别: 风景名胜;风景名胜;教堂",
    "city": "长春"
  },
  {
    "name": "长春公园冰雪嘉年华",
    "category": "outdoor",
    "duration_minutes": 120,
    "rating": 4.0,
    "lat": 43.896606,
    "lon": 125.276184,
    "description": "地址: 皓月大路1411号长春公园内(北侧) | 类别: 风景名胜;风景名胜;风景名胜",
    "city": "长春"
  },
  {
    "name": "长春市青年公园",
    "category": "outdoor",
    "duration_minutes": 120,
    "rating": 4.0,
    "lat": 43.965595,
    "lon": 125.313762,
    "description": "地址: 森林公园(北凯旋路东侧) | 类别: 风景名胜;公园广场;公园",
    "city": "长春"
  },
  {
    "name": "治河广场",
    "category": "outdoor",
    "duration_minutes": 120,
    "rating": 4.0,
    "lat": 43.849822,
    "lon": 125.356424,
    "description": "地址: 伊通河西侧(樱花岛北侧) | 类别: 风景名胜;公园广场;城市广场",
    "city": "长春"
  },
  {
    "name": "虎山",
    "category": "outdoor",
    "duration_minutes": 120,
    "rating": 4.0,
    "lat": 43.869122,
    "lon": 125.339737,
    "description": "电话: 0431-85640196 | 地址: 自由大路2121号长春动植物公园内 | 类别: 风景名胜;风景名胜相关;旅游景点",
    "city": "长春"
  }
]