[
  {
    "name": "南京路步行街",
    "category": "sightseeing",
    "duration_minutes": 120,
    "rating": 4.0,
    "lat": 31.235983,
    "lon": 121.479494,
    "description": "地址: 南京东路558号 | 类别: 购物服务;购物相关场所;购物相关场所",
    "city": "上海"
  },
  {
    "name": "外滩",
    "category": "sightseeing",
    "duration_minutes": 120,
    "rating": 4.0,
    "lat": 31.233516,
    "lon": 121.492127,
    "description": "地址: 中山东一路49号 | 类别: 风景名胜;风景名胜;风景名胜",
    "city": "上海"
  },
  {
    "name": "上海新天地",
    "category": "outdoor",
    "duration_minutes": 120,
    "rating": 4.0,
    "lat": 31.220484,
    "lon": 121.474465,
    "description": "地址: 太仓路181弄6-15号 | 类别: 购物服务;特色商业街;步行街",
    "city": "上海"
  },
  {
    "name": "上海豫园",
    "category": "outdoor",
    "duration_minutes": 120,
    "rating": 4.0,
    "lat": 31.227714,
    "lon": 121.492497,
    "description": "电话: 021-63260830;021-63282465 | 地址: 福佑路168号 | 类别: 风景名胜;风景名胜;国家级景点",
    "city": "上海"
  },
  {
    "name": "上海人民广场",
    "category": "outdoor",
    "duration_minutes": 120,
    "rating": 4.0,
    "lat": 31.228827,
    "lon": 121.475213,
    "description": "地址: 人民大道185号 | 类别: 风景名胜;公园广场;城市广场",
    "city": "上海"
  },
  {
    "name": "东方明珠广播电视塔",
    "category": "history",
    "duration_minutes": 120,
    "rating": 4.0,
    "lat": 31.239703,
    "lon": 121.499718,
    "description": "电话: 021-58791888 | 地址: 世纪大道1号(陆家嘴地铁站1号入口步行220米) | 类别: 风景名胜;风景名胜;国家级景点",
    "city": "上海"
  },
  {
    "name": "上海城隍庙",
    "category": "history",
    "duration_minutes": 120,
    "rating": 4.0,
    "lat": 31.225879,
    "lon": 121.492466,
    "description": "电话: 021-63284494 | 地址: 方浜中路249号 | 类别: 风景名胜;风景名胜;寺庙道观",
    "city": "上海"
  },
  {
    "name": "上海自然博物馆",
    "category": "museum",
    "duration_minutes": 120,
    "rating": 4.0,
    "lat": 31.235021,
    "lon": 121.462672,
    "description": "电话: 021-62620116;021-68622000 | 地址: 北京西路510号 | 类别: 科教文化服务;博物馆;博物馆",
    "city": "上海"
  },
  {
    "name": "上海四行仓库抗战纪念馆",
    "category": "history",
    "duration_minutes": 120,
    "rating": 4.0,
    "lat": 31.24034,
    "lon": 121.471104,
    "description": "电话: 021-63800180;021-63808222 | 地址: 光复路21号(曲阜路地铁站2号口步行300米) | 类别: 风景名胜;风景名胜;纪念馆",
    "city": "上海"
  },
  {
    "name": "上海博物馆(人民广场馆)",
    "category": "museum",
    "duration_minutes": 120,
    "rating": 4.0,
    "lat": 31.228234,
    "lon": 121.475497,
    "description": "电话: 021-63723500 | 地址: 人民大道201号 | 类别: 科教文化服务;博物馆;博物馆",
    "city": "上海"
  },
  {
    "name": "静安寺",
    "category": "history",
    "duration_minutes": 120,
    "rating": 4.0,
    "lat": 31.223505,
    "lon": 121.44532,
    "description": "电话: 021-62566366 | 地址: 南京西路1686号(静安寺地铁站1号口步行60米) | 类别: 风景名胜;风景名胜;寺庙道观",
    "city": "上海"
  },
  {
    "name": "中国共产党第一次全国代表大会会址纪念馆",
    "category": "history",
    "duration_minutes": 120,
    "rating": 4.0,
    "lat": 31.220139,
    "lon": 121.475251,
    "description": "电话: 021-53832171 | 地址: 黄陂南路374号 | 类别: 风景名胜;风景名胜;纪念馆",
    "city": "上海"
  },
  {
    "name": "辅德里公园",
    "category": "outdoor",
    "duration_minutes": 120,
    "rating": 4.0,
    "lat": 31.224808,
    "lon": 121.466665,
    "description": "地址: 大沽路379号(南京西路地铁站8号口步行490米) | 类别: 风景名胜;公园广场;公园",
    "city": "上海"
  },
  {
    "name": "复兴公园",
    "category": "outdoor",
    "duration_minutes": 120,
    "rating": 4.0,
    "lat": 31.21698,
    "lon": 121.469115,
    "description": "电话: 021-53860187;021-53861069 | 地址: 复兴中路516号 | 类别: 风景名胜;公园广场;公园",
    "city": "上海"
  },
  {
    "name": "洛克·外滩源",
    "category": "sightseeing",
    "duration_minutes": 120,
    "rating": 4.0,
    "lat": 31.241848,
    "lon": 121.487806,
    "description": "电话: 021-33109988 | 地址: 虎丘路146号光陆大楼 | 类别: 商务住宅;住宅区;住宅小区",
    "city": "上海"
  },
  {
    "name": "圆明园路步行街(洛克·外滩源店)",
    "category": "sightseeing",
    "duration_minutes": 120,
    "rating": 4.0,
    "lat": 31.241568,
    "lon": 121.488154,
    "description": "地址: 外滩街道北京东路99号 | 类别: 购物服务;特色商业街;特色商业街",
    "city": "上海"
  },
  {
    "name": "静安雕塑公园",
    "category": "outdoor",
    "duration_minutes": 120,
    "rating": 4.0,
    "lat": 31.234819,
    "lon": 121.463871,
    "description": "电话: 021-52289562 | 地址: 石门二路128号(近北京西路)(自然博物馆地铁站1号口旁) | 类别: 风景名胜;公园广场;公园",
    "city": "上海"
  },
  {
    "name": "外滩观景台",
    "category": "sightseeing",
    "duration_minutes": 120,
    "rating": 4.0,
    "lat": 31.237247,
    "lon": 121.490482,
    "description": "地址: 外滩(西北角) | 类别: 风景名胜;风景名胜;观景点",
    "city": "上海"
  },
  {
    "name": "福州路文化街",
    "category": "sightseeing",
    "duration_minutes": 120,
    "rating": 4.0,
    "lat": 31.233826,
    "lon": 121.482638,
    "description": "地址: 福州路 | 类别: 风景名胜;风景名胜相关;旅游景点",
    "city": "上海"
  },
  {
    "name": "INS新乐园",
    "category": "sightseeing",
    "duration_minutes": 120,
    "rating": 4.0,
    "lat": 31.217808,
    "lon": 121.470167,
    "description": "电话: 15038174910 | 地址: 雁荡路109号 | 类别: 体育休闲服务;休闲场所;游乐场",
    "city": "上海"
  },
  {
    "name": "上海田子坊",
    "category": "outdoor",
    "duration_minutes": 120,
    "rating": 4.0,
    "lat": 31.208197,
    "lon": 121.468662,
    "description": "电话: 021-54657531 | 地址: 泰康路210号(打浦桥地铁站1号口旁) | 类别: 购物服务;特色商业街;特色商业街",
    "city": "上海"
  },
  {
    "name": "外白渡桥",
    "category": "history",
    "duration_minutes": 120,
    "rating": 4.0,
    "lat": 31.242896,
    "lon": 121.49006,
    "description": "电话: 13818054032 | 地址: 北苏州路111号 | 类别: 风景名胜;风景名胜;省级景点|地名地址信息;交通地名;桥",
    "city": "上海"
  },
  {
    "name": "上海市历史博物馆",
    "category": "museum",
    "duration_minutes": 120,
    "rating": 4.0,
    "lat": 31.230594,
    "lon": 121.470891,
    "description": "电话: 021-23299999 | 地址: 南京西路325号(人民广场地铁站11号口步行200米) | 类别: 科教文化服务;博物馆;博物馆",
    "city": "上海"
  },
  {
    "name": "凯迪拉克·上海音乐厅",
    "category": "outdoor",
    "duration_minutes": 120,
    "rating": 4.0,
    "lat": 31.22692,
    "lon": 121.47769,
    "description": "电话: 021-63862836;021-53866666 | 地址: 延安东路523号(大世界地铁站3号口步行100米) | 类别: 体育休闲服务;影剧院;音乐厅",
    "city": "上海"
  },
  {
    "name": "十六铺旅游码头",
    "category": "sightseeing",
    "duration_minutes": 120,
    "rating": 4.0,
    "lat": 31.227999,
    "lon": 121.498235,
    "description": "地址: 中山东二路531号 | 类别: 购物服务;特色商业街;特色商业街",
    "city": "上海"
  },
  {
    "name": "上海文化广场",
    "category": "outdoor",
    "duration_minutes": 120,
    "rating": 4.0,
    "lat": 31.211941,
    "lon": 121.462196,
    "description": "电话: 021-54619961 | 地址: 茂名南路178号(陕西南路地铁站6号口步行390米) | 类别: 风景名胜;公园广场;城市广场",
    "city": "上海"
  },
  {
    "name": "上海中心大厦",
    "category": "outdoor",
    "duration_minutes": 120,
    "rating": 4.0,
    "lat": 31.23351,
    "lon": 121.505366,
    "description": "电话: 021-61999766 | 地址: 东泰路126号 | 类别: 商务住宅;楼宇;商务写字楼",
    "city": "上海"
  },
  {
    "name": "上海邮政博物馆",
    "category": "museum",
    "duration_minutes": 120,
    "rating": 4.0,
    "lat": 31.244286,
    "lon": 121.484749,
    "description": "地址: 天潼路395号(天潼路地铁站3号口步行290米) | 类别: 科教文化服务;博物馆;博物馆",
    "city": "上海"
  },
  {
    "name": "大韩民国临时政府旧址",
    "category": "history",
    "duration_minutes": 120,
    "rating": 4.0,
    "lat": 31.217351,
    "lon": 121.474625,
    "description": "电话: 021-53829057;021-53829554 | 地址: 马当路306弄4号 | 类别: 风景名胜;风景名胜;纪念馆",
    "city": "上海"
  },
  {
    "name": "北外滩滨江绿地",
    "category": "outdoor",
    "duration_minutes": 120,
    "rating": 4.0,
    "lat": 31.247461,
    "lon": 121.499372,
    "description": "地址: 东大名路558-678 | 类别: 风景名胜;公园广场;公园",
    "city": "上海"
  },
  {
    "name": "玉佛禅寺",
    "category": "history",
    "duration_minutes": 120,
    "rating": 4.0,
    "lat": 31.241445,
    "lon": 121.445125,
    "description": "电话: 021-62663668 | 地址: 安远路170号 | 类别: 风景名胜;风景名胜;寺庙道观",
    "city": "上海"
  },
  {
    "name": "武康大楼",
    "category": "sightseeing",
    "duration_minutes": 120,
    "rating": 4.0,
    "lat": 31.20443,
    "lon": 121.438278,
    "description": "地址: 湖南路街道淮海中路1850号 | 类别: 商务住宅;住宅区;住宅小区",
    "city": "上海"
  },
  {
    "name": "高峰森林空中探险乐园",
    "category": "outdoor",
    "duration_minutes": 120,
    "rating": 4.0,
    "lat": 31.223243,
    "lon": 121.441947,
    "description": "地址: 静安区 | 类别: 地名地址信息;交通地名;道路名",
    "city": "上海"
  },
  {
    "name": "乍浦路桥",
    "category": "history",
    "duration_minutes": 120,
    "rating": 4.0,
    "lat": 31.243871,
    "lon": 121.487653,
    "description": "地址: 乍浦路与南苏州路交叉口北40米 | 类别: 风景名胜;风景名胜相关;旅游景点",
    "city": "上海"
  },
  {
    "name": "北外滩国客中心",
    "category": "sightseeing",
    "duration_minutes": 120,
    "rating": 4.0,
    "lat": 31.247719,
    "lon": 121.500758,
    "description": "电话: 021-61818064 | 地址: 东大名路500号 | 类别: 风景名胜;风景名胜;国家级景点",
    "city": "上海"
  },
  {
    "name": "上海海洋水族馆",
    "category": "outdoor",
    "duration_minutes": 120,
    "rating": 4.0,
    "lat": 31.240777,
    "lon": 121.501894,
    "description": "电话: 021-58779988;12301 | 地址: 陆家嘴环路1388号 | 类别: 风景名胜;公园广场;水族馆",
    "city": "上海"
  },
  {
    "name": "中共四大纪念馆",
    "category": "museum",
    "duration_minutes": 120,
    "rating": 4.0,
    "lat": 31.254995,
    "lon": 121.484916,
    "description": "电话: 021-60821097;021-60761026 | 地址: 四川北路1468号(四川北路地铁站1号口步行320米) | 类别: 风景名胜;风景名胜;红色景区",
    "city": "上海"
  },
  {
    "name": "外滩源33",
    "category": "sightseeing",
    "duration_minutes": 120,
    "rating": 4.0,
    "lat": 31.242365,
    "lon": 121.488837,
    "description": "地址: 中山东一路33号英国领事馆及领事官邸旧址内 | 类别: 风景名胜;风景名胜;风景名胜",
    "city": "上海"
  },
  {
    "name": "世纪广场(南京路步行街)",
    "category": "outdoor",
    "duration_minutes": 120,
    "rating": 4.0,
    "lat": 31.235308,
    "lon": 121.479688,
    "description": "地址: 南京东路587号(南京东路地铁站4号口步行300米) | 类别: 风景名胜;公园广场;城市广场",
    "city": "上海"
  },
  {
    "name": "上海杜莎夫人蜡像馆",
    "category": "outdoor",
    "duration_minutes": 120,
    "rating": 4.0,
    "lat": 31.23466,
    "lon": 121.473346,
    "description": "电话: 4000988966 | 地址: 南京西路2-68号新世界城L10层 | 类别: 科教文化服务;展览馆;展览馆",
    "city": "上海"
  },
  {
    "name": "外滩-陈毅广场",
    "category": "outdoor",
    "duration_minutes": 120,
    "rating": 4.0,
    "lat": 31.238992,
    "lon": 121.49039,
    "description": "地址: 中山东一路外滩内(北侧) | 类别: 风景名胜;公园广场;城市广场",
    "city": "上海"
  },
  {
    "name": "陆家嘴中心绿地",
    "category": "outdoor",
    "duration_minutes": 120,
    "rating": 4.0,
    "lat": 31.237985,
    "lon": 121.506251,
    "description": "电话: 021-58875487 | 地址: 陆家嘴环路717号 | 类别: 风景名胜;公园广场;公园广场",
    "city": "上海"
  },
  {
    "name": "石库门景区",
    "category": "sightseeing",
    "duration_minutes": 120,
    "rating": 4.0,
    "lat": 31.219891,
    "lon": 121.474684,
    "description": "地址: 淮海中路街道(一大会址·新天地地铁站1号口步行300米) | 类别: 购物服务;特色商业街;特色商业街",
    "city": "上海"
  },
  {
    "name": "武康路历史文化名街",
    "category": "sightseeing",
    "duration_minutes": 120,
    "rating": 4.0,
    "lat": 31.207255,
    "lon": 121.43993,
    "description": "地址: 上海市湖南路街道武康路与湖南路交叉口 | 类别: 风景名胜;风景名胜相关;旅游景点",
    "city": "上海"
  },
  {
    "name": "上海音乐谷",
    "category": "outdoor",
    "duration_minutes": 120,
    "rating": 4.0,
    "lat": 31.256064,
    "lon": 121.490308,
    "description": "地址: 辽宁路46号(海伦路地铁站2号口步行370米) | 类别: 风景名胜;风景名胜;省级景点|公司企业;公司;公司",
    "city": "上海"
  },
  {
    "name": "上海M50创意园",
    "category": "outdoor",
    "duration_minutes": 120,
    "rating": 4.0,
    "lat": 31.248101,
    "lon": 121.449361,
    "description": "电话: 021-62660963 | 地址: 莫干山路50号 | 类别: 风景名胜;风景名胜相关;旅游景点",
    "city": "上海"
  },
  {
    "name": "滨江大道",
    "category": "outdoor",
    "duration_minutes": 120,
    "rating": 4.0,
    "lat": 31.2367,
    "lon": 121.495962,
    "description": "电话: 021-58871096 | 地址: 陆家嘴西路2967号 | 类别: 风景名胜;风景名胜;风景名胜",
    "city": "上海"
  },
  {
    "name": "外滩金牛广场",
    "category": "outdoor",
    "duration_minutes": 120,
    "rating": 4.0,
    "lat": 31.235581,
    "lon": 121.490891,
    "description": "地址: 福州路与中山东一路交汇处路东 | 类别: 风景名胜;公园广场;城市广场",
    "city": "上海"
  },
  {
    "name": "古城公园",
    "category": "outdoor",
    "duration_minutes": 120,
    "rating": 4.0,
    "lat": 31.228427,
    "lon": 121.493836,
    "description": "地址: 人民路333号(豫园地铁站7号口步行280米) | 类别: 风景名胜;公园广场;公园",
    "city": "上海"
  },
  {
    "name": "北外滩滨江绿地小巨蛋",
    "category": "outdoor",
    "duration_minutes": 120,
    "rating": 4.0,
    "lat": 31.246664,
    "lon": 121.497835,
    "description": "地址: 东大名路558-678北外滩滨江绿地(西南角) | 类别: 风景名胜;风景名胜;风景名胜",
    "city": "上海"
  },
  {
    "name": "中共二大会址纪念馆",
    "category": "museum",
    "duration_minutes": 120,
    "rating": 4.0,
    "lat": 31.224193,
    "lon": 121.466693,
    "description": "电话: 021-51311515 | 地址: 老成都北路7弄30号 | 类别: 风景名胜;风景名胜;红色景区",
    "city": "上海"
  },
  {
    "name": "上海世博会博物馆",
    "category": "museum",
    "duration_minutes": 120,
    "rating": 4.0,
    "lat": 31.194391,
    "lon": 121.482161,
    "description": "电话: 021-23132818 | 地址: 蒙自路818号(世博会博物馆地铁站2号口步行210米) | 类别: 科教文化服务;博物馆;博物馆",
    "city": "上海"
  },
  {
    "name": "东方明珠旅游码头",
    "category": "sightseeing",
    "duration_minutes": 120,
    "rating": 4.0,
    "lat": 31.240659,
    "lon": 121.496971,
    "description": "地址: 滨江大道2852号 | 类别: 风景名胜;风景名胜;风景名胜",
    "city": "上海"
  },
  {
    "name": "圣三一堂",
    "category": "sightseeing",
    "duration_minutes": 120,
    "rating": 4.0,
    "lat": 31.236481,
    "lon": 121.486311,
    "description": "地址: 河南中路220号(南京东路地铁站3号口步行420米) | 类别: 风景名胜;风景名胜;教堂",
    "city": "上海"
  },
  {
    "name": "外滩观光隧道",
    "category": "sightseeing",
    "duration_minutes": 120,
    "rating": 4.0,
    "lat": 31.239833,
    "lon": 121.490422,
    "description": "电话: 021-58886000;021-58772831 | 地址: 中山东一路349-351号 | 类别: 风景名胜;风景名胜;国家级景点",
    "city": "上海"
  },
  {
    "name": "1933老场坊",
    "category": "sightseeing",
    "duration_minutes": 120,
    "rating": 4.0,
    "lat": 31.254559,
    "lon": 121.491884,
    "description": "电话: 021-65016559 | 地址: 沙泾路10号 | 类别: 风景名胜;风景名胜;省级景点",
    "city": "上海"
  },
  {
    "name": "金茂大厦88层观光厅",
    "category": "sightseeing",
    "duration_minutes": 120,
    "rating": 4.0,
    "lat": 31.235315,
    "lon": 121.505823,
    "description": "电话: 021-50475001;021-50475101 | 地址: 世纪大道88号 | 类别: 风景名胜;风景名胜;国家级景点",
    "city": "上海"
  },
  {
    "name": "白云观",
    "category": "history",
    "duration_minutes": 120,
    "rating": 4.0,
    "lat": 31.224904,
    "lon": 121.483763,
    "description": "电话: 021-63286728;021-63287236 | 地址: 大境路239号 | 类别: 风景名胜;风景名胜;寺庙道观",
    "city": "上海"
  },
  {
    "name": "上海当代艺术博物馆",
    "category": "museum",
    "duration_minutes": 120,
    "rating": 4.0,
    "lat": 31.201041,
    "lon": 121.498406,
    "description": "电话: 021-31108550 | 地址: 苗江路678号 | 类别: 科教文化服务;博物馆;博物馆",
    "city": "上海"
  },
  {
    "name": "上海市人民英雄纪念塔",
    "category": "outdoor",
    "duration_minutes": 120,
    "rating": 4.0,
    "lat": 31.242287,
    "lon": 121.491409,
    "description": "电话: 021-53082636 | 地址: 中山东一路475号黄浦公园(近黄浦公园) | 类别: 风景名胜;风景名胜;红色景区",
    "city": "上海"
  },
  {
    "name": "世博文化公园",
    "category": "outdoor",
    "duration_minutes": 120,
    "rating": 4.0,
    "lat": 31.182085,
    "lon": 121.476426,
    "description": "电话: 021-58839818 | 地址: 济坤路100号 | 类别: 风景名胜;公园广场;公园",
    "city": "上海"
  },
  {
    "name": "荣宗敬故居(不对外开放)",
    "category": "history",
    "duration_minutes": 120,
    "rating": 4.0,
    "lat": 31.22669,
    "lon": 121.455852,
    "description": "地址: 陕西北路186号(近南京西路) | 类别: 风景名胜;风景名胜;纪念馆",
    "city": "上海"
  },
  {
    "name": "上海鲁迅公园",
    "category": "outdoor",
    "duration_minutes": 120,
    "rating": 4.0,
    "lat": 31.271766,
    "lon": 121.483535,
    "description": "电话: 021-65401561 | 地址: 四川北路2288号(虹口足球场地铁站6号口步行120米) | 类别: 风景名胜;公园广场;公园",
    "city": "上海"
  },
  {
    "name": "豫园-九曲桥",
    "category": "history",
    "duration_minutes": 120,
    "rating": 4.0,
    "lat": 31.226662,
    "lon": 121.491811,
    "description": "地址: 上海市豫园街道城隍庙内豫园路115号绿波廊酒楼两楼 | 类别: 风景名胜;风景名胜;风景名胜",
    "city": "上海"
  },
  {
    "name": "上海孙中山故居纪念馆",
    "category": "history",
    "duration_minutes": 120,
    "rating": 4.0,
    "lat": 31.216109,
    "lon": 121.467744,
    "description": "电话: 021-53063361 | 地址: 香山路7号 | 类别: 风景名胜;风景名胜;纪念馆",
    "city": "上海"
  },
  {
    "name": "人民公园-相亲角",
    "category": "outdoor",
    "duration_minutes": 120,
    "rating": 4.0,
    "lat": 31.232249,
    "lon": 121.472643,
    "description": "电话: 021-63271333 | 地址: 南京西路75号人民公园内(近黄陂北路) | 类别: 风景名胜;风景名胜相关;旅游景点",
    "city": "上海"
  },
  {
    "name": "中共一大纪念馆一大广场",
    "category": "outdoor",
    "duration_minutes": 120,
    "rating": 4.0,
    "lat": 31.220104,
    "lon": 121.476246,
    "description": "电话: 021-53832171 | 地址: 黄陂南路与湖滨路交叉口 | 类别: 风景名胜;公园广场;城市广场",
    "city": "上海"
  },
  {
    "name": "广场公园",
    "category": "outdoor",
    "duration_minutes": 120,
    "rating": 4.0,
    "lat": 31.224502,
    "lon": 121.471744,
    "description": "地址: 金陵中路与黄陂南路交叉口 | 类别: 风景名胜;公园广场;公园",
    "city": "上海"
  },
  {
    "name": "中山公园",
    "category": "outdoor",
    "duration_minutes": 120,
    "rating": 4.0,
    "lat": 31.221611,
    "lon": 121.419034,
    "description": "电话: 021-62117994;021-62525225 | 地址: 长宁路780号 | 类别: 风景名胜;公园广场;公园",
    "city": "上海"
  },
  {
    "name": "徐家汇公园",
    "category": "outdoor",
    "duration_minutes": 120,
    "rating": 4.0,
    "lat": 31.197401,
    "lon": 121.442461,
    "description": "地址: 肇嘉浜路986号(徐家汇地铁站14号口步行250米) | 类别: 风景名胜;公园广场;公园",
    "city": "上海"
  },
  {
    "name": "上海世博园",
    "category": "outdoor",
    "duration_minutes": 120,
    "rating": 4.0,
    "lat": 31.186881,
    "lon": 121.486754,
    "description": "地址: 上钢新村街道上南路与博成路交叉口东南约60米 | 类别: 风景名胜;风景名胜相关;旅游景点",
    "city": "上海"
  },
  {
    "name": "太平桥公园",
    "category": "outdoor",
    "duration_minutes": 120,
    "rating": 4.0,
    "lat": 31.219671,
    "lon": 121.476886,
    "description": "地址: 自忠路170号(一大会址·新天地地铁站1号口步行490米) | 类别: 风景名胜;公园广场;公园",
    "city": "上海"
  },
  {
    "name": "上海千古情景区",
    "category": "outdoor",
    "duration_minutes": 120,
    "rating": 4.0,
    "lat": 31.186476,
    "lon": 121.484157,
    "description": "电话: 4008888518 | 地址: 世博大道1750号 | 类别: 风景名胜;风景名胜;风景名胜",
    "city": "上海"
  },
  {
    "name": "上海老街(人民路)",
    "category": "outdoor",
    "duration_minutes": 120,
    "rating": 4.0,
    "lat": 31.225245,
    "lon": 121.496997,
    "description": "电话: 15800941353 | 地址: 方浜中路249号 | 类别: 购物服务;特色商业街;特色商业街|公司企业;公司企业;公司企业",
    "city": "上海"
  },
  {
    "name": "中国证券博物馆",
    "category": "museum",
    "duration_minutes": 120,
    "rating": 4.0,
    "lat": 31.244246,
    "lon": 121.490941,
    "description": "地址: 黄浦路15号 | 类别: 科教文化服务;博物馆;博物馆",
    "city": "上海"
  },
  {
    "name": "上海之巅观光厅",
    "category": "outdoor",
    "duration_minutes": 120,
    "rating": 4.0,
    "lat": 31.233487,
    "lon": 121.505317,
    "description": "地址: 银城中路501号上海中心大厦118层 | 类别: 风景名胜;风景名胜;观景点",
    "city": "上海"
  },
  {
    "name": "上海宋庆龄故居纪念馆",
    "category": "museum",
    "duration_minutes": 120,
    "rating": 4.0,
    "lat": 31.204017,
    "lon": 121.439062,
    "description": "电话: 021-64747183 | 地址: 淮海中路1843号 | 类别: 风景名胜;风景名胜;红色景区",
    "city": "上海"
  },
  {
    "name": "网红打卡拍照处",
    "category": "sightseeing",
    "duration_minutes": 120,
    "rating": 4.0,
    "lat": 31.234505,
    "lon": 121.506343,
    "description": "地址: 世纪大道88号金茂大厦(陆家嘴地铁站8号口步行300米) | 类别: 风景名胜;风景名胜;风景名胜",
    "city": "上海"
  },
  {
    "name": "襄阳公园",
    "category": "outdoor",
    "duration_minutes": 120,
    "rating": 4.0,
    "lat": 31.216991,
    "lon": 121.456737,
    "description": "电话: 021-54042208 | 地址: 淮海中路1008号(近襄阳北路) | 类别: 风景名胜;公园广场;公园",
    "city": "上海"
  },
  {
    "name": "法租界会审公廨旧址",
    "category": "history",
    "duration_minutes": 120,
    "rating": 4.0,
    "lat": 31.209888,
    "lon": 121.469162,
    "description": "地址: 建国中路20-22号(打浦桥地铁站1号口步行390米) | 类别: 风景名胜;风景名胜;纪念馆",
    "city": "上海"
  },
  {
    "name": "中共代表团驻沪办事处纪念馆",
    "category": "museum",
    "duration_minutes": 120,
    "rating": 4.0,
    "lat": 31.214194,
    "lon": 121.46848,
    "description": "电话: 021-64730420 | 地址: 思南路73号 | 类别: 风景名胜;风景名胜;风景名胜",
    "city": "上海"
  },
  {
    "name": "上海美术馆(中华艺术宫)",
    "category": "museum",
    "duration_minutes": 120,
    "rating": 4.0,
    "lat": 31.184338,
    "lon": 121.49474,
    "description": "电话: 021-20202010;021-20252018;4009219021 | 地址: 上南路205号 | 类别: 科教文化服务;博物馆;博物馆",
    "city": "上海"
  },
  {
    "name": "上海公安博物馆",
    "category": "museum",
    "duration_minutes": 120,
    "rating": 4.0,
    "lat": 31.198348,
    "lon": 121.468314,
    "description": "电话: 021-22025185;021-64720256 | 地址: 瑞金南路518号 | 类别: 科教文化服务;博物馆;博物馆",
    "city": "上海"
  },
  {
    "name": "上海博物馆(东馆)",
    "category": "museum",
    "duration_minutes": 120,
    "rating": 4.0,
    "lat": 31.219913,
    "lon": 121.538745,
    "description": "电话: 021-20729999 | 地址: 世纪大道1952号 | 类别: 科教文化服务;博物馆;博物馆",
    "city": "上海"
  },
  {
    "name": "人民公园",
    "category": "outdoor",
    "duration_minutes": 120,
    "rating": 4.0,
    "lat": 31.232135,
    "lon": 121.473115,
    "description": "电话: 021-63271333 | 地址: 南京西路231号 | 类别: 风景名胜;公园广场;公园",
    "city": "上海"
  },
  {
    "name": "万国建筑博览群",
    "category": "sightseeing",
    "duration_minutes": 120,
    "rating": 4.0,
    "lat": 31.237208,
    "lon": 121.489271,
    "description": "地址: 滇池路63号 | 类别: 风景名胜;风景名胜;风景名胜",
    "city": "上海"
  },
  {
    "name": "上海人民广场音乐喷泉",
    "category": "outdoor",
    "duration_minutes": 120,
    "rating": 4.0,
    "lat": 31.229381,
    "lon": 121.474539,
    "description": "地址: 人民大道185号上海人民广场(西北角) | 类别: 风景名胜;公园广场;城市广场",
    "city": "上海"
  },
  {
    "name": "延中广场公园",
    "category": "outdoor",
    "duration_minutes": 120,
    "rating": 4.0,
    "lat": 31.225564,
    "lon": 121.475074,
    "description": "地址: 一大会址·黄陂南路地铁站5号口步行130米 | 类别: 风景名胜;公园广场;公园",
    "city": "上海"
  },
  {
    "name": "中国共产党第一次全国代表大会代表宿舍旧址",
    "category": "sightseeing",
    "duration_minutes": 120,
    "rating": 4.0,
    "lat": 31.221655,
    "lon": 121.475811,
    "description": "地址: 太仓路127号(一大会址·黄陂南路地铁站2号口步行370米) | 类别: 风景名胜;风景名胜;红色景区|风景名胜;风景名胜;风景名胜",
    "city": "上海"
  },
  {
    "name": "日落长廊",
    "category": "sightseeing",
    "duration_minutes": 120,
    "rating": 4.0,
    "lat": 31.238035,
    "lon": 121.495241,
    "description": "地址: 滨江大道与会议中心交叉口西南60米 | 类别: 风景名胜;风景名胜;风景名胜",
    "city": "上海"
  },
  {
    "name": "静安公园(暂停开放)",
    "category": "outdoor",
    "duration_minutes": 120,
    "rating": 4.0,
    "lat": 31.222035,
    "lon": 121.446873,
    "description": "电话: 021-62483238 | 地址: 华山路189号(静安寺地铁站2号口步行80米) | 类别: 风景名胜;公园广场;公园",
    "city": "上海"
  },
  {
    "name": "何东旧居",
    "category": "history",
    "duration_minutes": 120,
    "rating": 4.0,
    "lat": 31.230394,
    "lon": 121.452461,
    "description": "地址: 陕西北路457号 | 类别: 风景名胜;风景名胜;纪念馆",
    "city": "上海"
  },
  {
    "name": "外滩-观景平台",
    "category": "sightseeing",
    "duration_minutes": 120,
    "rating": 4.0,
    "lat": 31.240821,
    "lon": 121.490926,
    "description": "地址: 中山东一路49号外滩内(北侧) | 类别: 风景名胜;风景名胜相关;旅游景点",
    "city": "上海"
  },
  {
    "name": "上海环球金融中心观光厅",
    "category": "outdoor",
    "duration_minutes": 120,
    "rating": 4.0,
    "lat": 31.234415,
    "lon": 121.507221,
    "description": "地址: 世纪大道100号(陆家嘴地铁站8号口步行380米) | 类别: 风景名胜;风景名胜;国家级景点",
    "city": "上海"
  },
  {
    "name": "龙华寺",
    "category": "history",
    "duration_minutes": 120,
    "rating": 4.0,
    "lat": 31.175174,
    "lon": 121.451842,
    "description": "电话: 021-64566085;021-64571440 | 地址: 龙华路2853号(近龙华西路) | 类别: 风景名胜;风景名胜;寺庙道观",
    "city": "上海"
  },
  {
    "name": "世博公园",
    "category": "outdoor",
    "duration_minutes": 120,
    "rating": 4.0,
    "lat": 31.187104,
    "lon": 121.484916,
    "description": "地址: 世博大道1750号(世博大道地铁站1号口步行260米) | 类别: 风景名胜;公园广场;公园",
    "city": "上海"
  },
  {
    "name": "滨江公园",
    "category": "outdoor",
    "duration_minutes": 120,
    "rating": 4.0,
    "lat": 31.236204,
    "lon": 121.496573,
    "description": "电话: 021-50917356 | 地址: 滨江大道2967号 | 类别: 风景名胜;公园广场;公园",
    "city": "上海"
  },
  {
    "name": "上海文庙(暂停开放)",
    "category": "history",
    "duration_minutes": 120,
    "rating": 4.0,
    "lat": 31.218107,
    "lon": 121.48788,
    "description": "电话: 021-63771815 | 地址: 文庙路215号(近学前街)(老西门地铁站7号口步行480米) | 类别: 风景名胜;风景名胜;寺庙道观",
    "city": "上海"
  },
  {
    "name": "四川北路公园",
    "category": "outdoor",
    "duration_minutes": 120,
    "rating": 4.0,
    "lat": 31.254871,
    "lon": 121.484802,
    "description": "电话: 021-63562282 | 地址: 四川北路1428号(四川北路地铁站1号口步行220米) | 类别: 风景名胜;公园广场;公园",
    "city": "上海"
  },
  {
    "name": "上海和平公园",
    "category": "outdoor",
    "duration_minutes": 120,
    "rating": 4.0,
    "lat": 31.270697,
    "lon": 121.503191,
    "description": "电话: 021-65030518 | 地址: 天宝路891号(四平路地铁站3号口步行250米) | 类别: 风景名胜;公园广场;公园",
    "city": "上海"
  },
  {
    "name": "上海基督教沐恩堂",
    "category": "outdoor",
    "duration_minutes": 120,
    "rating": 4.0,
    "lat": 31.233273,
    "lon": 121.475855,
    "description": "电话: 021-63225069 | 地址: 西藏中路316号(人民广场地铁站14号口步行50米) | 类别: 风景名胜;风景名胜;教堂",
    "city": "上海"
  },
  {
    "name": "法藏讲寺",
    "category": "history",
    "duration_minutes": 120,
    "rating": 4.0,
    "lat": 31.217887,
    "lon": 121.481494,
    "description": "电话: 021-63289986 | 地址: 吉安路271号(老西门地铁站4号口步行230米) | 类别: 风景名胜;风景名胜;寺庙道观",
    "city": "上海"
  },
  {
    "name": "世博文化公园双子山",
    "category": "outdoor",
    "duration_minutes": 120,
    "rating": 4.0,
    "lat": 31.177459,
    "lon": 121.479769,
    "description": "电话: 021-58839818 | 地址: 通耀路255号 | 类别: 风景名胜;风景名胜;风景名胜",
    "city": "上海"
  },
  {
    "name": "东昌滨江绿地",
    "category": "outdoor",
    "duration_minutes": 120,
    "rating": 4.0,
    "lat": 31.226816,
    "lon": 121.506449,
    "description": "地址: 商城路 | 类别: 风景名胜;公园广场;公园",
    "city": "上海"
  },
  {
    "name": "天主教上海教区徐家汇圣依纳爵主教座堂",
    "category": "outdoor",
    "duration_minutes": 120,
    "rating": 4.0,
    "lat": 31.191164,
    "lon": 121.436099,
    "description": "电话: 021-64382595;021-64412211 | 地址: 浦西路158(徐家汇地铁站8号口步行170米) | 类别: 风景名胜;风景名胜;教堂",
    "city": "上海"
  },
  {
    "name": "徐汇滨江绿地",
    "category": "outdoor",
    "duration_minutes": 120,
    "rating": 4.0,
    "lat": 31.180766,
    "lon": 121.463869,
    "description": "地址: 东安路龙腾大道交界处 | 类别: 体育休闲服务;休闲场所;休闲场所",
    "city": "上海"
  },
  {
    "name": "建业里",
    "category": "sightseeing",
    "duration_minutes": 120,
    "rating": 4.0,
    "lat": 31.203688,
    "lon": 121.451802,
    "description": "地址: 建国西路442号 | 类别: 商务住宅;住宅区;住宅小区|购物服务;特色商业街;特色商业街",
    "city": "上海"
  },
  {
    "name": "北外滩航海公园",
    "category": "outdoor",
    "duration_minutes": 120,
    "rating": 4.0,
    "lat": 31.247777,
    "lon": 121.497672,
    "description": "地址: 北外滩国客中心(国际客运中心地铁站出入口步行470米) | 类别: 风景名胜;公园广场;公园",
    "city": "上海"
  },
  {
    "name": "世博展览馆北广场",
    "category": "outdoor",
    "duration_minutes": 120,
    "rating": 4.0,
    "lat": 31.183657,
    "lon": 121.489738,
    "description": "电话: 021-20893600 | 地址: 博成路850号 | 类别: 风景名胜;公园广场;城市广场",
    "city": "上海"
  },
  {
    "name": "上海大宁公园",
    "category": "outdoor",
    "duration_minutes": 120,
    "rating": 4.0,
    "lat": 31.275776,
    "lon": 121.443097,
    "description": "电话: 021-56653804;021-66521776 | 地址: 广中西路288号 | 类别: 风景名胜;公园广场;公园",
    "city": "上海"
  },
  {
    "name": "黄浦公园",
    "category": "outdoor",
    "duration_minutes": 120,
    "rating": 4.0,
    "lat": 31.24176,
    "lon": 121.49099,
    "description": "地址: 外滩中山东一路479号 | 类别: 风景名胜;公园广场;公园",
    "city": "上海"
  },
  {
    "name": "上海世纪公园",
    "category": "outdoor",
    "duration_minutes": 120,
    "rating": 4.0,
    "lat": 31.215725,
    "lon": 121.552563,
    "description": "电话: 021-38760588;021-58333983 | 地址: 锦绣路1001号 | 类别: 风景名胜;风景名胜;国家级景点",
    "city": "上海"
  },
  {
    "name": "世博文化公园上海温室花园",
    "category": "outdoor",
    "duration_minutes": 120,
    "rating": 4.0,
    "lat": 31.178387,
    "lon": 121.475064,
    "description": "电话: 021-58839818 | 地址: 济明路199号(上海世博文化公园内) | 类别: 风景名胜;公园广场;植物园",
    "city": "上海"
  },
  {
    "name": "上海四行仓库抗战纪念地晋元纪念广场",
    "category": "outdoor",
    "duration_minutes": 120,
    "rating": 4.0,
    "lat": 31.240089,
    "lon": 121.470487,
    "description": "地址: 国庆路与晋元路交叉口东南50米 | 类别: 风景名胜;公园广场;城市广场",
    "city": "上海"
  },
  {
    "name": "甜爱路",
    "category": "sightseeing",
    "duration_minutes": 120,
    "rating": 4.0,
    "lat": 31.26723,
    "lon": 121.483903,
    "description": "地址: 千爱里 | 类别: 风景名胜;风景名胜;风景名胜",
    "city": "上海"
  },
  {
    "name": "创享塔",
    "category": "history",
    "duration_minutes": 120,
    "rating": 4.0,
    "lat": 31.238074,
    "lon": 121.431199,
    "description": "电话: 021-62829666 | 地址: 叶家宅路100号 | 类别: 商务住宅;商务住宅相关;商务住宅相关",
    "city": "上海"
  },
  {
    "name": "LV巨轮",
    "category": "sightseeing",
    "duration_minutes": 120,
    "rating": 4.0,
    "lat": 31.229952,
    "lon": 121.462166,
    "description": "地址: 石门一路与吴江路交叉口南40米(南京西路地铁站5号口旁) | 类别: 风景名胜;风景名胜;风景名胜",
    "city": "上海"
  },
  {
    "name": "闸北公园",
    "category": "outdoor",
    "duration_minutes": 120,
    "rating": 4.0,
    "lat": 31.270552,
    "lon": 121.459973,
    "description": "地址: 共和新路1555号(近洛川东路) | 类别: 风景名胜;公园广场;公园",
    "city": "上海"
  },
  {
    "name": "广场公园-长桥碧水",
    "category": "outdoor",
    "duration_minutes": 120,
    "rating": 4.0,
    "lat": 31.225308,
    "lon": 121.472823,
    "description": "地址: 延安东路延中广场公园(东北角) | 类别: 风景名胜;风景名胜相关;旅游景点",
    "city": "上海"
  },
  {
    "name": "下海庙",
    "category": "history",
    "duration_minutes": 120,
    "rating": 4.0,
    "lat": 31.255419,
    "lon": 121.506644,
    "description": "电话: 021-65410761;021-65416559 | 地址: 昆明路73号(海门路昆明路) | 类别: 风景名胜;风景名胜;寺庙道观",
    "city": "上海"
  },
  {
    "name": "东方明珠公园",
    "category": "outdoor",
    "duration_minutes": 120,
    "rating": 4.0,
    "lat": 31.241103,
    "lon": 121.500127,
    "description": "地址: 滨江大道2525弄5-25号 | 类别: 风景名胜;公园广场;公园",
    "city": "上海"
  },
  {
    "name": "上海徐家汇源",
    "category": "outdoor",
    "duration_minutes": 120,
    "rating": 4.0,
    "lat": 31.190694,
    "lon": 121.436675,
    "description": "地址: 漕溪北路90号(徐家汇地铁站出入口步行110米) | 类别: 风景名胜;风景名胜;国家级景点",
    "city": "上海"
  },
  {
    "name": "台湾银行大楼旧址",
    "category": "sightseeing",
    "duration_minutes": 120,
    "rating": 4.0,
    "lat": 31.237918,
    "lon": 121.489668,
    "description": "地址: 九江路与中山东一路交叉口西40米 | 类别: 商务住宅;楼宇;商务写字楼",
    "city": "上海"
  },
  {
    "name": "白公馆(不对外开放)",
    "category": "sightseeing",
    "duration_minutes": 120,
    "rating": 4.0,
    "lat": 31.264023,
    "lon": 121.481871,
    "description": "地址: 多伦路210号 | 类别: 风景名胜;风景名胜;风景名胜",
    "city": "上海"
  },
  {
    "name": "多伦路文化名人街",
    "category": "sightseeing",
    "duration_minutes": 120,
    "rating": 4.0,
    "lat": 31.264124,
    "lon": 121.481748,
    "description": "地址: 多伦路 | 类别: 购物服务;特色商业街;特色商业街",
    "city": "上海"
  },
  {
    "name": "亚细亚大楼",
    "category": "sightseeing",
    "duration_minutes": 120,
    "rating": 4.0,
    "lat": 31.233442,
    "lon": 121.49124,
    "description": "地址: 中山东一路1号 | 类别: 风景名胜;风景名胜;风景名胜",
    "city": "上海"
  },
  {
    "name": "上海震旦博物馆",
    "category": "museum",
    "duration_minutes": 120,
    "rating": 4.0,
    "lat": 31.234931,
    "lon": 121.499594,
    "description": "电话: 021-58408899 | 地址: 富城路99号 | 类别: 科教文化服务;博物馆;博物馆",
    "city": "上海"
  },
  {
    "name": "音乐广场",
    "category": "outdoor",
    "duration_minutes": 120,
    "rating": 4.0,
    "lat": 31.226511,
    "lon": 121.478367,
    "description": "地址: 延安东路523号(大世界地铁站3号口步行320米) | 类别: 风景名胜;公园广场;城市广场",
    "city": "上海"
  },
  {
    "name": "徐家汇体育公园",
    "category": "outdoor",
    "duration_minutes": 120,
    "rating": 4.0,
    "lat": 31.181297,
    "lon": 121.440734,
    "description": "电话: 021-64266666 | 地址: 零陵路800号(上海游泳馆地铁站2号口旁) | 类别: 体育休闲服务;运动场馆;运动场所",
    "city": "上海"
  },
  {
    "name": "宜川公园",
    "category": "outdoor",
    "duration_minutes": 120,
    "rating": 4.0,
    "lat": 31.260345,
    "lon": 121.440863,
    "description": "地址: 上海市宜川路街道宜川路99号(近洛川路) | 类别: 风景名胜;公园广场;公园",
    "city": "上海"
  },
  {
    "name": "淮海公园",
    "category": "outdoor",
    "duration_minutes": 120,
    "rating": 4.0,
    "lat": 31.223054,
    "lon": 121.477564,
    "description": "电话: 021-63866377 | 地址: 太仓路56号 | 类别: 风景名胜;公园广场;公园",
    "city": "上海"
  },
  {
    "name": "中国共产党发起组成立地(《新青年》编辑部)旧址",
    "category": "sightseeing",
    "duration_minutes": 120,
    "rating": 4.0,
    "lat": 31.219482,
    "lon": 121.468797,
    "description": "地址: 南昌路100弄2号 | 类别: 风景名胜;风景名胜;红色景区",
    "city": "上海"
  },
  {
    "name": "上海长风公园",
    "category": "outdoor",
    "duration_minutes": 120,
    "rating": 4.0,
    "lat": 31.224607,
    "lon": 121.400804,
    "description": "电话: 021-62453270 | 地址: 大渡河路189号 | 类别: 风景名胜;公园广场;公园",
    "city": "上海"
  },
  {
    "name": "中兴公园",
    "category": "outdoor",
    "duration_minutes": 120,
    "rating": 4.0,
    "lat": 31.254712,
    "lon": 121.469926,
    "description": "地址: 中华新路396号(中兴路地铁站1号口步行290米) | 类别: 风景名胜;公园广场;公园",
    "city": "上海"
  },
  {
    "name": "外滩观光隧道",
    "category": "sightseeing",
    "duration_minutes": 120,
    "rating": 4.0,
    "lat": 31.238235,
    "lon": 121.497253,
    "description": "电话: 021-58886000 | 地址: 滨江大道2777号 | 类别: 风景名胜;风景名胜;风景名胜",
    "city": "上海"
  },
  {
    "name": "老白渡滨江绿地",
    "category": "outdoor",
    "duration_minutes": 120,
    "rating": 4.0,
    "lat": 31.218987,
    "lon": 121.511417,
    "description": "地址: 滨江大道潍坊西路 | 类别: 风景名胜;公园广场;公园",
    "city": "上海"
  },
  {
    "name": "外滩牛",
    "category": "sightseeing",
    "duration_minutes": 120,
    "rating": 4.0,
    "lat": 31.235447,
    "lon": 121.490886,
    "description": "地址: 外滩金融广场 | 类别: 风景名胜;风景名胜相关;旅游景点",
    "city": "上海"
  },
  {
    "name": "漾·SPACE汤泉生活",
    "category": "sightseeing",
    "duration_minutes": 120,
    "rating": 4.0,
    "lat": 31.217304,
    "lon": 121.516313,
    "description": "电话: 021-58785555 | 地址: 浦电路57号 | 类别: 生活服务;洗浴推拿场所;洗浴推拿场所",
    "city": "上海"
  },
  {
    "name": "蝴蝶湾花园",
    "category": "outdoor",
    "duration_minutes": 120,
    "rating": 4.0,
    "lat": 31.237714,
    "lon": 121.456649,
    "description": "地址: 康定东路50号 | 类别: 风景名胜;公园广场;公园",
    "city": "上海"
  },
  {
    "name": "中国社会主义青年团中央机关旧址纪念馆",
    "category": "museum",
    "duration_minutes": 120,
    "rating": 4.0,
    "lat": 31.220489,
    "lon": 121.468151,
    "description": "电话: 021-53823370 | 地址: 淮海中路567弄1-6号(淮海中路地铁站1号口步行370米) | 类别: 风景名胜;风景名胜;风景名胜",
    "city": "上海"
  },
  {
    "name": "豫园-三穗堂",
    "category": "sightseeing",
    "duration_minutes": 120,
    "rating": 4.0,
    "lat": 31.227142,
    "lon": 121.491855,
    "description": "电话: 021-63260830 | 地址: 安仁街132号豫园内(豫园地铁站7号口步行440米) | 类别: 风景名胜;风景名胜相关;旅游景点",
    "city": "上海"
  },
  {
    "name": "东方明珠广播电视塔-城市广场",
    "category": "outdoor",
    "duration_minutes": 120,
    "rating": 4.0,
    "lat": 31.239193,
    "lon": 121.500271,
    "description": "电话: 021-58791888 | 地址: 世纪大道1号(陆家嘴地铁站1号入口步行250米) | 类别: 风景名胜;公园广场;城市广场",
    "city": "上海"
  },
  {
    "name": "后滩公园",
    "category": "outdoor",
    "duration_minutes": 120,
    "rating": 4.0,
    "lat": 31.183833,
    "lon": 121.472766,
    "description": "地址: 世博大道2200号 | 类别: 风景名胜;公园广场;公园",
    "city": "上海"
  },
  {
    "name": "上海体育博物馆",
    "category": "museum",
    "duration_minutes": 120,
    "rating": 4.0,
    "lat": 31.233853,
    "lon": 121.471965,
    "description": "电话: 021-63275330 | 地址: 南京西路150号(人民广场地铁站10号口步行170米) | 类别: 科教文化服务;博物馆;博物馆",
    "city": "上海"
  },
  {
    "name": "城隍殿",
    "category": "history",
    "duration_minutes": 120,
    "rating": 4.0,
    "lat": 31.226286,
    "lon": 121.492341,
    "description": "电话: 021-63284494 | 地址: 方浜中路249号上海城隍庙内(北侧) | 类别: 风景名胜;风景名胜;寺庙道观",
    "city": "上海"
  },
  {
    "name": "世纪广场",
    "category": "outdoor",
    "duration_minutes": 120,
    "rating": 4.0,
    "lat": 31.219718,
    "lon": 121.542992,
    "description": "电话: 021-68540056 | 地址: 世纪大道2100号(上海科技馆地铁站2号口旁) | 类别: 风景名胜;公园广场;城市广场",
    "city": "上海"
  },
  {
    "name": "上海铁路博物馆",
    "category": "museum",
    "duration_minutes": 120,
    "rating": 4.0,
    "lat": 31.250035,
    "lon": 121.476228,
    "description": "电话: 021-51221130;021-51221987 | 地址: 天目东路200号 | 类别: 科教文化服务;博物馆;博物馆",
    "city": "上海"
  },
  {
    "name": "巧克力博物馆",
    "category": "museum",
    "duration_minutes": 120,
    "rating": 4.0,
    "lat": 31.226746,
    "lon": 121.490857,
    "description": "电话: 18989483533;4007161577 | 地址: 豫园旧校场路69号YB1-102 | 类别: 科教文化服务;博物馆;博物馆",
    "city": "上海"
  },
  {
    "name": "上海工艺美术博物馆",
    "category": "museum",
    "duration_minutes": 120,
    "rating": 4.0,
    "lat": 31.210087,
    "lon": 121.454495,
    "description": "电话: 021-64314074;021-64372509 | 地址: 汾阳路79号 | 类别: 科教文化服务;博物馆;博物馆",
    "city": "上海"
  },
  {
    "name": "黄浦江游览快线游(金陵东路码头)",
    "category": "outdoor",
    "duration_minutes": 120,
    "rating": 4.0,
    "lat": 31.232321,
    "lon": 121.493209,
    "description": "地址: 外滩街道中山东二路141号金陵东路渡口 | 类别: 风景名胜;风景名胜相关;旅游景点",
    "city": "上海"
  },
  {
    "name": "WYSH翡悦里",
    "category": "sightseeing",
    "duration_minutes": 120,
    "rating": 4.0,
    "lat": 31.212814,
    "lon": 121.427499,
    "description": "地址: 武夷路168号 | 类别: 购物服务;购物相关场所;购物相关场所",
    "city": "上海"
  },
  {
    "name": "西岸美术馆",
    "category": "museum",
    "duration_minutes": 120,
    "rating": 4.0,
    "lat": 31.167682,
    "lon": 121.463841,
    "description": "电话: 021-31011015 | 地址: 龙腾大道2600号 | 类别: 科教文化服务;美术馆;美术馆",
    "city": "上海"
  },
  {
    "name": "海粟文化广场",
    "category": "outdoor",
    "duration_minutes": 120,
    "rating": 4.0,
    "lat": 31.210477,
    "lon": 121.419524,
    "description": "地址: 昭化路618、638、658、666号 | 类别: 商务住宅;楼宇;商务写字楼",
    "city": "上海"
  },
  {
    "name": "小桃园清真寺",
    "category": "sightseeing",
    "duration_minutes": 120,
    "rating": 4.0,
    "lat": 31.220765,
    "lon": 121.48947,
    "description": "电话: 021-63775442 | 地址: 小桃园街24、52 | 类别: 风景名胜;风景名胜;回教寺",
    "city": "上海"
  },
  {
    "name": "长寿健康主题公园",
    "category": "outdoor",
    "duration_minutes": 120,
    "rating": 4.0,
    "lat": 31.243418,
    "lon": 121.439499,
    "description": "电话: 021-52521386 | 地址: 长寿路260号(长寿路地铁站3号口步行290米) | 类别: 风景名胜;公园广场;公园",
    "city": "上海"
  },
  {
    "name": "世纪同框广场",
    "category": "outdoor",
    "duration_minutes": 120,
    "rating": 4.0,
    "lat": 31.24411,
    "lon": 121.489368,
    "description": "电话: 18017713232 | 地址: 北苏州路29号 | 类别: 风景名胜;公园广场;城市广场",
    "city": "上海"
  },
  {
    "name": "申园",
    "category": "outdoor",
    "duration_minutes": 120,
    "rating": 4.0,
    "lat": 31.182313,
    "lon": 121.474285,
    "description": "电话: 021-58839818 | 地址: 世博大道世博文化公园内(西侧) | 类别: 风景名胜;公园广场;公园",
    "city": "上海"
  },
  {
    "name": "上海城隍庙广场",
    "category": "outdoor",
    "duration_minutes": 120,
    "rating": 4.0,
    "lat": 31.225036,
    "lon": 121.493271,
    "description": "地址: 方浜中路168号 | 类别: 购物服务;商场;普通商场",
    "city": "上海"
  },
  {
    "name": "张爱玲故居-爱林登公寓旧址",
    "category": "sightseeing",
    "duration_minutes": 120,
    "rating": 4.0,
    "lat": 31.224749,
    "lon": 121.44765,
    "description": "地址: 常德路195号(静安寺地铁站6号口步行150米) | 类别: 风景名胜;风景名胜相关;旅游景点",
    "city": "上海"
  },
  {
    "name": "沉香阁",
    "category": "history",
    "duration_minutes": 120,
    "rating": 4.0,
    "lat": 31.227448,
    "lon": 121.490155,
    "description": "电话: 021-63203431 | 地址: 豫园街道沉香阁路29号 | 类别: 风景名胜;风景名胜;寺庙道观",
    "city": "上海"
  },
  {
    "name": "上海世博展览馆-南广场",
    "category": "outdoor",
    "duration_minutes": 120,
    "rating": 4.0,
    "lat": 31.181334,
    "lon": 121.490148,
    "description": "地址: 世博大道1500号 | 类别: 风景名胜;公园广场;城市广场",
    "city": "上海"
  },
  {
    "name": "愚园路历史名人墙",
    "category": "sightseeing",
    "duration_minutes": 120,
    "rating": 4.0,
    "lat": 31.218551,
    "lon": 121.429026,
    "description": "地址: 上海市江苏路街道愚园路1065号 | 类别: 风景名胜;风景名胜相关;旅游景点",
    "city": "上海"
  },
  {
    "name": "基督教国际礼拜堂",
    "category": "sightseeing",
    "duration_minutes": 120,
    "rating": 4.0,
    "lat": 31.206195,
    "lon": 121.448059,
    "description": "电话: 021-64376576 | 地址: 衡山路53号 | 类别: 风景名胜;风景名胜;教堂",
    "city": "上海"
  },
  {
    "name": "蓬莱公园",
    "category": "outdoor",
    "duration_minutes": 120,
    "rating": 4.0,
    "lat": 31.206099,
    "lon": 121.491501,
    "description": "电话: 021-63162567 | 地址: 南车站路350号 | 类别: 风景名胜;公园广场;公园",
    "city": "上海"
  },
  {
    "name": "苏州河梦清园环保主题公园",
    "category": "outdoor",
    "duration_minutes": 120,
    "rating": 4.0,
    "lat": 31.250655,
    "lon": 121.440449,
    "description": "电话: 021-62778770 | 地址: 宜昌路88号 | 类别: 风景名胜;公园广场;公园",
    "city": "上海"
  },
  {
    "name": "上海迪士尼度假区",
    "category": "outdoor",
    "duration_minutes": 120,
    "rating": 4.0,
    "lat": 31.141447,
    "lon": 121.667003,
    "description": "电话: 021-60640079 | 地址: 川沙新镇黄赵路310号(迪士尼地铁站1号口步行300米) | 类别: 体育休闲服务;休闲场所;游乐场|风景名胜;风景名胜相关;旅游景点",
    "city": "上海"
  },
  {
    "name": "上海电影博物馆",
    "category": "museum",
    "duration_minutes": 120,
    "rating": 4.0,
    "lat": 31.186294,
    "lon": 121.438473,
    "description": "电话: 021-64268666 | 地址: 漕溪北路595号A座(上海体育馆地铁站1号口步行450米) | 类别: 科教文化服务;博物馆;博物馆",
    "city": "上海"
  },
  {
    "name": "罗丹艺术中心",
    "category": "sightseeing",
    "duration_minutes": 120,
    "rating": 4.0,
    "lat": 31.184665,
    "lon": 121.479032,
    "description": "地址: 上海市上钢新村街道世博大道1929号 | 类别: 科教文化服务;美术馆;美术馆",
    "city": "上海"
  },
  {
    "name": "国际乒联博物馆",
    "category": "museum",
    "duration_minutes": 120,
    "rating": 4.0,
    "lat": 31.193284,
    "lon": 121.481237,
    "description": "电话: 021-65506650 | 地址: 局门路796号 | 类别: 科教文化服务;博物馆;博物馆",
    "city": "上海"
  },
  {
    "name": "上海毛泽东旧居陈列馆",
    "category": "outdoor",
    "duration_minutes": 120,
    "rating": 4.0,
    "lat": 31.226303,
    "lon": 121.460555,
    "description": "电话: 021-62723656 | 地址: 茂名北路120弄5-9号 | 类别: 风景名胜;风景名胜;红色景区",
    "city": "上海"
  },
  {
    "name": "黄金城道步行街",
    "category": "sightseeing",
    "duration_minutes": 120,
    "rating": 4.0,
    "lat": 31.195195,
    "lon": 121.398256,
    "description": "电话: 021-32303352 | 地址: 伊犁南路黄金城道306-1号 | 类别: 购物服务;特色商业街;步行街",
    "city": "上海"
  },
  {
    "name": "武夷休闲广场",
    "category": "sightseeing",
    "duration_minutes": 120,
    "rating": 4.0,
    "lat": 31.253517,
    "lon": 121.474429,
    "description": "地址: 公兴路88号(宝山路地铁站1号口步行270米) | 类别: 商务住宅;楼宇;商务写字楼",
    "city": "上海"
  },
  {
    "name": "上海长风海洋世界",
    "category": "outdoor",
    "duration_minutes": 120,
    "rating": 4.0,
    "lat": 31.225042,
    "lon": 121.396998,
    "description": "电话: 021-60721488;4000988966 | 地址: 大渡河路189号(长风公园地铁站2号口步行150米) | 类别: 风景名胜;公园广场;水族馆",
    "city": "上海"
  },
  {
    "name": "巴金故居(装修中)",
    "category": "history",
    "duration_minutes": 120,
    "rating": 4.0,
    "lat": 31.208583,
    "lon": 121.440727,
    "description": "电话: 021-33685656 | 地址: 武康路113号(上海图书馆地铁站3号口步行440米) | 类别: 风景名胜;风景名胜;纪念馆",
    "city": "上海"
  },
  {
    "name": "上海共青森林公园",
    "category": "outdoor",
    "duration_minutes": 120,
    "rating": 4.0,
    "lat": 31.318956,
    "lon": 121.551787,
    "description": "地址: 军工路2000号 | 类别: 风景名胜;风景名胜;国家级景点",
    "city": "上海"
  },
  {
    "name": "延中公园",
    "category": "outdoor",
    "duration_minutes": 120,
    "rating": 4.0,
    "lat": 31.222443,
    "lon": 121.467051,
    "description": "地址: 巨鹿路成都南路口 | 类别: 风景名胜;公园广场;公园",
    "city": "上海"
  },
  {
    "name": "真如寺",
    "category": "history",
    "duration_minutes": 120,
    "rating": 4.0,
    "lat": 31.249775,
    "lon": 121.401359,
    "description": "电话: 021-62546340;021-62971581 | 地址: 真如镇兰溪路399号(铜川路口) | 类别: 风景名胜;风景名胜;寺庙道观",
    "city": "上海"
  },
  {
    "name": "上海市滨江滑板公园",
    "category": "outdoor",
    "duration_minutes": 120,
    "rating": 4.0,
    "lat": 31.185976,
    "lon": 121.467781,
    "description": "地址: 瑞宁路 | 类别: 风景名胜;公园广场;公园",
    "city": "上海"
  },
  {
    "name": "上海吴昌硕纪念馆",
    "category": "museum",
    "duration_minutes": 120,
    "rating": 4.0,
    "lat": 31.236772,
    "lon": 121.506922,
    "description": "电话: 021-58786863;021-58787252 | 地址: 陆家嘴东路15号(陆家嘴地铁站5号口步行400米) | 类别: 风景名胜;风景名胜相关;旅游景点",
    "city": "上海"
  },
  {
    "name": "福新面粉一厂旧址",
    "category": "sightseeing",
    "duration_minutes": 120,
    "rating": 4.0,
    "lat": 31.241749,
    "lon": 121.4645,
    "description": "地址: 光复路423号苏河文化中心 | 类别: 公司企业;公司;公司",
    "city": "上海"
  },
  {
    "name": "鲁迅故居",
    "category": "sightseeing",
    "duration_minutes": 120,
    "rating": 4.0,
    "lat": 31.266045,
    "lon": 121.484647,
    "description": "电话: 021-56662608 | 地址: 山阴路132弄大陆新邨9号 | 类别: 风景名胜;风景名胜;红色景区",
    "city": "上海"
  },
  {
    "name": "世博园",
    "category": "sightseeing",
    "duration_minutes": 120,
    "rating": 4.0,
    "lat": 31.194185,
    "lon": 121.480443,
    "description": "地址: 龙华东路522号(世博会博物馆地铁站2号口步行340米) | 类别: 商务住宅;产业园区;产业园区",
    "city": "上海"
  },
  {
    "name": "罗密欧阳台",
    "category": "sightseeing",
    "duration_minutes": 120,
    "rating": 4.0,
    "lat": 31.209285,
    "lon": 121.440527,
    "description": "地址: 上海市湖南路街道武康路210号 | 类别: 风景名胜;风景名胜;风景名胜",
    "city": "上海"
  },
  {
    "name": "徐汇滨江大道",
    "category": "outdoor",
    "duration_minutes": 120,
    "rating": 4.0,
    "lat": 31.176907,
    "lon": 121.462309,
    "description": "地址: 龙腾大道 | 类别: 风景名胜;风景名胜相关;旅游景点",
    "city": "上海"
  },
  {
    "name": "上海市龙华烈士陵园",
    "category": "outdoor",
    "duration_minutes": 120,
    "rating": 4.0,
    "lat": 31.175819,
    "lon": 121.449206,
    "description": "电话: 021-64685995 | 地址: 龙华西路180号 | 类别: 风景名胜;风景名胜相关;旅游景点|生活服务;丧葬设施;陵园",
    "city": "上海"
  },
  {
    "name": "上海鲁迅纪念馆(暂停开放)",
    "category": "museum",
    "duration_minutes": 120,
    "rating": 4.0,
    "lat": 31.269682,
    "lon": 121.483843,
    "description": "电话: 021-65402288 | 地址: 甜爱路200号 | 类别: 风景名胜;风景名胜;风景名胜",
    "city": "上海"
  },
  {
    "name": "福佑路清真寺",
    "category": "sightseeing",
    "duration_minutes": 120,
    "rating": 4.0,
    "lat": 31.227828,
    "lon": 121.488635,
    "description": "电话: 021-63282135 | 地址: 福佑路378号(近丽水路) | 类别: 风景名胜;风景名胜;回教寺",
    "city": "上海"
  },
  {
    "name": "久事苏州河外滩源码头",
    "category": "sightseeing",
    "duration_minutes": 120,
    "rating": 4.0,
    "lat": 31.243664,
    "lon": 121.488238,
    "description": "地址: 原划船俱乐部 | 类别: 交通设施服务;港口码头;港口码头",
    "city": "上海"
  },
  {
    "name": "钦赐仰殿",
    "category": "history",
    "duration_minutes": 120,
    "rating": 4.0,
    "lat": 31.234059,
    "lon": 121.532733,
    "description": "电话: 021-58768959 | 地址: 源深路476号(近张杨路) | 类别: 风景名胜;风景名胜;寺庙道观",
    "city": "上海"
  },
  {
    "name": "世博文化公园世界花艺园",
    "category": "outdoor",
    "duration_minutes": 120,
    "rating": 4.0,
    "lat": 31.175105,
    "lon": 121.47181,
    "description": "地址: 济坤路100号世博文化公园(后滩地铁站4号口步行270米) | 类别: 风景名胜;风景名胜相关;旅游景点",
    "city": "上海"
  },
  {
    "name": "德邻公寓旧址",
    "category": "sightseeing",
    "duration_minutes": 120,
    "rating": 4.0,
    "lat": 31.245553,
    "lon": 121.48386,
    "description": "电话: 15921760916 | 地址: 上海市四川北路街道四川北路71号 | 类别: 风景名胜;风景名胜相关;旅游景点",
    "city": "上海"
  },
  {
    "name": "丽园公园",
    "category": "outdoor",
    "duration_minutes": 120,
    "rating": 4.0,
    "lat": 31.207322,
    "lon": 121.478826,
    "description": "地址: 丽园路565号 | 类别: 风景名胜;公园广场;公园",
    "city": "上海"
  },
  {
    "name": "雷士德工学院旧址",
    "category": "history",
    "duration_minutes": 120,
    "rating": 4.0,
    "lat": 31.250816,
    "lon": 121.497655,
    "description": "地址: 东长治路505号(国际客运中心地铁站1号口步行90米) | 类别: 风景名胜;风景名胜;纪念馆",
    "city": "上海"
  },
  {
    "name": "天后宫",
    "category": "history",
    "duration_minutes": 120,
    "rating": 4.0,
    "lat": 31.241741,
    "lon": 121.479346,
    "description": "地址: 三泰路36号 | 类别: 风景名胜;风景名胜;寺庙道观",
    "city": "上海"
  },
  {
    "name": "衡山坊",
    "category": "outdoor",
    "duration_minutes": 120,
    "rating": 4.0,
    "lat": 31.196172,
    "lon": 121.439985,
    "description": "地址: 衡山路880号(徐家汇地铁站13号口步行250米) | 类别: 购物服务;特色商业街;特色商业街",
    "city": "上海"
  },
  {
    "name": "上海琉璃艺术博物馆",
    "category": "museum",
    "duration_minutes": 120,
    "rating": 4.0,
    "lat": 31.207795,
    "lon": 121.470292,
    "description": "电话: 021-64672268 | 地址: 泰康路25号 | 类别: 科教文化服务;博物馆;博物馆",
    "city": "上海"
  },
  {
    "name": "协进广场(建设中)",
    "category": "sightseeing",
    "duration_minutes": 120,
    "rating": 4.0,
    "lat": 31.242034,
    "lon": 121.487574,
    "description": "地址: 虎丘路78号 | 类别: 商务住宅;楼宇;商务写字楼",
    "city": "上海"
  },
  {
    "name": "大境阁",
    "category": "history",
    "duration_minutes": 120,
    "rating": 4.0,
    "lat": 31.224569,
    "lon": 121.483338,
    "description": "电话: 021-63266153;021-63266171 | 地址: 大境路259-269(大世界地铁站5号口步行390米) | 类别: 风景名胜;风景名胜;寺庙道观",
    "city": "上海"
  },
  {
    "name": "九子公园",
    "category": "outdoor",
    "duration_minutes": 120,
    "rating": 4.0,
    "lat": 31.240506,
    "lon": 121.464104,
    "description": "地址: 上海市南京东路街道成都北路1018号 | 类别: 风景名胜;公园广场;公园",
    "city": "上海"
  },
  {
    "name": "原划船俱乐部",
    "category": "sightseeing",
    "duration_minutes": 120,
    "rating": 4.0,
    "lat": 31.243368,
    "lon": 121.488719,
    "description": "地址: 南苏州路76号 | 类别: 风景名胜;风景名胜;风景名胜",
    "city": "上海"
  }
]