[
  {
    "name": "古鸡鸣寺",
    "category": "history",
    "duration_minutes": 120,
    "rating": 4.0,
    "lat": 32.061061,
    "lon": 118.795246,
    "description": "电话: 025-57715595 | 地址: 鸡鸣寺路1号钟山风景名胜区玄武湖景区内西南侧 | 类别: 风景名胜;风景名胜;寺庙道观",
    "city": "南京"
  },
  {
    "name": "玄武湖景区",
    "category": "outdoor",
    "duration_minutes": 120,
    "rating": 4.0,
    "lat": 32.069455,
    "lon": 118.812688,
    "description": "电话: 025-83614286 | 地址: 玄武门路1号钟山风景名胜区西侧 | 类别: 风景名胜;风景名胜;国家级景点",
    "city": "南京"
  },
  {
    "name": "总统府",
    "category": "sightseeing",
    "duration_minutes": 120,
    "rating": 4.0,
    "lat": 32.044228,
    "lon": 118.797398,
    "description": "电话: 025-84578716;025-84578888 | 地址: 长江路292号 | 类别: 风景名胜;风景名胜;国家级景点",
    "city": "南京"
  },
  {
    "name": "夫子庙秦淮风光带",
    "category": "history",
    "duration_minutes": 120,
    "rating": 4.0,
    "lat": 32.020699,
    "lon": 118.788972,
    "description": "电话: 025-52209788 | 地址: 平江府路80-1(夫子庙地铁站2号口步行170米) | 类别: 风景名胜;风景名胜;国家级景点",
    "city": "南京"
  },
  {
    "name": "南京城墙台城景区",
    "category": "sightseeing",
    "duration_minutes": 120,
    "rating": 4.0,
    "lat": 32.061456,
    "lon": 118.801956,
    "description": "电话: 025-83217200;025-83608359 | 地址: 玄武湖公园 | 类别: 风景名胜;风景名胜;风景名胜",
    "city": "南京"
  },
  {
    "name": "南京城墙景区-玄武门",
    "category": "sightseeing",
    "duration_minutes": 120,
    "rating": 4.0,
    "lat": 32.070521,
    "lon": 118.787516,
    "description": "地址: 玄武门路1号玄武湖公园(玄武门地铁站3号口步行300米) | 类别: 风景名胜;风景名胜;风景名胜",
    "city": "南京"
  },
  {
    "name": "红山森林动物园",
    "category": "outdoor",
    "duration_minutes": 120,
    "rating": 4.0,
    "lat": 32.091973,
    "lon": 118.80299,
    "description": "电话: 025-85620178 | 地址: 和燕路168号(红山动物园地铁站1号口步行400米) | 类别: 风景名胜;公园广场;动物园",
    "city": "南京"
  },
  {
    "name": "南京博物院",
    "category": "museum",
    "duration_minutes": 120,
    "rating": 4.0,
    "lat": 32.040802,
    "lon": 118.825064,
    "description": "电话: 025-84807923 | 地址: 中山东路321号 | 类别: 科教文化服务;博物馆;博物馆",
    "city": "南京"
  },
  {
    "name": "南京城墙景区(神策门至太平门)",
    "category": "sightseeing",
    "duration_minutes": 120,
    "rating": 4.0,
    "lat": 32.062723,
    "lon": 118.79626,
    "description": "电话: 025-83608359 | 地址: 解放门8号 | 类别: 风景名胜;风景名胜;风景名胜",
    "city": "南京"
  },
  {
    "name": "玄武湖景区情侣园",
    "category": "outdoor",
    "duration_minutes": 120,
    "rating": 4.0,
    "lat": 32.07004,
    "lon": 118.809617,
    "description": "电话: 025-83614286;025-85410103 | 地址: 龙蟠路100号 | 类别: 风景名胜;公园广场;公园",
    "city": "南京"
  },
  {
    "name": "南京夫子庙",
    "category": "history",
    "duration_minutes": 120,
    "rating": 4.0,
    "lat": 32.02066,
    "lon": 118.788899,
    "description": "电话: 025-52209788 | 地址: 贡院街152号 | 类别: 风景名胜;风景名胜;国家级景点",
    "city": "南京"
  },
  {
    "name": "毗卢寺",
    "category": "history",
    "duration_minutes": 120,
    "rating": 4.0,
    "lat": 32.042875,
    "lon": 118.803341,
    "description": "电话: 025-84405431 | 地址: 汉府街4号(西安门地铁站2号口步行370米) | 类别: 风景名胜;风景名胜;寺庙道观",
    "city": "南京"
  },
  {
    "name": "明孝陵景区",
    "category": "sightseeing",
    "duration_minutes": 120,
    "rating": 4.0,
    "lat": 32.051926,
    "lon": 118.840463,
    "description": "电话: 025-84431174 | 地址: 石象路7号 | 类别: 风景名胜;风景名胜;世界遗产",
    "city": "南京"
  },
  {
    "name": "白马公园",
    "category": "outdoor",
    "duration_minutes": 120,
    "rating": 4.0,
    "lat": 32.060725,
    "lon": 118.816692,
    "description": "电话: 025-85408062 | 地址: 锁金村街道白马山庄1号(近龙蟠路) | 类别: 风景名胜;公园广场;公园",
    "city": "南京"
  },
  {
    "name": "南京1912街区",
    "category": "sightseeing",
    "duration_minutes": 120,
    "rating": 4.0,
    "lat": 32.044777,
    "lon": 118.795778,
    "description": "电话: 025-84517710 | 地址: 长江后街8号 | 类别: 风景名胜;风景名胜相关;旅游景点",
    "city": "南京"
  },
  {
    "name": "太阳宫广场",
    "category": "history",
    "duration_minutes": 120,
    "rating": 4.0,
    "lat": 32.064285,
    "lon": 118.81386,
    "description": "电话: 025-84876162 | 地址: 湖岗子村阳光路3号(岗子村地铁站3号口步行290米) | 类别: 风景名胜;风景名胜;风景名胜",
    "city": "南京"
  },
  {
    "name": "钟山风景名胜区",
    "category": "outdoor",
    "duration_minutes": 120,
    "rating": 4.0,
    "lat": 32.047816,
    "lon": 118.849989,
    "description": "电话: 025-84431174 | 地址: 石象路7号 | 类别: 风景名胜;风景名胜;国家级景点",
    "city": "南京"
  },
  {
    "name": "中共代表团梅园新村纪念馆",
    "category": "history",
    "duration_minutes": 120,
    "rating": 4.0,
    "lat": 32.042379,
    "lon": 118.801602,
    "description": "电话: 025-84540739 | 地址: 汉府街18-1 | 类别: 风景名胜;风景名胜;纪念馆",
    "city": "南京"
  },
  {
    "name": "南京梧桐大道(陵园路)",
    "category": "sightseeing",
    "duration_minutes": 120,
    "rating": 4.0,
    "lat": 32.04605,
    "lon": 118.841586,
    "description": "地址: 四方城西路与陵园路交叉口西60米 | 类别: 风景名胜;风景名胜;风景名胜",
    "city": "南京"
  },
  {
    "name": "瞻园",
    "category": "sightseeing",
    "duration_minutes": 120,
    "rating": 4.0,
    "lat": 32.021034,
    "lon": 118.785163,
    "description": "电话: 025-52201849 | 地址: 瞻园路128号 | 类别: 风景名胜;风景名胜;国家级景点",
    "city": "南京"
  },
  {
    "name": "鼓楼公园",
    "category": "outdoor",
    "duration_minutes": 120,
    "rating": 4.0,
    "lat": 32.058688,
    "lon": 118.782028,
    "description": "电话: 025-86634466;025-86635513 | 地址: 北京西路1-2号(鼓楼地铁站6号口步行130米) | 类别: 风景名胜;公园广场;公园",
    "city": "南京"
  },
  {
    "name": "武庙遗址(不对外开放)",
    "category": "history",
    "duration_minutes": 120,
    "rating": 4.0,
    "lat": 32.059068,
    "lon": 118.797533,
    "description": "地址: 北京东路43号(鸡鸣寺地铁站5号口步行180米) | 类别: 风景名胜;风景名胜;寺庙道观",
    "city": "南京"
  },
  {
    "name": "中山陵景区",
    "category": "outdoor",
    "duration_minutes": 120,
    "rating": 4.0,
    "lat": 32.054508,
    "lon": 118.854097,
    "description": "地址: 石象路7号 | 类别: 风景名胜;风景名胜;风景名胜",
    "city": "南京"
  },
  {
    "name": "六朝博物馆",
    "category": "museum",
    "duration_minutes": 120,
    "rating": 4.0,
    "lat": 32.04284,
    "lon": 118.799124,
    "description": "电话: 025-52326032 | 地址: 长江路302号 | 类别: 科教文化服务;博物馆;博物馆",
    "city": "南京"
  },
  {
    "name": "南京中山植物园",
    "category": "outdoor",
    "duration_minutes": 120,
    "rating": 4.0,
    "lat": 32.0554,
    "lon": 118.831762,
    "description": "电话: 025-84347036;025-84347062;025-84347188 | 地址: 前湖后村1号中山陵园风景区 | 类别: 风景名胜;公园广场;植物园",
    "city": "南京"
  },
  {
    "name": "红山动物园南门新区",
    "category": "outdoor",
    "duration_minutes": 120,
    "rating": 4.0,
    "lat": 32.089895,
    "lon": 118.801349,
    "description": "地址: 红山森林动物园西南侧270米 | 类别: 风景名胜;公园广场;动物园",
    "city": "南京"
  },
  {
    "name": "老门东",
    "category": "sightseeing",
    "duration_minutes": 120,
    "rating": 4.0,
    "lat": 32.011682,
    "lon": 118.787631,
    "description": "电话: 025-58776699;025-58776868 | 地址: 剪子巷与箍桶巷交汇处剪子巷54号 | 类别: 风景名胜;风景名胜;风景名胜",
    "city": "南京"
  },
  {
    "name": "朝天宫",
    "category": "history",
    "duration_minutes": 120,
    "rating": 4.0,
    "lat": 32.034344,
    "lon": 118.77532,
    "description": "电话: 025-84200177;025-84466460 | 地址: 朝天宫4号(朝天宫地铁站1号口步行210米) | 类别: 风景名胜;风景名胜;国家级景点",
    "city": "南京"
  },
  {
    "name": "南京明故宫遗址公园",
    "category": "outdoor",
    "duration_minutes": 120,
    "rating": 4.0,
    "lat": 32.04145,
    "lon": 118.817968,
    "description": "电话: 025-84807135 | 地址: 中山东路311-3号(明故宫地铁站3号口步行140米) | 类别: 风景名胜;风景名胜;风景名胜",
    "city": "南京"
  },
  {
    "name": "清凉山公园",
    "category": "outdoor",
    "duration_minutes": 120,
    "rating": 4.0,
    "lat": 32.050132,
    "lon": 118.760835,
    "description": "电话: 025-83736861 | 地址: 清凉山路83号(近广州路) | 类别: 风景名胜;公园广场;公园",
    "city": "南京"
  },
  {
    "name": "明孝陵景区-燕雀湖风景区",
    "category": "outdoor",
    "duration_minutes": 120,
    "rating": 4.0,
    "lat": 32.044804,
    "lon": 118.832776,
    "description": "电话: 025-84442880 | 地址: 中山陵景区(近前湖公园) | 类别: 风景名胜;风景名胜;风景名胜",
    "city": "南京"
  },
  {
    "name": "莫愁湖公园",
    "category": "outdoor",
    "duration_minutes": 120,
    "rating": 4.0,
    "lat": 32.036459,
    "lon": 118.761005,
    "description": "电话: 025-86613724;025-86661790 | 地址: 水西门大街132号莫愁湖 | 类别: 风景名胜;公园广场;公园",
    "city": "南京"
  },
  {
    "name": "南京市博物馆",
    "category": "museum",
    "duration_minutes": 120,
    "rating": 4.0,
    "lat": 32.034552,
    "lon": 118.77545,
    "description": "电话: 025-84466460 | 地址: 冶山道院3号楼 | 类别: 科教文化服务;博物馆;博物馆",
    "city": "南京"
  },
  {
    "name": "玄武湖景区-梁洲",
    "category": "outdoor",
    "duration_minutes": 120,
    "rating": 4.0,
    "lat": 32.07711,
    "lon": 118.794138,
    "description": "电话: 025-83614286 | 地址: 玄武巷1号玄武湖公园内 | 类别: 风景名胜;风景名胜;风景名胜",
    "city": "南京"
  },
  {
    "name": "颐和路12号民国建筑",
    "category": "sightseeing",
    "duration_minutes": 120,
    "rating": 4.0,
    "lat": 32.064198,
    "lon": 118.767678,
    "description": "地址: 颐和路12号 | 类别: 风景名胜;风景名胜;风景名胜",
    "city": "南京"
  },
  {
    "name": "灵谷景区",
    "category": "outdoor",
    "duration_minutes": 120,
    "rating": 4.0,
    "lat": 32.056287,
    "lon": 118.866392,
    "description": "电话: 025-84431071;025-84433582 | 地址: 孝陵卫街道灵谷寺2号 | 类别: 风景名胜;公园广场;公园|风景名胜;风景名胜;风景名胜",
    "city": "南京"
  },
  {
    "name": "南京利济巷慰安所旧址陈列馆",
    "category": "history",
    "duration_minutes": 120,
    "rating": 4.0,
    "lat": 32.038984,
    "lon": 118.79771,
    "description": "电话: 025-58598353 | 地址: 五老村街道五老村街道利济巷2号 | 类别: 风景名胜;风景名胜;纪念馆|科教文化服务;展览馆;展览馆",
    "city": "南京"
  },
  {
    "name": "侵华日军南京大屠杀遇难同胞纪念馆",
    "category": "history",
    "duration_minutes": 120,
    "rating": 4.0,
    "lat": 32.035217,
    "lon": 118.742372,
    "description": "电话: 025-86612230 | 地址: 水西门大街418号 | 类别: 风景名胜;风景名胜;纪念馆",
    "city": "南京"
  },
  {
    "name": "江宁织造博物馆",
    "category": "museum",
    "duration_minutes": 120,
    "rating": 4.0,
    "lat": 32.042136,
    "lon": 118.794071,
    "description": "电话: 025-52243204 | 地址: 碑亭巷9号 | 类别: 科教文化服务;博物馆;博物馆",
    "city": "南京"
  },
  {
    "name": "梧桐大道九号网红打卡圣地",
    "category": "sightseeing",
    "duration_minutes": 120,
    "rating": 4.0,
    "lat": 32.046231,
    "lon": 118.842883,
    "description": "地址: 陵园路与四方城西路交叉口东60米 | 类别: 风景名胜;风景名胜;风景名胜",
    "city": "南京"
  },
  {
    "name": "夫子庙步行街",
    "category": "history",
    "duration_minutes": 120,
    "rating": 4.0,
    "lat": 32.021485,
    "lon": 118.788876,
    "description": "地址: 夫子庙贡院西街53号(夫子庙地铁站6号口步行280米) | 类别: 购物服务;特色商业街;步行街",
    "city": "南京"
  },
  {
    "name": "美龄宫",
    "category": "history",
    "duration_minutes": 120,
    "rating": 4.0,
    "lat": 32.045458,
    "lon": 118.846557,
    "description": "电话: 025-84431600 | 地址: 中山陵9号钟山风景名胜区内(南侧) | 类别: 风景名胜;风景名胜;纪念馆",
    "city": "南京"
  },
  {
    "name": "钟山风景名胜区中山陵景区音乐台",
    "category": "outdoor",
    "duration_minutes": 120,
    "rating": 4.0,
    "lat": 32.055096,
    "lon": 118.855382,
    "description": "地址: 石象路7号 | 类别: 风景名胜;风景名胜;风景名胜",
    "city": "南京"
  },
  {
    "name": "德基艺术博物馆(德基广场二期店)",
    "category": "museum",
    "duration_minutes": 120,
    "rating": 4.0,
    "lat": 32.044875,
    "lon": 118.785075,
    "description": "电话: 025-86777999 | 地址: 中山路18号德基广场二期8F层 | 类别: 科教文化服务;博物馆;博物馆",
    "city": "南京"
  },
  {
    "name": "熙南里",
    "category": "sightseeing",
    "duration_minutes": 120,
    "rating": 4.0,
    "lat": 32.024967,
    "lon": 118.781344,
    "description": "地址: 中山南路400号(三山街地铁站2出口) | 类别: 购物服务;特色商业街;特色商业街",
    "city": "南京"
  },
  {
    "name": "九华山公园",
    "category": "outdoor",
    "duration_minutes": 120,
    "rating": 4.0,
    "lat": 32.059806,
    "lon": 118.807313,
    "description": "地址: 九华山路21号钟山风景名胜区玄武湖景区内南侧(九华山地铁站1号口步行310米) | 类别: 风景名胜;公园广场;公园",
    "city": "南京"
  },
  {
    "name": "玄武湖景区十里长堤",
    "category": "outdoor",
    "duration_minutes": 120,
    "rating": 4.0,
    "lat": 32.064937,
    "lon": 118.811384,
    "description": "电话: 025-83614286 | 地址: 环湖路与阳光路交叉口北50米 | 类别: 风景名胜;风景名胜相关;旅游景点",
    "city": "南京"
  },
  {
    "name": "玄武湖景区-樱洲",
    "category": "outdoor",
    "duration_minutes": 120,
    "rating": 4.0,
    "lat": 32.071793,
    "lon": 118.79381,
    "description": "电话: 025-83614286 | 地址: 玄武巷1号玄武湖景区内(西侧) | 类别: 风景名胜;风景名胜相关;旅游景点",
    "city": "南京"
  },
  {
    "name": "南京地质博物馆",
    "category": "museum",
    "duration_minutes": 120,
    "rating": 4.0,
    "lat": 32.044617,
    "lon": 118.807343,
    "description": "电话: 025-51816587;025-84813754 | 地址: 珠江路700号地质大厦 | 类别: 科教文化服务;博物馆;博物馆",
    "city": "南京"
  },
  {
    "name": "大报恩寺遗址景区",
    "category": "history",
    "duration_minutes": 120,
    "rating": 4.0,
    "lat": 32.009204,
    "lon": 118.78301,
    "description": "电话: 025-52009999 | 地址: 中华门外雨花路1号 | 类别: 风景名胜;风景名胜;风景名胜",
    "city": "南京"
  },
  {
    "name": "颐和路公馆区第十二片区",
    "category": "sightseeing",
    "duration_minutes": 120,
    "rating": 4.0,
    "lat": 32.063981,
    "lon": 118.770087,
    "description": "地址: 江苏路5-1号 | 类别: 风景名胜;风景名胜相关;旅游景点",
    "city": "南京"
  },
  {
    "name": "中华门",
    "category": "sightseeing",
    "duration_minutes": 120,
    "rating": 4.0,
    "lat": 32.0128,
    "lon": 118.781821,
    "description": "电话: 025-86625435 | 地址: 中华路 | 类别: 风景名胜;风景名胜;国家级景点",
    "city": "南京"
  },
  {
    "name": "乌龙潭公园",
    "category": "outdoor",
    "duration_minutes": 120,
    "rating": 4.0,
    "lat": 32.046112,
    "lon": 118.766475,
    "description": "电话: 025-83714809 | 地址: 广州路215号(省人民医院对面) | 类别: 风景名胜;风景名胜;省级景点",
    "city": "南京"
  },
  {
    "name": "南京中山植物园北园",
    "category": "outdoor",
    "duration_minutes": 120,
    "rating": 4.0,
    "lat": 32.056298,
    "lon": 118.832132,
    "description": "电话: 025-84347036 | 地址: 南京中山植物园 | 类别: 风景名胜;公园广场;植物园",
    "city": "南京"
  },
  {
    "name": "梅花谷公园",
    "category": "outdoor",
    "duration_minutes": 120,
    "rating": 4.0,
    "lat": 32.045256,
    "lon": 118.836146,
    "description": "电话: 025-84442880 | 地址: 明陵路与植物园南路交叉口南 | 类别: 风景名胜;风景名胜;风景名胜",
    "city": "南京"
  },
  {
    "name": "颐和路历史文化街区",
    "category": "sightseeing",
    "duration_minutes": 120,
    "rating": 4.0,
    "lat": 32.063949,
    "lon": 118.768152,
    "description": "地址: 马鞍山路与宁夏路交叉口西北220米 | 类别: 风景名胜;风景名胜;风景名胜",
    "city": "南京"
  },
  {
    "name": "南京海底世界",
    "category": "outdoor",
    "duration_minutes": 120,
    "rating": 4.0,
    "lat": 32.053785,
    "lon": 118.845254,
    "description": "电话: 025-84441119;025-84345252 | 地址: 四方城路2号 | 类别: 风景名胜;公园广场;水族馆",
    "city": "南京"
  },
  {
    "name": "江南贡院",
    "category": "museum",
    "duration_minutes": 120,
    "rating": 4.0,
    "lat": 32.020795,
    "lon": 118.790669,
    "description": "电话: 025-86626556;025-86626653 | 地址: 贡院街120号(夫子庙地铁站2号口步行290米) | 类别: 风景名胜;风景名胜;国家级景点|科教文化服务;博物馆;博物馆",
    "city": "南京"
  },
  {
    "name": "大钟亭公园",
    "category": "outdoor",
    "duration_minutes": 120,
    "rating": 4.0,
    "lat": 32.060425,
    "lon": 118.784636,
    "description": "电话: 025-57713865 | 地址: 大钟亭1号(鼓楼地铁站4B口步行110米) | 类别: 风景名胜;公园广场;公园",
    "city": "南京"
  },
  {
    "name": "玄武湖公园-蒲仙亭",
    "category": "outdoor",
    "duration_minutes": 120,
    "rating": 4.0,
    "lat": 32.07632,
    "lon": 118.793424,
    "description": "电话: 025-83614286 | 地址: 玄武巷1号玄武湖公园梁洲内 | 类别: 风景名胜;风景名胜相关;旅游景点",
    "city": "南京"
  },
  {
    "name": "甘熙宅第",
    "category": "sightseeing",
    "duration_minutes": 120,
    "rating": 4.0,
    "lat": 32.025916,
    "lon": 118.781759,
    "description": "电话: 025-52217104;025-86628704 | 地址: 中山南路400号熙南里街区 | 类别: 风景名胜;风景名胜相关;旅游景点",
    "city": "南京"
  },
  {
    "name": "明城墙公园",
    "category": "outdoor",
    "duration_minutes": 120,
    "rating": 4.0,
    "lat": 32.069164,
    "lon": 118.787783,
    "description": "地址: 环湖路解放门8号(玄武门地铁站出入口步行400米) | 类别: 风景名胜;公园广场;公园",
    "city": "南京"
  },
  {
    "name": "阅江楼景区",
    "category": "outdoor",
    "duration_minutes": 120,
    "rating": 4.0,
    "lat": 32.094477,
    "lon": 118.748018,
    "description": "电话: 025-58815369 | 地址: 建宁路202号 | 类别: 风景名胜;风景名胜;国家级景点",
    "city": "南京"
  },
  {
    "name": "琵琶湖公园",
    "category": "outdoor",
    "duration_minutes": 120,
    "rating": 4.0,
    "lat": 32.054082,
    "lon": 118.824766,
    "description": "地址: 石象路7号中山陵园风景区外缘景区前湖片区 | 类别: 风景名胜;公园广场;公园",
    "city": "南京"
  },
  {
    "name": "芳桥",
    "category": "history",
    "duration_minutes": 120,
    "rating": 4.0,
    "lat": 32.075546,
    "lon": 118.793651,
    "description": "电话: 025-83614286 | 地址: 玄武巷1号玄武湖公园梁洲内 | 类别: 风景名胜;风景名胜相关;旅游景点",
    "city": "南京"
  },
  {
    "name": "头陀岭景区",
    "category": "sightseeing",
    "duration_minutes": 120,
    "rating": 4.0,
    "lat": 32.06674,
    "lon": 118.860119,
    "description": "电话: 025-85412727 | 地址: 中山门外石象路7号钟山风景区内 | 类别: 风景名胜;风景名胜;风景名胜",
    "city": "南京"
  },
  {
    "name": "南京国防园",
    "category": "sightseeing",
    "duration_minutes": 120,
    "rating": 4.0,
    "lat": 32.051368,
    "lon": 118.754817,
    "description": "电话: 025-83313180;025-83728950 | 地址: 虎踞路87号 | 类别: 风景名胜;风景名胜;省级景点",
    "city": "南京"
  },
  {
    "name": "北极阁公园",
    "category": "outdoor",
    "duration_minutes": 120,
    "rating": 4.0,
    "lat": 32.059699,
    "lon": 118.790688,
    "description": "电话: 025-83375481 | 地址: 鸡鸣寺路1号钟山风景名胜区玄武湖景区内西南侧 | 类别: 风景名胜;公园广场;公园",
    "city": "南京"
  },
  {
    "name": "基督教江苏路堂",
    "category": "outdoor",
    "duration_minutes": 120,
    "rating": 4.0,
    "lat": 32.064354,
    "lon": 118.770725,
    "description": "电话: 025-83724547 | 地址: 江苏路60-10号 | 类别: 风景名胜;风景名胜;教堂",
    "city": "南京"
  },
  {
    "name": "玄武湖景区-菱洲",
    "category": "outdoor",
    "duration_minutes": 120,
    "rating": 4.0,
    "lat": 32.069225,
    "lon": 118.799,
    "description": "地址: 玄武湖公园内 | 类别: 风景名胜;风景名胜相关;旅游景点",
    "city": "南京"
  },
  {
    "name": "明孝陵景区-明孝陵",
    "category": "sightseeing",
    "duration_minutes": 120,
    "rating": 4.0,
    "lat": 32.058692,
    "lon": 118.839826,
    "description": "地址: 四方城西路26号 | 类别: 风景名胜;风景名胜;风景名胜",
    "city": "南京"
  },
  {
    "name": "灵谷寺",
    "category": "history",
    "duration_minutes": 120,
    "rating": 4.0,
    "lat": 32.055286,
    "lon": 118.867693,
    "description": "地址: 陵园路7-3号 | 类别: 风景名胜;风景名胜;寺庙道观",
    "city": "南京"
  },
  {
    "name": "莲花广场",
    "category": "outdoor",
    "duration_minutes": 120,
    "rating": 4.0,
    "lat": 32.074187,
    "lon": 118.794126,
    "description": "电话: 025-83614286 | 地址: 南京玄武湖公园 | 类别: 风景名胜;公园广场;城市广场",
    "city": "南京"
  },
  {
    "name": "古林公园",
    "category": "outdoor",
    "duration_minutes": 120,
    "rating": 4.0,
    "lat": 32.066877,
    "lon": 118.753335,
    "description": "电话: 025-83700646 | 地址: 宁海路街道虎踞北路21号 | 类别: 风景名胜;公园广场;公园",
    "city": "南京"
  },
  {
    "name": "南京雨花台风景区",
    "category": "sightseeing",
    "duration_minutes": 120,
    "rating": 4.0,
    "lat": 31.997896,
    "lon": 118.781727,
    "description": "地址: 雨花路215号 | 类别: 风景名胜;风景名胜;国家级景点",
    "city": "南京"
  },
  {
    "name": "梅花山",
    "category": "outdoor",
    "duration_minutes": 120,
    "rating": 4.0,
    "lat": 32.050478,
    "lon": 118.840594,
    "description": "电话: 025-84442880 | 地址: 孝陵卫街道明孝陵景区内南京国际会议大酒店商务楼西北 | 类别: 风景名胜;风景名胜;风景名胜",
    "city": "南京"
  },
  {
    "name": "国立美术陈列馆旧址",
    "category": "history",
    "duration_minutes": 120,
    "rating": 4.0,
    "lat": 32.043973,
    "lon": 118.793674,
    "description": "电话: 025-89610911 | 地址: 长江路历史文化大街(南京1912街区店) | 类别: 风景名胜;风景名胜;纪念馆",
    "city": "南京"
  },
  {
    "name": "夫子庙游船码头",
    "category": "history",
    "duration_minutes": 120,
    "rating": 4.0,
    "lat": 32.019666,
    "lon": 118.789292,
    "description": "电话: 025-52300870 | 地址: 西市与贡院街交叉口东南50米 | 类别: 交通设施服务;交通服务相关;交通服务相关",
    "city": "南京"
  },
  {
    "name": "鼓楼市民广场",
    "category": "outdoor",
    "duration_minutes": 120,
    "rating": 4.0,
    "lat": 32.058978,
    "lon": 118.785804,
    "description": "地址: 宁海路街道山西路(鼓楼地铁站1号口步行220米) | 类别: 风景名胜;公园广场;公园广场",
    "city": "南京"
  },
  {
    "name": "南京十朝文化园",
    "category": "sightseeing",
    "duration_minutes": 120,
    "rating": 4.0,
    "lat": 32.044986,
    "lon": 118.842628,
    "description": "电话: 025-83651507 | 地址: 四方城1号 | 类别: 风景名胜;风景名胜;风景名胜",
    "city": "南京"
  },
  {
    "name": "长生鹿苑",
    "category": "sightseeing",
    "duration_minutes": 120,
    "rating": 4.0,
    "lat": 32.043336,
    "lon": 118.834383,
    "description": "地址: 明陵路1号 | 类别: 风景名胜;风景名胜;风景名胜",
    "city": "南京"
  },
  {
    "name": "颐和路歪脖子树",
    "category": "sightseeing",
    "duration_minutes": 120,
    "rating": 4.0,
    "lat": 32.064034,
    "lon": 118.767674,
    "description": "地址: 颐和路与牯岭路交叉口东北80米 | 类别: 风景名胜;风景名胜;风景名胜",
    "city": "南京"
  },
  {
    "name": "钟山风景名胜区-紫金山顶",
    "category": "outdoor",
    "duration_minutes": 120,
    "rating": 4.0,
    "lat": 32.069489,
    "lon": 118.842404,
    "description": "地址: 钟山风景名胜区紫金山顶 | 类别: 风景名胜;风景名胜相关;旅游景点",
    "city": "南京"
  },
  {
    "name": "狮子山风景区",
    "category": "outdoor",
    "duration_minutes": 120,
    "rating": 4.0,
    "lat": 32.092918,
    "lon": 118.752692,
    "description": "电话: 025-58590298 | 地址: 建宁路202号阅江楼景区内(东侧) | 类别: 风景名胜;公园广场;公园",
    "city": "南京"
  },
  {
    "name": "月牙湖公园",
    "category": "outdoor",
    "duration_minutes": 120,
    "rating": 4.0,
    "lat": 32.030173,
    "lon": 118.828757,
    "description": "地址: 后标营路164号钟山风景名胜区内西南侧 | 类别: 风景名胜;公园广场;公园",
    "city": "南京"
  },
  {
    "name": "前湖公园",
    "category": "outdoor",
    "duration_minutes": 120,
    "rating": 4.0,
    "lat": 32.048092,
    "lon": 118.83292,
    "description": "电话: 13913955400 | 地址: 石象路7号中山陵园风景区 | 类别: 风景名胜;风景名胜;风景名胜",
    "city": "南京"
  },
  {
    "name": "郑和公园",
    "category": "outdoor",
    "duration_minutes": 120,
    "rating": 4.0,
    "lat": 32.031442,
    "lon": 118.794405,
    "description": "电话: 025-84419742 | 地址: 太平巷35号(常府街地铁站1号口步行400米) | 类别: 风景名胜;公园广场;公园",
    "city": "南京"
  },
  {
    "name": "天主教南京总教区石鼓路主教座堂天主堂",
    "category": "sightseeing",
    "duration_minutes": 120,
    "rating": 4.0,
    "lat": 32.041036,
    "lon": 118.778259,
    "description": "地址: 石鼓路112号 | 类别: 风景名胜;风景名胜;教堂",
    "city": "南京"
  },
  {
    "name": "神策门公园",
    "category": "outdoor",
    "duration_minutes": 120,
    "rating": 4.0,
    "lat": 32.088919,
    "lon": 118.787327,
    "description": "地址: 锁金村街道龙蟠路2号钟山风景名胜区玄武湖景区内西北侧 | 类别: 风景名胜;公园广场;公园",
    "city": "南京"
  },
  {
    "name": "红山森林动物园-南京熊猫馆",
    "category": "outdoor",
    "duration_minutes": 120,
    "rating": 4.0,
    "lat": 32.092887,
    "lon": 118.801421,
    "description": "电话: 025-85620178 | 地址: 和燕路168号红山森林动物园(西北角) | 类别: 风景名胜;公园广场;动物园",
    "city": "南京"
  },
  {
    "name": "大桥公园",
    "category": "outdoor",
    "duration_minutes": 120,
    "rating": 4.0,
    "lat": 32.109434,
    "lon": 118.752397,
    "description": "电话: 025-85821918 | 地址: 宝塔桥街道宝塔桥东街5号 | 类别: 风景名胜;公园广场;公园",
    "city": "南京"
  },
  {
    "name": "台菱桥",
    "category": "history",
    "duration_minutes": 120,
    "rating": 4.0,
    "lat": 32.062953,
    "lon": 118.797917,
    "description": "电话: 025-83614286 | 地址: 玄武巷1号玄武湖公园菱洲内 | 类别: 风景名胜;风景名胜;风景名胜",
    "city": "南京"
  },
  {
    "name": "秦淮河",
    "category": "sightseeing",
    "duration_minutes": 120,
    "rating": 4.0,
    "lat": 32.020777,
    "lon": 118.791498,
    "description": "地址: 钞库街 | 类别: 风景名胜;风景名胜;风景名胜",
    "city": "南京"
  },
  {
    "name": "孙中山先生铜像",
    "category": "outdoor",
    "duration_minutes": 120,
    "rating": 4.0,
    "lat": 32.041757,
    "lon": 118.784095,
    "description": "地址: 新街口(新街口地铁站8号口步行90米) | 类别: 风景名胜;风景名胜;风景名胜",
    "city": "南京"
  },
  {
    "name": "南京古生物博物馆(暂停开放)",
    "category": "museum",
    "duration_minutes": 120,
    "rating": 4.0,
    "lat": 32.059611,
    "lon": 118.795172,
    "description": "电话: 025-83282255 | 地址: 北京东路39号(鸡鸣寺地铁站5号口步行320米) | 类别: 科教文化服务;博物馆;博物馆",
    "city": "南京"
  },
  {
    "name": "总统府门楼",
    "category": "outdoor",
    "duration_minutes": 120,
    "rating": 4.0,
    "lat": 32.042752,
    "lon": 118.797549,
    "description": "电话: 025-84578716 | 地址: 长江路292号总统府(大行宫地铁站5号口步行290米) | 类别: 风景名胜;公园广场;城市广场",
    "city": "南京"
  },
  {
    "name": "钟山风景名胜区-紫金山索道(暂停开放)",
    "category": "outdoor",
    "duration_minutes": 120,
    "rating": 4.0,
    "lat": 32.058107,
    "lon": 118.823796,
    "description": "电话: 025-84433582 | 地址: 中山门外石象路7号 | 类别: 风景名胜;风景名胜;风景名胜",
    "city": "南京"
  },
  {
    "name": "三牌楼",
    "category": "sightseeing",
    "duration_minutes": 120,
    "rating": 4.0,
    "lat": 32.076697,
    "lon": 118.768522,
    "description": "地址: 中山北路206号有巢公馆 | 类别: 风景名胜;风景名胜;风景名胜",
    "city": "南京"
  },
  {
    "name": "白鹭洲公园(暂停开放)",
    "category": "outdoor",
    "duration_minutes": 120,
    "rating": 4.0,
    "lat": 32.017888,
    "lon": 118.79513,
    "description": "电话: 025-86669799;025-86908386 | 地址: 夫子庙白鹭村1号 | 类别: 风景名胜;公园广场;公园",
    "city": "南京"
  },
  {
    "name": "南京城墙太平门登城口",
    "category": "sightseeing",
    "duration_minutes": 120,
    "rating": 4.0,
    "lat": 32.059609,
    "lon": 118.809684,
    "description": "地址: 太平门西街与太平门街交叉口西北160米 | 类别: 风景名胜;风景名胜;风景名胜",
    "city": "南京"
  },
  {
    "name": "南京石头城遗址公园",
    "category": "outdoor",
    "duration_minutes": 120,
    "rating": 4.0,
    "lat": 32.048145,
    "lon": 118.756312,
    "description": "电话: 025-86373366 | 地址: 虎踞路87号(近虎踞南路) | 类别: 风景名胜;公园广场;公园|风景名胜;风景名胜;省级景点",
    "city": "南京"
  },
  {
    "name": "大行宫见",
    "category": "history",
    "duration_minutes": 120,
    "rating": 4.0,
    "lat": 32.041124,
    "lon": 118.796945,
    "description": "地址: 中山东路235号大行宫广场B1层 | 类别: 购物服务;商场;商场",
    "city": "南京"
  },
  {
    "name": "钟山风景名胜区明孝陵景区石象路神道",
    "category": "outdoor",
    "duration_minutes": 120,
    "rating": 4.0,
    "lat": 32.047513,
    "lon": 118.842366,
    "description": "电话: 025-84433582 | 地址: 石象路7号中山陵园风景区 | 类别: 风景名胜;风景名胜;风景名胜",
    "city": "南京"
  },
  {
    "name": "水岸听风",
    "category": "sightseeing",
    "duration_minutes": 120,
    "rating": 4.0,
    "lat": 32.070846,
    "lon": 118.806934,
    "description": "电话: 025-83614286 | 地址: 环湖路附近 | 类别: 风景名胜;风景名胜;风景名胜",
    "city": "南京"
  },
  {
    "name": "老门东牌坊",
    "category": "sightseeing",
    "duration_minutes": 120,
    "rating": 4.0,
    "lat": 32.012777,
    "lon": 118.787898,
    "description": "电话: 025-58776699 | 地址: 箍桶巷与剪子巷交汇处 | 类别: 风景名胜;风景名胜;风景名胜",
    "city": "南京"
  },
  {
    "name": "红山森林动物园-新虎园",
    "category": "outdoor",
    "duration_minutes": 120,
    "rating": 4.0,
    "lat": 32.092655,
    "lon": 118.804676,
    "description": "电话: 025-85620178 | 地址: 和燕路168号红山森林动物园 | 类别: 风景名胜;公园广场;动物园",
    "city": "南京"
  },
  {
    "name": "拉贝旧居",
    "category": "history",
    "duration_minutes": 120,
    "rating": 4.0,
    "lat": 32.050504,
    "lon": 118.78329,
    "description": "电话: 025-83597227 | 地址: 汉口路22号南京大学鼓楼校区 | 类别: 风景名胜;风景名胜;纪念馆",
    "city": "南京"
  },
  {
    "name": "沃普·玄武湖探险营地 (Welope Camp 玄武湖)",
    "category": "outdoor",
    "duration_minutes": 120,
    "rating": 4.0,
    "lat": 32.072018,
    "lon": 118.807833,
    "description": "电话: 025-86638662;13357831255;13512519730 | 地址: 龙蟠路100号玄武湖情侣园 | 类别: 风景名胜;风景名胜相关;旅游景点",
    "city": "南京"
  },
  {
    "name": "愚园",
    "category": "sightseeing",
    "duration_minutes": 120,
    "rating": 4.0,
    "lat": 32.015967,
    "lon": 118.773568,
    "description": "电话: 025-58361190 | 地址: 集庆路胡家花园1号 | 类别: 风景名胜;风景名胜;风景名胜",
    "city": "南京"
  },
  {
    "name": "玻璃栈桥(南堡公园)",
    "category": "outdoor",
    "duration_minutes": 120,
    "rating": 4.0,
    "lat": 32.110021,
    "lon": 118.749264,
    "description": "地址: 南堡公园旁 | 类别: 风景名胜;风景名胜;风景名胜",
    "city": "南京"
  },
  {
    "name": "南京城墙博物馆",
    "category": "museum",
    "duration_minutes": 120,
    "rating": 4.0,
    "lat": 32.012551,
    "lon": 118.783016,
    "description": "电话: 025-83217710 | 地址: 新民坊路边营1号 | 类别: 科教文化服务;博物馆;博物馆",
    "city": "南京"
  },
  {
    "name": "中山门",
    "category": "outdoor",
    "duration_minutes": 120,
    "rating": 4.0,
    "lat": 32.03871,
    "lon": 118.82733,
    "description": "地址: 中山东路325号(南京博物院) | 类别: 风景名胜;风景名胜;世界遗产",
    "city": "南京"
  },
  {
    "name": "玄武湖景区-翠洲",
    "category": "outdoor",
    "duration_minutes": 120,
    "rating": 4.0,
    "lat": 32.075977,
    "lon": 118.799868,
    "description": "电话: 025-83614286 | 地址: 玄武巷1号玄武湖公园内 | 类别: 风景名胜;风景名胜;风景名胜",
    "city": "南京"
  },
  {
    "name": "南京中国科举博物馆南馆",
    "category": "museum",
    "duration_minutes": 120,
    "rating": 4.0,
    "lat": 32.02044,
    "lon": 118.79063,
    "description": "地址: 贡院街95号(近夫子庙邮局)南京中国科举博物馆(江南贡院)内 | 类别: 科教文化服务;博物馆;博物馆",
    "city": "南京"
  },
  {
    "name": "南京长江大桥",
    "category": "outdoor",
    "duration_minutes": 120,
    "rating": 4.0,
    "lat": 32.11604,
    "lon": 118.738514,
    "description": "电话: 025-85822475 | 地址: 江山路6号(横跨与鼓楼区和浦口区之间的长江上) | 类别: 风景名胜;风景名胜;风景名胜",
    "city": "南京"
  },
  {
    "name": "南京城墙神策门",
    "category": "sightseeing",
    "duration_minutes": 120,
    "rating": 4.0,
    "lat": 32.088396,
    "lon": 118.787038,
    "description": "地址: 神策门公园(西南角) | 类别: 风景名胜;风景名胜;风景名胜",
    "city": "南京"
  },
  {
    "name": "明孝陵博物馆",
    "category": "museum",
    "duration_minutes": 120,
    "rating": 4.0,
    "lat": 32.044904,
    "lon": 118.843185,
    "description": "电话: 025-84430117 | 地址: 四方城1号 | 类别: 科教文化服务;博物馆;博物馆",
    "city": "南京"
  },
  {
    "name": "南京七桥瓮公园",
    "category": "outdoor",
    "duration_minutes": 120,
    "rating": 4.0,
    "lat": 32.00693,
    "lon": 118.832224,
    "description": "电话: 025-86373359 | 地址: 友谊河路 | 类别: 风景名胜;公园广场;公园",
    "city": "南京"
  },
  {
    "name": "孙权墓遗址",
    "category": "history",
    "duration_minutes": 120,
    "rating": 4.0,
    "lat": 32.049189,
    "lon": 118.838529,
    "description": "电话: 025-84442880 | 地址: 石象路7号中山陵园风景区 | 类别: 风景名胜;风景名胜;风景名胜",
    "city": "南京"
  },
  {
    "name": "南湖公园",
    "category": "outdoor",
    "duration_minutes": 120,
    "rating": 4.0,
    "lat": 32.027424,
    "lon": 118.76231,
    "description": "地址: 南湖东路与彩虹苑路交叉口 | 类别: 风景名胜;公园广场;公园",
    "city": "南京"
  },
  {
    "name": "南湖公园",
    "category": "outdoor",
    "duration_minutes": 120,
    "rating": 4.0,
    "lat": 32.027424,
    "lon": 118.76231,
    "description": "地址: 南湖东路与彩虹苑路交叉口 | 类别: 风景名胜;公园广场;公园",
    "city": "南京"
  },
  {
    "name": "南京晨光1865创意产业园",
    "category": "sightseeing",
    "duration_minutes": 120,
    "rating": 4.0,
    "lat": 32.007068,
    "lon": 118.788144,
    "description": "地址: 应天大街388号 | 类别: 商务住宅;产业园区;产业园区",
    "city": "南京"
  },
  {
    "name": "午朝门公园",
    "category": "outdoor",
    "duration_minutes": 120,
    "rating": 4.0,
    "lat": 32.038177,
    "lon": 118.817599,
    "description": "地址: 瑞金路街道御道街27号(明故宫遗址) | 类别: 风景名胜;公园广场;公园",
    "city": "南京"
  },
  {
    "name": "夫子庙-古秦淮西牌坊",
    "category": "history",
    "duration_minutes": 120,
    "rating": 4.0,
    "lat": 32.019262,
    "lon": 118.788385,
    "description": "电话: 025-52209788 | 地址: 贡院街152号南京夫子庙 | 类别: 风景名胜;风景名胜相关;旅游景点",
    "city": "南京"
  },
  {
    "name": "红山森林动物园冈瓦纳",
    "category": "outdoor",
    "duration_minutes": 120,
    "rating": 4.0,
    "lat": 32.089294,
    "lon": 118.805339,
    "description": "电话: 025-85620178 | 地址: 和燕路168号红山森林动物园内(东南角) | 类别: 风景名胜;风景名胜相关;旅游景点",
    "city": "南京"
  },
  {
    "name": "中国南京云锦博物馆",
    "category": "museum",
    "duration_minutes": 120,
    "rating": 4.0,
    "lat": 32.03639,
    "lon": 118.744814,
    "description": "电话: 025-86611377;025-86518580 | 地址: 茶亭东街240号 | 类别: 科教文化服务;博物馆;博物馆",
    "city": "南京"
  },
  {
    "name": "钟山体育运动公园",
    "category": "outdoor",
    "duration_minutes": 120,
    "rating": 4.0,
    "lat": 32.046468,
    "lon": 118.871999,
    "description": "地址: 灵谷寺路4号 | 类别: 风景名胜;公园广场;公园",
    "city": "南京"
  },
  {
    "name": "沃普·紫金山探险营地(Welope Camp紫金山)",
    "category": "outdoor",
    "duration_minutes": 120,
    "rating": 4.0,
    "lat": 32.053828,
    "lon": 118.86033,
    "description": "电话: 15380401720 | 地址: 四方城2号钟山风景区水榭路 | 类别: 体育休闲服务;休闲场所;游乐场",
    "city": "南京"
  },
  {
    "name": "五塘广场",
    "category": "sightseeing",
    "duration_minutes": 120,
    "rating": 4.0,
    "lat": 32.10975,
    "lon": 118.77801,
    "description": "电话: 15190493727 | 地址: 鼓楼区 | 类别: 地名地址信息;普通地名;普通地名|购物服务;购物相关场所;购物相关场所",
    "city": "南京"
  },
  {
    "name": "颐和路11号民国建筑",
    "category": "sightseeing",
    "duration_minutes": 120,
    "rating": 4.0,
    "lat": 32.06396,
    "lon": 118.767875,
    "description": "地址: 颐和路与牯岭路交叉口东北100米 | 类别: 风景名胜;风景名胜相关;旅游景点",
    "city": "南京"
  },
  {
    "name": "侵华日军南京大屠杀太平门遇难同胞纪念碑",
    "category": "sightseeing",
    "duration_minutes": 120,
    "rating": 4.0,
    "lat": 32.05913,
    "lon": 118.813134,
    "description": "地址: 玄武湖与钟山风景区之间道路一侧 | 类别: 风景名胜;风景名胜相关;旅游景点",
    "city": "南京"
  },
  {
    "name": "平江桥",
    "category": "outdoor",
    "duration_minutes": 120,
    "rating": 4.0,
    "lat": 32.021268,
    "lon": 118.792618,
    "description": "电话: 025-52209788 | 地址: 平江府路80-1夫子庙秦淮风光带内(东侧) | 类别: 风景名胜;风景名胜相关;旅游景点",
    "city": "南京"
  },
  {
    "name": "宝船厂遗址公园",
    "category": "outdoor",
    "duration_minutes": 120,
    "rating": 4.0,
    "lat": 32.060879,
    "lon": 118.733421,
    "description": "电话: 025-86227011 | 地址: 漓江路57号 | 类别: 风景名胜;风景名胜;省级景点",
    "city": "南京"
  },
  {
    "name": "南京城墙富贵山登城口",
    "category": "outdoor",
    "duration_minutes": 120,
    "rating": 4.0,
    "lat": 32.052993,
    "lon": 118.820191,
    "description": "地址: 北安门街富贵山景区内 | 类别: 风景名胜;风景名胜相关;旅游景点",
    "city": "南京"
  },
  {
    "name": "紫金山",
    "category": "outdoor",
    "duration_minutes": 120,
    "rating": 4.0,
    "lat": 32.070427,
    "lon": 118.853276,
    "description": "地址: 环陵路8号中山陵园风景区钟山第三峰北侧 | 类别: 风景名胜;风景名胜;风景名胜",
    "city": "南京"
  },
  {
    "name": "栖霞山风景名胜区",
    "category": "outdoor",
    "duration_minutes": 120,
    "rating": 4.0,
    "lat": 32.155446,
    "lon": 118.96776,
    "description": "电话: 025-85761831;025-85766979 | 地址: 栖霞街88号 | 类别: 风景名胜;风景名胜;国家级景点",
    "city": "南京"
  },
  {
    "name": "玄武湖景区-柳湾观鱼",
    "category": "outdoor",
    "duration_minutes": 120,
    "rating": 4.0,
    "lat": 32.076612,
    "lon": 118.795902,
    "description": "电话: 025-83614286 | 地址: 玄武巷1号玄武湖公园梁洲内 | 类别: 风景名胜;风景名胜相关;旅游景点",
    "city": "南京"
  },
  {
    "name": "江苏省·中国科学院植物研究所植物博览园",
    "category": "outdoor",
    "duration_minutes": 120,
    "rating": 4.0,
    "lat": 32.051244,
    "lon": 118.830003,
    "description": "电话: 025-84347036;025-84347118 | 地址: 中山门外前湖后村1号 | 类别: 风景名胜;公园广场;植物园",
    "city": "南京"
  },
  {
    "name": "红山森林动物园考拉馆",
    "category": "outdoor",
    "duration_minutes": 120,
    "rating": 4.0,
    "lat": 32.090643,
    "lon": 118.804402,
    "description": "电话: 025-85620178 | 地址: 红山街道和燕路168号红山动物园内 | 类别: 风景名胜;风景名胜相关;旅游景点",
    "city": "南京"
  },
  {
    "name": "幕府山风景区",
    "category": "outdoor",
    "duration_minutes": 120,
    "rating": 4.0,
    "lat": 32.12295,
    "lon": 118.789218,
    "description": "地址: 永济大道 | 类别: 风景名胜;风景名胜;风景名胜",
    "city": "南京"
  },
  {
    "name": "幕府山风景区",
    "category": "outdoor",
    "duration_minutes": 120,
    "rating": 4.0,
    "lat": 32.12295,
    "lon": 118.789218,
    "description": "地址: 永济大道 | 类别: 风景名胜;风景名胜;风景名胜",
    "city": "南京"
  },
  {
    "name": "大行宫市民广场",
    "category": "outdoor",
    "duration_minutes": 120,
    "rating": 4.0,
    "lat": 32.041819,
    "lon": 118.79714,
    "description": "地址: 中山东路298号大行宫 | 类别: 风景名胜;公园广场;城市广场",
    "city": "南京"
  },
  {
    "name": "东水关遗址公园",
    "category": "outdoor",
    "duration_minutes": 120,
    "rating": 4.0,
    "lat": 32.023032,
    "lon": 118.799338,
    "description": "地址: 大光路街道平江府路80-1夫子庙秦淮风光带内(东侧) | 类别: 风景名胜;公园广场;公园",
    "city": "南京"
  },
  {
    "name": "中山陵祭堂",
    "category": "outdoor",
    "duration_minutes": 120,
    "rating": 4.0,
    "lat": 32.06221,
    "lon": 118.853308,
    "description": "电话: 025-84431174 | 地址: 石象路7号中山陵园风景区 | 类别: 风景名胜;风景名胜相关;旅游景点",
    "city": "南京"
  },
  {
    "name": "渡江胜利纪念馆",
    "category": "history",
    "duration_minutes": 120,
    "rating": 4.0,
    "lat": 32.073563,
    "lon": 118.73173,
    "description": "电话: 025-84649423 | 地址: 渡江路1号 | 类别: 风景名胜;风景名胜;纪念馆",
    "city": "南京"
  },
  {
    "name": "南京秦淮河画舫",
    "category": "sightseeing",
    "duration_minutes": 120,
    "rating": 4.0,
    "lat": 32.020086,
    "lon": 118.789902,
    "description": "电话: 025-52209788;025-86772965 | 地址: 夫子庙景区步行街泮池游船码头 | 类别: 风景名胜;风景名胜;风景名胜",
    "city": "南京"
  },
  {
    "name": "钟山风景区-南京中山植物园-红枫岗",
    "category": "outdoor",
    "duration_minutes": 120,
    "rating": 4.0,
    "lat": 32.054751,
    "lon": 118.83558,
    "description": "电话: 025-84347036 | 地址: 中山门外石象路7号中山陵园风景区内 | 类别: 风景名胜;风景名胜相关;旅游景点",
    "city": "南京"
  },
  {
    "name": "旭桥",
    "category": "history",
    "duration_minutes": 120,
    "rating": 4.0,
    "lat": 32.075592,
    "lon": 118.803136,
    "description": "地址: 玄武巷1号玄武湖公园翠洲内 | 类别: 风景名胜;风景名胜;风景名胜",
    "city": "南京"
  },
  {
    "name": "文德桥",
    "category": "history",
    "duration_minutes": 120,
    "rating": 4.0,
    "lat": 32.019342,
    "lon": 118.789176,
    "description": "电话: 025-52209788 | 地址: 夫管办夫子庙中心广场旁 | 类别: 风景名胜;风景名胜相关;旅游景点",
    "city": "南京"
  },
  {
    "name": "雨花台烈士陵园(雨麓苑东北)",
    "category": "sightseeing",
    "duration_minutes": 120,
    "rating": 4.0,
    "lat": 31.998425,
    "lon": 118.780177,
    "description": "电话: 025-52411523;025-68783037 | 地址: 雨花路215号雨花台风景名胜区名胜古迹区内 | 类别: 生活服务;丧葬设施;陵园",
    "city": "南京"
  },
  {
    "name": "孙中山纪念馆",
    "category": "history",
    "duration_minutes": 120,
    "rating": 4.0,
    "lat": 32.05642,
    "lon": 118.855126,
    "description": "电话: 025-85769227 | 地址: 音乐台路2号 | 类别: 风景名胜;风景名胜;纪念馆",
    "city": "南京"
  },
  {
    "name": "红山森林动物园-河马馆",
    "category": "outdoor",
    "duration_minutes": 120,
    "rating": 4.0,
    "lat": 32.087949,
    "lon": 118.804259,
    "description": "电话: 025-85620178 | 地址: 和燕路168号红山森林动物园内(南侧) | 类别: 风景名胜;风景名胜相关;旅游景点",
    "city": "南京"
  },
  {
    "name": "南京幕燕滨江风貌区",
    "category": "outdoor",
    "duration_minutes": 120,
    "rating": 4.0,
    "lat": 32.128428,
    "lon": 118.796219,
    "description": "电话: 025-83576343 | 地址: 永济大道9号 | 类别: 风景名胜;风景名胜;风景名胜",
    "city": "南京"
  },
  {
    "name": "南京消防博物馆",
    "category": "museum",
    "duration_minutes": 120,
    "rating": 4.0,
    "lat": 32.058081,
    "lon": 118.781303,
    "description": "地址: 北京西路1号南京市消防救援支队机关大院内 | 类别: 科教文化服务;博物馆;博物馆",
    "city": "南京"
  },
  {
    "name": "武定门",
    "category": "sightseeing",
    "duration_minutes": 120,
    "rating": 4.0,
    "lat": 32.014596,
    "lon": 118.795981,
    "description": "电话: 025-52209788 | 地址: 平江府路80-1夫子庙秦淮风光带(东南角) | 类别: 风景名胜;风景名胜相关;旅游景点",
    "city": "南京"
  },
  {
    "name": "钟山风景区-流徽榭",
    "category": "outdoor",
    "duration_minutes": 120,
    "rating": 4.0,
    "lat": 32.053418,
    "lon": 118.859243,
    "description": "电话: 025-52260123 | 地址: 中山门外石象路7号中山陵园风景区 | 类别: 风景名胜;风景名胜;风景名胜",
    "city": "南京"
  },
  {
    "name": "中华门瓮城",
    "category": "sightseeing",
    "duration_minutes": 120,
    "rating": 4.0,
    "lat": 32.013094,
    "lon": 118.78181,
    "description": "电话: 025-86625435 | 地址: 平江府路80-1夫子庙秦淮风光带(西南角) | 类别: 风景名胜;风景名胜相关;旅游景点",
    "city": "南京"
  },
  {
    "name": "小西湖景区",
    "category": "outdoor",
    "duration_minutes": 120,
    "rating": 4.0,
    "lat": 32.014374,
    "lon": 118.786919,
    "description": "地址: 夫子庙街道马道街21号 | 类别: 风景名胜;风景名胜相关;旅游景点",
    "city": "南京"
  },
  {
    "name": "月牙堤",
    "category": "sightseeing",
    "duration_minutes": 120,
    "rating": 4.0,
    "lat": 32.050037,
    "lon": 118.831134,
    "description": "地址: 中山门外前湖后村1号江苏省·中国科学院植物研究所植物博览园 | 类别: 风景名胜;风景名胜;风景名胜",
    "city": "南京"
  },
  {
    "name": "五洲春·览胜楼",
    "category": "sightseeing",
    "duration_minutes": 120,
    "rating": 4.0,
    "lat": 32.077726,
    "lon": 118.79517,
    "description": "电话: 025-83614286 | 地址: 玄武巷1号玄武湖公园梁洲内 | 类别: 风景名胜;风景名胜相关;旅游景点",
    "city": "南京"
  },
  {
    "name": "金粟庵",
    "category": "history",
    "duration_minutes": 120,
    "rating": 4.0,
    "lat": 32.020486,
    "lon": 118.771382,
    "description": "电话: 025-52205689;025-52255785 | 地址: 五福街18号 | 类别: 风景名胜;风景名胜;寺庙道观",
    "city": "南京"
  },
  {
    "name": "红山森林动物园高黎贡展区",
    "category": "outdoor",
    "duration_minutes": 120,
    "rating": 4.0,
    "lat": 32.091269,
    "lon": 118.805664,
    "description": "地址: 红山森林动物园内(东侧) | 类别: 风景名胜;风景名胜;风景名胜",
    "city": "南京"
  },
  {
    "name": "玄武湖景区-金陵盆景园",
    "category": "outdoor",
    "duration_minutes": 120,
    "rating": 4.0,
    "lat": 32.077244,
    "lon": 118.795661,
    "description": "电话: 025-83614286 | 地址: 玄武巷1号玄武湖公园梁洲内 | 类别: 风景名胜;风景名胜相关;旅游景点",
    "city": "南京"
  },
  {
    "name": "南京牛首山文化旅游区",
    "category": "outdoor",
    "duration_minutes": 120,
    "rating": 4.0,
    "lat": 31.903309,
    "lon": 118.74415,
    "description": "电话: 4001656363 | 地址: 宁丹大道18号 | 类别: 风景名胜;风景名胜;省级景点",
    "city": "南京"
  },
  {
    "name": "南京小九寨沟",
    "category": "sightseeing",
    "duration_minutes": 120,
    "rating": 4.0,
    "lat": 32.042309,
    "lon": 118.830934,
    "description": "地址: 明陵路1号钟山风景名胜区中山门入口公园内 | 类别: 风景名胜;风景名胜;风景名胜",
    "city": "南京"
  },
  {
    "name": "下马坊遗址公园",
    "category": "outdoor",
    "duration_minutes": 120,
    "rating": 4.0,
    "lat": 32.042659,
    "lon": 118.843874,
    "description": "地址: 下马坊地铁站2号口西 | 类别: 风景名胜;公园广场;公园",
    "city": "南京"
  },
  {
    "name": "南京中国绿化博览园",
    "category": "outdoor",
    "duration_minutes": 120,
    "rating": 4.0,
    "lat": 32.019739,
    "lon": 118.709711,
    "description": "电话: 025-86467521;025-86467522 | 地址: 扬子江大道228-1号 | 类别: 风景名胜;公园广场;公园",
    "city": "南京"
  },
  {
    "name": "南京抗日航空烈士纪念馆",
    "category": "history",
    "duration_minutes": 120,
    "rating": 4.0,
    "lat": 32.089137,
    "lon": 118.84593,
    "description": "电话: 025-85477129 | 地址: 北麓抗日航空烈士公墓 | 类别: 风景名胜;风景名胜;纪念馆|风景名胜;风景名胜;红色景区",
    "city": "南京"
  },
  {
    "name": "白马公园-南广场",
    "category": "outdoor",
    "duration_minutes": 120,
    "rating": 4.0,
    "lat": 32.058807,
    "lon": 118.81413,
    "description": "电话: 025-85408062 | 地址: 龙蟠路与太平门路交叉口白马公园内(西南角) | 类别: 风景名胜;公园广场;城市广场",
    "city": "南京"
  },
  {
    "name": "南京聚宝山公园",
    "category": "outdoor",
    "duration_minutes": 120,
    "rating": 4.0,
    "lat": 32.101462,
    "lon": 118.872769,
    "description": "地址: 玄武大道96号 | 类别: 风景名胜;公园广场;公园",
    "city": "南京"
  },
  {
    "name": "山顶公园",
    "category": "outdoor",
    "duration_minutes": 120,
    "rating": 4.0,
    "lat": 32.070515,
    "lon": 118.842284,
    "description": "地址: 中山门外石象路7号钟山风景名胜区头陀岭景区内(西侧) | 类别: 风景名胜;公园广场;城市广场",
    "city": "南京"
  },
  {
    "name": "钟山风景区-石象",
    "category": "outdoor",
    "duration_minutes": 120,
    "rating": 4.0,
    "lat": 32.048484,
    "lon": 118.839591,
    "description": "地址: 石象路7号中山陵园风景区明孝陵景区内(南侧) | 类别: 风景名胜;风景名胜相关;旅游景点",
    "city": "南京"
  },
  {
    "name": "秦淮河游船",
    "category": "sightseeing",
    "duration_minutes": 120,
    "rating": 4.0,
    "lat": 32.0105,
    "lon": 118.782342,
    "description": "电话: 025-52418251 | 地址: 南京市中华门外,长干桥边扫帚巷码头 | 类别: 风景名胜;风景名胜相关;旅游景点",
    "city": "南京"
  },
  {
    "name": "秦淮区夫子庙大成殿",
    "category": "history",
    "duration_minutes": 120,
    "rating": 4.0,
    "lat": 32.020596,
    "lon": 118.788885,
    "description": "电话: 025-52219286 | 地址: 南京夫子庙中心景区(夫子庙地铁站6号口步行450米) | 类别: 风景名胜;风景名胜;寺庙道观",
    "city": "南京"
  },
  {
    "name": "玄武湖公园-台菱堤",
    "category": "outdoor",
    "duration_minutes": 120,
    "rating": 4.0,
    "lat": 32.06576,
    "lon": 118.798451,
    "description": "电话: 025-83614286 | 地址: 玄武巷1号玄武湖公园菱洲内 | 类别: 风景名胜;风景名胜相关;旅游景点",
    "city": "南京"
  },
  {
    "name": "南京红山动物园-新狼馆",
    "category": "outdoor",
    "duration_minutes": 120,
    "rating": 4.0,
    "lat": 32.092343,
    "lon": 118.80281,
    "description": "地址: 和燕路168号红山森林动物园内 | 类别: 风景名胜;公园广场;动物园",
    "city": "南京"
  },
  {
    "name": "南京紫金山昆虫博物馆",
    "category": "museum",
    "duration_minutes": 120,
    "rating": 4.0,
    "lat": 32.052086,
    "lon": 118.844025,
    "description": "电话: 025-52663633 | 地址: 四方城西路26号 | 类别: 科教文化服务;博物馆;博物馆",
    "city": "南京"
  },
  {
    "name": "南京基督新教圣公会圣保罗堂",
    "category": "sightseeing",
    "duration_minutes": 120,
    "rating": 4.0,
    "lat": 32.029514,
    "lon": 118.79065,
    "description": "电话: 025-86647225 | 地址: 太平南路396号(近白下路) | 类别: 风景名胜;风景名胜;教堂",
    "city": "南京"
  },
  {
    "name": "浦口站(旧址)",
    "category": "sightseeing",
    "duration_minutes": 120,
    "rating": 4.0,
    "lat": 32.09706,
    "lon": 118.722732,
    "description": "地址: 临江路1号 | 类别: 风景名胜;风景名胜;风景名胜",
    "city": "南京"
  },
  {
    "name": "南京滨江公园(扬子江大道)",
    "category": "outdoor",
    "duration_minutes": 120,
    "rating": 4.0,
    "lat": 31.998513,
    "lon": 118.706639,
    "description": "地址: 江心洲街道扬子江大道228号 | 类别: 风景名胜;公园广场;公园",
    "city": "南京"
  },
  {
    "name": "金水桥",
    "category": "history",
    "duration_minutes": 120,
    "rating": 4.0,
    "lat": 32.053029,
    "lon": 118.839716,
    "description": "电话: 025-84442880 | 地址: 石象路7号中山陵园风景区 | 类别: 风景名胜;风景名胜;风景名胜",
    "city": "南京"
  },
  {
    "name": "玄武湖景区-月季园",
    "category": "outdoor",
    "duration_minutes": 120,
    "rating": 4.0,
    "lat": 32.070104,
    "lon": 118.795409,
    "description": "电话: 025-83614286 | 地址: 玄武湖公园环洲内(东南角) | 类别: 风景名胜;风景名胜;风景名胜",
    "city": "南京"
  },
  {
    "name": "浦口火车站文化旅游区",
    "category": "sightseeing",
    "duration_minutes": 120,
    "rating": 4.0,
    "lat": 32.0967,
    "lon": 118.72164,
    "description": "电话: 025-58166612 | 地址: 临江路1号浦口站(旧址) | 类别: 风景名胜;风景名胜相关;旅游景点",
    "city": "南京"
  },
  {
    "name": "大金门",
    "category": "sightseeing",
    "duration_minutes": 120,
    "rating": 4.0,
    "lat": 32.045706,
    "lon": 118.843093,
    "description": "电话: 025-84442880 | 地址: 石象路7号中山陵园风景区 | 类别: 风景名胜;风景名胜相关;旅游景点",
    "city": "南京"
  },
  {
    "name": "明城墙遗址",
    "category": "history",
    "duration_minutes": 120,
    "rating": 4.0,
    "lat": 32.019499,
    "lon": 118.768463,
    "description": "地址: 中华路 | 类别: 风景名胜;风景名胜相关;旅游景点",
    "city": "南京"
  },
  {
    "name": "东吴大帝孙权纪念馆",
    "category": "history",
    "duration_minutes": 120,
    "rating": 4.0,
    "lat": 32.050204,
    "lon": 118.839703,
    "description": "电话: 025-84442880;025-85769228 | 地址: 石象路7号明孝陵景区 | 类别: 风景名胜;风景名胜;纪念馆",
    "city": "南京"
  },
  {
    "name": "清凉山公园-清凉古寺",
    "category": "history",
    "duration_minutes": 120,
    "rating": 4.0,
    "lat": 32.049228,
    "lon": 118.76072,
    "description": "电话: 025-83736861 | 地址: 清凉山83号清凉山公园内(南侧) | 类别: 风景名胜;风景名胜;寺庙道观",
    "city": "南京"
  },
  {
    "name": "西安门遗址公园",
    "category": "outdoor",
    "duration_minutes": 120,
    "rating": 4.0,
    "lat": 32.038938,
    "lon": 118.805445,
    "description": "地址: 龙蟠中路202号(西安门地铁站4号口步行130米) | 类别: 风景名胜;风景名胜;风景名胜",
    "city": "南京"
  },
  {
    "name": "幕燕滨江·达摩古洞景区",
    "category": "outdoor",
    "duration_minutes": 120,
    "rating": 4.0,
    "lat": 32.130997,
    "lon": 118.795048,
    "description": "电话: 18013842283 | 地址: 永济大道19号 | 类别: 风景名胜;风景名胜;风景名胜",
    "city": "南京"
  },
  {
    "name": "南京城墙前湖处豁口",
    "category": "outdoor",
    "duration_minutes": 120,
    "rating": 4.0,
    "lat": 32.04649,
    "lon": 118.83017,
    "description": "电话: 025-84347036 | 地址: 南京中山植物园(明陵路西) | 类别: 风景名胜;风景名胜相关;旅游景点",
    "city": "南京"
  },
  {
    "name": "幕燕滨江·燕子矶公园",
    "category": "outdoor",
    "duration_minutes": 120,
    "rating": 4.0,
    "lat": 32.146815,
    "lon": 118.817155,
    "description": "电话: 025-85311337 | 地址: 临江街3号 | 类别: 风景名胜;公园广场;公园",
    "city": "南京"
  },
  {
    "name": "古鸡鸣寺-牌坊",
    "category": "sightseeing",
    "duration_minutes": 120,
    "rating": 4.0,
    "lat": 32.060186,
    "lon": 118.79537,
    "description": "电话: 025-57715595 | 地址: 玄武门街道古鸡鸣寺路1号古鸡鸣寺内(南侧) | 类别: 风景名胜;风景名胜相关;旅游景点",
    "city": "南京"
  },
  {
    "name": "长颈鹿馆",
    "category": "outdoor",
    "duration_minutes": 120,
    "rating": 4.0,
    "lat": 32.090086,
    "lon": 118.800894,
    "description": "电话: 025-85620178 | 地址: 和燕路168号红山森林动物园内(南侧) | 类别: 风景名胜;公园广场;动物园",
    "city": "南京"
  },
  {
    "name": "小桃园",
    "category": "outdoor",
    "duration_minutes": 120,
    "rating": 4.0,
    "lat": 32.078714,
    "lon": 118.745479,
    "description": "地址: 中山北路 | 类别: 风景名胜;公园广场;公园",
    "city": "南京"
  },
  {
    "name": "下关西火车主题街区(南京店)",
    "category": "outdoor",
    "duration_minutes": 120,
    "rating": 4.0,
    "lat": 32.10391,
    "lon": 118.743868,
    "description": "地址: 江边路47号 | 类别: 风景名胜;公园广场;公园",
    "city": "南京"
  },
  {
    "name": "511公园",
    "category": "outdoor",
    "duration_minutes": 120,
    "rating": 4.0,
    "lat": 32.036268,
    "lon": 118.807265,
    "description": "地址: 解放路与瑞北街交叉口西300米 | 类别: 风景名胜;公园广场;公园广场",
    "city": "南京"
  },
  {
    "name": "南京市民俗博物馆",
    "category": "museum",
    "duration_minutes": 120,
    "rating": 4.0,
    "lat": 32.025849,
    "lon": 118.7817,
    "description": "电话: 025-52217104;025-52237361 | 地址: 南捕厅15 | 类别: 科教文化服务;博物馆;博物馆",
    "city": "南京"
  },
  {
    "name": "南京青奥体育公园",
    "category": "outdoor",
    "duration_minutes": 120,
    "rating": 4.0,
    "lat": 32.049778,
    "lon": 118.664646,
    "description": "地址: 河滨路 | 类别: 风景名胜;公园广场;公园",
    "city": "南京"
  },
  {
    "name": "李香君故居",
    "category": "sightseeing",
    "duration_minutes": 120,
    "rating": 4.0,
    "lat": 32.018432,
    "lon": 118.788833,
    "description": "地址: 夫管办贡院街80-1号南京夫子庙 | 类别: 风景名胜;风景名胜相关;旅游景点",
    "city": "南京"
  },
  {
    "name": "行健亭",
    "category": "sightseeing",
    "duration_minutes": 120,
    "rating": 4.0,
    "lat": 32.054998,
    "lon": 118.849279,
    "description": "地址: 中山门外石象路7号中山陵园风景区内 | 类别: 风景名胜;风景名胜;风景名胜",
    "city": "南京"
  }
]