[
  {
    "name": "南湖市民广场",
    "category": "outdoor",
    "duration_minutes": 120,
    "rating": 4.0,
    "lat": 43.822764,
    "lon": 87.618741,
    "description": "地址: 南湖南路186号 | 类别: 风景名胜;公园广场;城市广场",
    "city": "乌鲁木齐"
  },
  {
    "name": "红山公园",
    "category": "outdoor",
    "duration_minutes": 120,
    "rating": 4.0,
    "lat": 43.807964,
    "lon": 87.606487,
    "description": "电话: 0991-8855671;0991-8868656;12301 | 地址: 红山路北一巷40号 | 类别: 风景名胜;公园广场;公园",
    "city": "乌鲁木齐"
  },
  {
    "name": "新疆维吾尔自治区博物馆",
    "category": "museum",
    "duration_minutes": 120,
    "rating": 4.0,
    "lat": 43.819603,
    "lon": 87.584246,
    "description": "电话: 0991-4536436;0991-4552826 | 地址: 西北路581号 | 类别: 科教文化服务;博物馆;博物馆",
    "city": "乌鲁木齐"
  },
  {
    "name": "新疆国际大巴扎",
    "category": "sightseeing",
    "duration_minutes": 120,
    "rating": 4.0,
    "lat": 43.780006,
    "lon": 87.617977,
    "description": "电话: 0991-8555480 | 地址: 国际大巴扎5号楼一层A5135商铺 | 类别: 风景名胜;风景名胜;国家级景点|购物服务;服装鞋帽皮具店;服装鞋帽皮具店",
    "city": "乌鲁木齐"
  },
  {
    "name": "水磨沟风景区",
    "category": "sightseeing",
    "duration_minutes": 120,
    "rating": 4.0,
    "lat": 43.827566,
    "lon": 87.657727,
    "description": "地址: 水磨沟路472号 | 类别: 风景名胜;风景名胜;国家级景点",
    "city": "乌鲁木齐"
  },
  {
    "name": "乌鲁木齐市儿童公园",
    "category": "outdoor",
    "duration_minutes": 120,
    "rating": 4.0,
    "lat": 43.832618,
    "lon": 87.581152,
    "description": "电话: 0991-4820934;0991-4817205 | 地址: 友好北路29号 | 类别: 风景名胜;公园广场;公园",
    "city": "乌鲁木齐"
  },
  {
    "name": "人民公园",
    "category": "outdoor",
    "duration_minutes": 120,
    "rating": 4.0,
    "lat": 43.798263,
    "lon": 87.604275,
    "description": "电话: 0991-5849434 | 地址: 友好南路3号 | 类别: 风景名胜;公园广场;公园",
    "city": "乌鲁木齐"
  },
  {
    "name": "人民广场",
    "category": "outdoor",
    "duration_minutes": 120,
    "rating": 4.0,
    "lat": 43.7952,
    "lon": 87.624115,
    "description": "电话: 0991-2833818 | 地址: 东风路与和平北路交叉口 | 类别: 风景名胜;公园广场;城市广场",
    "city": "乌鲁木齐"
  },
  {
    "name": "新疆民街",
    "category": "sightseeing",
    "duration_minutes": 120,
    "rating": 4.0,
    "lat": 43.785575,
    "lon": 87.617578,
    "description": "电话: 0991-2321111 | 地址: 龙泉街349号 | 类别: 风景名胜;风景名胜;国家级景点",
    "city": "乌鲁木齐"
  },
  {
    "name": "六馆一心",
    "category": "sightseeing",
    "duration_minutes": 120,
    "rating": 4.0,
    "lat": 43.870991,
    "lon": 87.619095,
    "description": "地址: 凤起街与会展南路交叉口东北240米 | 类别: 餐饮服务;中餐厅;中餐厅",
    "city": "乌鲁木齐"
  },
  {
    "name": "水塔山公园",
    "category": "outdoor",
    "duration_minutes": 120,
    "rating": 4.0,
    "lat": 43.827008,
    "lon": 87.645085,
    "description": "地址: 温泉西路南一巷与塔山十巷交叉口南340米 | 类别: 风景名胜;公园广场;公园",
    "city": "乌鲁木齐"
  },
  {
    "name": "鲤鱼山公园",
    "category": "outdoor",
    "duration_minutes": 120,
    "rating": 4.0,
    "lat": 43.851008,
    "lon": 87.580245,
    "description": "电话: 0991-4320205;0991-4361205 | 地址: 鲤鱼山南路177号 | 类别: 风景名胜;公园广场;公园",
    "city": "乌鲁木齐"
  },
  {
    "name": "乌鲁木齐文化公园",
    "category": "outdoor",
    "duration_minutes": 120,
    "rating": 4.0,
    "lat": 43.862741,
    "lon": 87.619776,
    "description": "地址: 六馆一心对面 | 类别: 风景名胜;风景名胜;风景名胜",
    "city": "乌鲁木齐"
  },
  {
    "name": "新疆人民剧场",
    "category": "sightseeing",
    "duration_minutes": 120,
    "rating": 4.0,
    "lat": 43.790946,
    "lon": 87.621499,
    "description": "电话: 0991-8872255;0991-8872572 | 地址: 建中路2号 | 类别: 风景名胜;风景名胜相关;旅游景点",
    "city": "乌鲁木齐"
  },
  {
    "name": "乌鲁木齐市博物馆",
    "category": "museum",
    "duration_minutes": 120,
    "rating": 4.0,
    "lat": 43.870987,
    "lon": 87.619092,
    "description": "地址: 凤起街111号 | 类别: 科教文化服务;博物馆;博物馆",
    "city": "乌鲁木齐"
  },
  {
    "name": "红光山景区",
    "category": "outdoor",
    "duration_minutes": 120,
    "rating": 4.0,
    "lat": 43.888045,
    "lon": 87.617158,
    "description": "电话: 0991-4889165;0991-4889777 | 地址: 恒通街路口云鼎大观(华域龙湾) | 类别: 风景名胜;风景名胜相关;旅游景点",
    "city": "乌鲁木齐"
  },
  {
    "name": "乌鲁木齐市红光山大佛寺",
    "category": "history",
    "duration_minutes": 120,
    "rating": 4.0,
    "lat": 43.88249,
    "lon": 87.616001,
    "description": "电话: 0991-4889165 | 地址: 米东南路红光山路1077号 | 类别: 风景名胜;风景名胜;寺庙道观",
    "city": "乌鲁木齐"
  },
  {
    "name": "红山公园北园",
    "category": "outdoor",
    "duration_minutes": 120,
    "rating": 4.0,
    "lat": 43.808376,
    "lon": 87.604858,
    "description": "电话: 0991-8855671 | 地址: 红山路北一巷40号 | 类别: 风景名胜;公园广场;公园",
    "city": "乌鲁木齐"
  },
  {
    "name": "一炮成功",
    "category": "sightseeing",
    "duration_minutes": 120,
    "rating": 4.0,
    "lat": 43.820244,
    "lon": 87.644637,
    "description": "电话: 0991-4684055 | 地址: 水磨沟风景区内(西南角) | 类别: 风景名胜;风景名胜;风景名胜",
    "city": "乌鲁木齐"
  },
  {
    "name": "维斯特滑雪场",
    "category": "sightseeing",
    "duration_minutes": 120,
    "rating": 4.0,
    "lat": 43.843891,
    "lon": 87.673229,
    "description": "电话: 0991-4886088 | 地址: 水磨沟街道温泉路287号 | 类别: 体育休闲服务;运动场馆;滑雪场",
    "city": "乌鲁木齐"
  },
  {
    "name": "南湖市民广场-南湖绿色广场",
    "category": "outdoor",
    "duration_minutes": 120,
    "rating": 4.0,
    "lat": 43.823696,
    "lon": 87.616834,
    "description": "地址: 南湖南路186号(近南湖绿色广场) | 类别: 风景名胜;风景名胜相关;旅游景点",
    "city": "乌鲁木齐"
  },
  {
    "name": "俊发红光山植物园",
    "category": "outdoor",
    "duration_minutes": 120,
    "rating": 4.0,
    "lat": 43.893857,
    "lon": 87.625602,
    "description": "地址: 会展北路与会展大道交叉口东南200米 | 类别: 风景名胜;公园广场;植物园",
    "city": "乌鲁木齐"
  },
  {
    "name": "东山生态园",
    "category": "outdoor",
    "duration_minutes": 120,
    "rating": 4.0,
    "lat": 43.817568,
    "lon": 87.669176,
    "description": "电话: 0991-8824246;0991-8824280 | 地址: 高尔夫路119号 | 类别: 生活服务;丧葬设施;公墓",
    "city": "乌鲁木齐"
  },
  {
    "name": "文庙",
    "category": "history",
    "duration_minutes": 120,
    "rating": 4.0,
    "lat": 43.802395,
    "lon": 87.629417,
    "description": "电话: 0991-8823045;0991-8881439 | 地址: 前进路231号 | 类别: 风景名胜;风景名胜;寺庙道观",
    "city": "乌鲁木齐"
  },
  {
    "name": "新疆维吾尔自治区非物质文化遗产馆",
    "category": "sightseeing",
    "duration_minutes": 120,
    "rating": 4.0,
    "lat": 43.873618,
    "lon": 87.628135,
    "description": "地址: 会展大道与会展南路东一巷交叉口北140米 | 类别: 科教文化服务;科教文化场所;科教文化场所",
    "city": "乌鲁木齐"
  },
  {
    "name": "南公园",
    "category": "outdoor",
    "duration_minutes": 120,
    "rating": 4.0,
    "lat": 43.766552,
    "lon": 87.606592,
    "description": "电话: 0991-2808829 | 地址: 新华南路1689号 | 类别: 风景名胜;公园广场;公园",
    "city": "乌鲁木齐"
  },
  {
    "name": "新疆古生态园",
    "category": "sightseeing",
    "duration_minutes": 120,
    "rating": 4.0,
    "lat": 43.85594,
    "lon": 87.577627,
    "description": "电话: 0991-3819369;0991-7652892 | 地址: 昆明路158号野马大厦后鲤鱼山上 | 类别: 风景名胜;风景名胜;风景名胜",
    "city": "乌鲁木齐"
  },
  {
    "name": "新疆古生态园汗血马基地",
    "category": "sightseeing",
    "duration_minutes": 120,
    "rating": 4.0,
    "lat": 43.854073,
    "lon": 87.576736,
    "description": "电话: 0991-3819369 | 地址: 昆明路158号野马大厦后鲤鱼山上新疆古生态园(西南角) | 类别: 风景名胜;风景名胜相关;旅游景点",
    "city": "乌鲁木齐"
  },
  {
    "name": "毛泽民故居",
    "category": "sightseeing",
    "duration_minutes": 120,
    "rating": 4.0,
    "lat": 43.792457,
    "lon": 87.623159,
    "description": "电话: 0991-2824628 | 地址: 明德路29号 | 类别: 风景名胜;风景名胜;红色景区",
    "city": "乌鲁木齐"
  },
  {
    "name": "水磨沟风景区-清泉寺",
    "category": "history",
    "duration_minutes": 120,
    "rating": 4.0,
    "lat": 43.829577,
    "lon": 87.659741,
    "description": "地址: 水磨沟路472号 | 类别: 风景名胜;风景名胜;寺庙道观",
    "city": "乌鲁木齐"
  },
  {
    "name": "水磨河滨河景观带",
    "category": "outdoor",
    "duration_minutes": 120,
    "rating": 4.0,
    "lat": 43.840811,
    "lon": 87.653003,
    "description": "地址: 沿河路与沿河路东一巷交叉口西北240米 | 类别: 风景名胜;公园广场;公园",
    "city": "乌鲁木齐"
  },
  {
    "name": "卫星广场",
    "category": "outdoor",
    "duration_minutes": 120,
    "rating": 4.0,
    "lat": 43.872957,
    "lon": 87.538656,
    "description": "电话: 18160666936 | 地址: 中亚南路与卫星路交汇处北侧路东 | 类别: 风景名胜;公园广场;城市广场",
    "city": "乌鲁木齐"
  },
  {
    "name": "乌鲁木齐海洋馆",
    "category": "outdoor",
    "duration_minutes": 120,
    "rating": 4.0,
    "lat": 43.761342,
    "lon": 87.612043,
    "description": "地址: 赛马场街道燕尔窝路2号 | 类别: 风景名胜;公园广场;水族馆",
    "city": "乌鲁木齐"
  },
  {
    "name": "基督教堂",
    "category": "sightseeing",
    "duration_minutes": 120,
    "rating": 4.0,
    "lat": 43.792153,
    "lon": 87.627163,
    "description": "地址: 明德路120号 | 类别: 风景名胜;风景名胜;教堂",
    "city": "乌鲁木齐"
  },
  {
    "name": "天山公园",
    "category": "outdoor",
    "duration_minutes": 120,
    "rating": 4.0,
    "lat": 43.755617,
    "lon": 87.639255,
    "description": "地址: 木卡姆艺术团东侧 | 类别: 风景名胜;公园广场;公园",
    "city": "乌鲁木齐"
  },
  {
    "name": "平顶山公园",
    "category": "outdoor",
    "duration_minutes": 120,
    "rating": 4.0,
    "lat": 43.830488,
    "lon": 87.570333,
    "description": "地址: 阿勒泰路西一巷与阿勒泰路辅路交叉口西440米 | 类别: 风景名胜;风景名胜;风景名胜",
    "city": "乌鲁木齐"
  },
  {
    "name": "好运山广场",
    "category": "outdoor",
    "duration_minutes": 120,
    "rating": 4.0,
    "lat": 43.8383,
    "lon": 87.553315,
    "description": "地址: 兴乐三巷146号 | 类别: 商务住宅;楼宇;商务写字楼",
    "city": "乌鲁木齐"
  },
  {
    "name": "八路军驻新疆办事处纪念馆",
    "category": "history",
    "duration_minutes": 120,
    "rating": 4.0,
    "lat": 43.773533,
    "lon": 87.615517,
    "description": "电话: 0991-2860393;0991-2863663 | 地址: 胜利路392号 | 类别: 风景名胜;风景名胜;红色景区|风景名胜;风景名胜;纪念馆",
    "city": "乌鲁木齐"
  },
  {
    "name": "小绿谷公园",
    "category": "outdoor",
    "duration_minutes": 120,
    "rating": 4.0,
    "lat": 43.837725,
    "lon": 87.504927,
    "description": "地址: 万寿山街和大明湖路交汇处 | 类别: 风景名胜;公园广场;公园",
    "city": "乌鲁木齐"
  },
  {
    "name": "红山公园北园-大佛寺",
    "category": "history",
    "duration_minutes": 120,
    "rating": 4.0,
    "lat": 43.80978,
    "lon": 87.605645,
    "description": "电话: 0991-8855671 | 地址: 新民路街道红山路北一巷40号红山公园北园(东北角) | 类别: 风景名胜;风景名胜;寺庙道观",
    "city": "乌鲁木齐"
  },
  {
    "name": "红庙子道观",
    "category": "history",
    "duration_minutes": 120,
    "rating": 4.0,
    "lat": 43.836859,
    "lon": 87.547766,
    "description": "地址: 兴乐三巷与西环中大路东三巷交叉口东200米 | 类别: 风景名胜;风景名胜;寺庙道观",
    "city": "乌鲁木齐"
  },
  {
    "name": "新疆自然博物馆",
    "category": "museum",
    "duration_minutes": 120,
    "rating": 4.0,
    "lat": 43.86788,
    "lon": 87.567459,
    "description": "地址: 科学二街277号 | 类别: 科教文化服务;科教文化场所;科教文化场所",
    "city": "乌鲁木齐"
  },
  {
    "name": "中国工农红军西路军总支队纪念馆",
    "category": "museum",
    "duration_minutes": 120,
    "rating": 4.0,
    "lat": 43.802463,
    "lon": 87.629774,
    "description": "电话: 0991-8881439 | 地址: 西后街37号 | 类别: 风景名胜;风景名胜;红色景区",
    "city": "乌鲁木齐"
  },
  {
    "name": "农大四合院",
    "category": "sightseeing",
    "duration_minutes": 120,
    "rating": 4.0,
    "lat": 43.810598,
    "lon": 87.566074,
    "description": "地址: 八一街道南昌路42号 | 类别: 风景名胜;风景名胜相关;旅游景点",
    "city": "乌鲁木齐"
  },
  {
    "name": "新疆地质矿产博物馆",
    "category": "museum",
    "duration_minutes": 120,
    "rating": 4.0,
    "lat": 43.830135,
    "lon": 87.513449,
    "description": "地址: 经济技术开发区万盛大街1001号 | 类别: 科教文化服务;博物馆;博物馆",
    "city": "乌鲁木齐"
  },
  {
    "name": "维斯特温泉假日酒店温泉洗浴",
    "category": "sightseeing",
    "duration_minutes": 120,
    "rating": 4.0,
    "lat": 43.842594,
    "lon": 87.67056,
    "description": "地址: 温泉东路287号维斯特温泉假日酒店 | 类别: 生活服务;洗浴推拿场所;洗浴推拿场所",
    "city": "乌鲁木齐"
  },
  {
    "name": "红山公园-红山宝塔",
    "category": "outdoor",
    "duration_minutes": 120,
    "rating": 4.0,
    "lat": 43.80766,
    "lon": 87.601854,
    "description": "电话: 0991-8855671 | 地址: 红山路北一巷40号 | 类别: 风景名胜;风景名胜相关;旅游景点",
    "city": "乌鲁木齐"
  },
  {
    "name": "雅玛里克山森林公园-久久世纪亭",
    "category": "outdoor",
    "duration_minutes": 120,
    "rating": 4.0,
    "lat": 43.799403,
    "lon": 87.573314,
    "description": "地址: 宝塔路雅玛里克山森林公园内(西侧) | 类别: 风景名胜;风景名胜相关;旅游景点",
    "city": "乌鲁木齐"
  },
  {
    "name": "青海大寺",
    "category": "history",
    "duration_minutes": 120,
    "rating": 4.0,
    "lat": 43.785808,
    "lon": 87.621607,
    "description": "地址: 和平南路263号 | 类别: 风景名胜;风景名胜;寺庙道观",
    "city": "乌鲁木齐"
  },
  {
    "name": "雅玛里克山森林公园-观景台",
    "category": "outdoor",
    "duration_minutes": 120,
    "rating": 4.0,
    "lat": 43.783834,
    "lon": 87.563839,
    "description": "地址: 宝塔路雅玛里克山森林公园 | 类别: 风景名胜;风景名胜;观景点",
    "city": "乌鲁木齐"
  },
  {
    "name": "新疆国际大巴扎-观光塔",
    "category": "history",
    "duration_minutes": 120,
    "rating": 4.0,
    "lat": 43.77964,
    "lon": 87.618178,
    "description": "地址: 解放南路510号 | 类别: 风景名胜;风景名胜;观景点",
    "city": "乌鲁木齐"
  },
  {
    "name": "石人沟",
    "category": "sightseeing",
    "duration_minutes": 120,
    "rating": 4.0,
    "lat": 43.835753,
    "lon": 87.817738,
    "description": "地址: 水磨沟区农村事务管理办公室水磨沟区农村事务管理办公室石人子沟村三队百泉路1078号 | 类别: 风景名胜;风景名胜相关;旅游景点",
    "city": "乌鲁木齐"
  },
  {
    "name": "天成广场",
    "category": "outdoor",
    "duration_minutes": 120,
    "rating": 4.0,
    "lat": 43.79497,
    "lon": 87.621286,
    "description": "电话: 0991-2502327 | 地址: 万宴城(南门地铁站A西北口步行220米) | 类别: 风景名胜;公园广场;城市广场",
    "city": "乌鲁木齐"
  },
  {
    "name": "红光山大佛",
    "category": "outdoor",
    "duration_minutes": 120,
    "rating": 4.0,
    "lat": 43.883059,
    "lon": 87.610558,
    "description": "地址: 红光山路1077号 | 类别: 风景名胜;风景名胜相关;旅游景点",
    "city": "乌鲁木齐"
  },
  {
    "name": "大寨闸公园",
    "category": "outdoor",
    "duration_minutes": 120,
    "rating": 4.0,
    "lat": 43.757051,
    "lon": 87.600406,
    "description": "地址: 河滩南路和平渠旁 | 类别: 风景名胜;公园广场;公园",
    "city": "乌鲁木齐"
  },
  {
    "name": "新疆维吾尔自治区博物馆-国博厅",
    "category": "museum",
    "duration_minutes": 120,
    "rating": 4.0,
    "lat": 43.819499,
    "lon": 87.583984,
    "description": "地址: 西北路581号新疆维吾尔自治区博物馆 | 类别: 科教文化服务;博物馆;博物馆",
    "city": "乌鲁木齐"
  },
  {
    "name": "新疆红树林国际滑雪度假区",
    "category": "sightseeing",
    "duration_minutes": 120,
    "rating": 4.0,
    "lat": 43.820399,
    "lon": 87.77912,
    "description": "地址: 葛家沟东路666号 | 类别: 体育休闲服务;运动场馆;滑雪场",
    "city": "乌鲁木齐"
  },
  {
    "name": "红山公园-南园",
    "category": "outdoor",
    "duration_minutes": 120,
    "rating": 4.0,
    "lat": 43.806924,
    "lon": 87.610727,
    "description": "地址: 红山路北一巷40号红山公园 | 类别: 风景名胜;公园广场;公园",
    "city": "乌鲁木齐"
  },
  {
    "name": "雅玛里克山森林公园-妖魔山",
    "category": "outdoor",
    "duration_minutes": 120,
    "rating": 4.0,
    "lat": 43.798374,
    "lon": 87.566646,
    "description": "地址: 宝塔路雅玛里克山森林公园内(西侧) | 类别: 风景名胜;风景名胜相关;旅游景点",
    "city": "乌鲁木齐"
  },
  {
    "name": "汗腾格里清真寺(不对外开放)",
    "category": "sightseeing",
    "duration_minutes": 120,
    "rating": 4.0,
    "lat": 43.790538,
    "lon": 87.618497,
    "description": "电话: 0991-8667777 | 地址: 解放南路31号 | 类别: 风景名胜;风景名胜;回教寺",
    "city": "乌鲁木齐"
  },
  {
    "name": "云满台",
    "category": "sightseeing",
    "duration_minutes": 120,
    "rating": 4.0,
    "lat": 43.78291,
    "lon": 87.56294,
    "description": "地址: 高山路841号 | 类别: 风景名胜;风景名胜;风景名胜",
    "city": "乌鲁木齐"
  },
  {
    "name": "南湖清真寺",
    "category": "outdoor",
    "duration_minutes": 120,
    "rating": 4.0,
    "lat": 43.832003,
    "lon": 87.625544,
    "description": "地址: 南湖东路北五巷97号 | 类别: 风景名胜;风景名胜;回教寺",
    "city": "乌鲁木齐"
  },
  {
    "name": "新疆天山野生动物园",
    "category": "outdoor",
    "duration_minutes": 120,
    "rating": 4.0,
    "lat": 43.67755,
    "lon": 87.806675,
    "description": "电话: 0991-5916208 | 地址: 芨芨槽子东5公里附近 | 类别: 风景名胜;公园广场;动物园",
    "city": "乌鲁木齐"
  },
  {
    "name": "大绿谷生态公园",
    "category": "outdoor",
    "duration_minutes": 120,
    "rating": 4.0,
    "lat": 43.841105,
    "lon": 87.492962,
    "description": "地址: 岳麓山街 | 类别: 风景名胜;公园广场;公园",
    "city": "乌鲁木齐"
  },
  {
    "name": "十七户湿地公园",
    "category": "outdoor",
    "duration_minutes": 120,
    "rating": 4.0,
    "lat": 43.737178,
    "lon": 87.615225,
    "description": "地址: 十七户路与燕儿窝路交汇处东侧 | 类别: 风景名胜;公园广场;公园",
    "city": "乌鲁木齐"
  },
  {
    "name": "文昌阁",
    "category": "sightseeing",
    "duration_minutes": 120,
    "rating": 4.0,
    "lat": 43.799689,
    "lon": 87.619857,
    "description": "电话: 0991-2825011 | 地址: 春风巷5号 | 类别: 风景名胜;风景名胜;风景名胜",
    "city": "乌鲁木齐"
  },
  {
    "name": "丝路有戏",
    "category": "sightseeing",
    "duration_minutes": 120,
    "rating": 4.0,
    "lat": 43.888152,
    "lon": 87.688113,
    "description": "地址: 乌鲁木齐市馕文化产业园 | 类别: 风景名胜;风景名胜;观景点",
    "city": "乌鲁木齐"
  },
  {
    "name": "空军新疆航空队纪念馆",
    "category": "history",
    "duration_minutes": 120,
    "rating": 4.0,
    "lat": 43.784095,
    "lon": 87.64736,
    "description": "地址: 幸福路车站对面 | 类别: 风景名胜;风景名胜;纪念馆",
    "city": "乌鲁木齐"
  },
  {
    "name": "乌鲁木齐市革命烈士陵园",
    "category": "sightseeing",
    "duration_minutes": 120,
    "rating": 4.0,
    "lat": 43.734232,
    "lon": 87.59635,
    "description": "电话: 0991-8524910 | 地址: 燕儿窝街道524号 | 类别: 生活服务;丧葬设施;陵园|风景名胜;风景名胜;红色景区",
    "city": "乌鲁木齐"
  },
  {
    "name": "上沙河清真大寺",
    "category": "sightseeing",
    "duration_minutes": 120,
    "rating": 4.0,
    "lat": 43.965228,
    "lon": 87.61992,
    "description": "地址: 古牧地西路与上沙河四巷交叉口东北80米 | 类别: 风景名胜;风景名胜;回教寺",
    "city": "乌鲁木齐"
  },
  {
    "name": "银川路清真寺",
    "category": "sightseeing",
    "duration_minutes": 120,
    "rating": 4.0,
    "lat": 43.847061,
    "lon": 87.589027,
    "description": "地址: 西八家户路北二巷134号 | 类别: 风景名胜;风景名胜;回教寺",
    "city": "乌鲁木齐"
  },
  {
    "name": "石人沟鸟巢阵观景区",
    "category": "sightseeing",
    "duration_minutes": 120,
    "rating": 4.0,
    "lat": 43.827301,
    "lon": 87.768869,
    "description": "地址: 葛家沟东路 | 类别: 风景名胜;风景名胜;风景名胜",
    "city": "乌鲁木齐"
  },
  {
    "name": "天主教堂",
    "category": "sightseeing",
    "duration_minutes": 120,
    "rating": 4.0,
    "lat": 43.789332,
    "lon": 87.624716,
    "description": "地址: 和平南路98号 | 类别: 风景名胜;风景名胜;教堂",
    "city": "乌鲁木齐"
  },
  {
    "name": "观景平台",
    "category": "sightseeing",
    "duration_minutes": 120,
    "rating": 4.0,
    "lat": 43.808586,
    "lon": 87.603638,
    "description": "电话: 0991-8855671 | 地址: 新民路街道红山路北1巷40号红山公园内(西侧) | 类别: 风景名胜;风景名胜相关;旅游景点",
    "city": "乌鲁木齐"
  },
  {
    "name": "海成文体广场",
    "category": "outdoor",
    "duration_minutes": 120,
    "rating": 4.0,
    "lat": 43.7947,
    "lon": 87.582994,
    "description": "地址: 宝山路西三巷与宝山路交叉口西280米 | 类别: 购物服务;商场;普通商场",
    "city": "乌鲁木齐"
  },
  {
    "name": "公海酒湾",
    "category": "outdoor",
    "duration_minutes": 120,
    "rating": 4.0,
    "lat": 43.794022,
    "lon": 87.617496,
    "description": "电话: 19199101681 | 地址: 中山路与文化路六巷交叉口西南40米 | 类别: 风景名胜;风景名胜相关;旅游景点",
    "city": "乌鲁木齐"
  },
  {
    "name": "红山公园-远眺楼",
    "category": "outdoor",
    "duration_minutes": 120,
    "rating": 4.0,
    "lat": 43.808074,
    "lon": 87.603406,
    "description": "电话: 0991-8855671 | 地址: 红山路北1巷40号红山公园内(西侧) | 类别: 风景名胜;风景名胜相关;旅游景点",
    "city": "乌鲁木齐"
  },
  {
    "name": "西大桥清真寺",
    "category": "history",
    "duration_minutes": 120,
    "rating": 4.0,
    "lat": 43.810244,
    "lon": 87.593113,
    "description": "地址: 西虹西路145号 | 类别: 风景名胜;风景名胜;回教寺",
    "city": "乌鲁木齐"
  },
  {
    "name": "金岭台",
    "category": "sightseeing",
    "duration_minutes": 120,
    "rating": 4.0,
    "lat": 43.9096,
    "lon": 87.836276,
    "description": "地址: 铁厂沟镇天山村丽景四巷 | 类别: 风景名胜;风景名胜;风景名胜",
    "city": "乌鲁木齐"
  },
  {
    "name": "中营宫清真寺",
    "category": "history",
    "duration_minutes": 120,
    "rating": 4.0,
    "lat": 43.842609,
    "lon": 87.572972,
    "description": "地址: 北京南路215号 | 类别: 风景名胜;风景名胜;回教寺",
    "city": "乌鲁木齐"
  },
  {
    "name": "雅玛里克山森林公园",
    "category": "outdoor",
    "duration_minutes": 120,
    "rating": 4.0,
    "lat": 43.7983,
    "lon": 87.576697,
    "description": "地址: 宝塔路 | 类别: 风景名胜;风景名胜;省级景点",
    "city": "乌鲁木齐"
  },
  {
    "name": "乌鲁木齐市植物园",
    "category": "outdoor",
    "duration_minutes": 120,
    "rating": 4.0,
    "lat": 43.890807,
    "lon": 87.556274,
    "description": "地址: 北京中路916号 | 类别: 风景名胜;公园广场;植物园",
    "city": "乌鲁木齐"
  },
  {
    "name": "水上乐园(暂停开放)",
    "category": "sightseeing",
    "duration_minutes": 120,
    "rating": 4.0,
    "lat": 43.754777,
    "lon": 87.613996,
    "description": "地址: 燕儿窝路4号 | 类别: 体育休闲服务;休闲场所;水上活动中心|风景名胜;风景名胜相关;旅游景点",
    "city": "乌鲁木齐"
  },
  {
    "name": "六道湾清真寺",
    "category": "sightseeing",
    "duration_minutes": 120,
    "rating": 4.0,
    "lat": 43.836748,
    "lon": 87.635724,
    "description": "地址: 六道湾路139号 | 类别: 风景名胜;风景名胜;回教寺",
    "city": "乌鲁木齐"
  },
  {
    "name": "高家庄清真寺",
    "category": "sightseeing",
    "duration_minutes": 120,
    "rating": 4.0,
    "lat": 43.834093,
    "lon": 87.648093,
    "description": "地址: 温泉西路356号 | 类别: 风景名胜;风景名胜;回教寺",
    "city": "乌鲁木齐"
  },
  {
    "name": "延安公园",
    "category": "outdoor",
    "duration_minutes": 120,
    "rating": 4.0,
    "lat": 43.769612,
    "lon": 87.623249,
    "description": "地址: 延安路358号 | 类别: 风景名胜;公园广场;公园",
    "city": "乌鲁木齐"
  },
  {
    "name": "天山明月城(暂停开放)",
    "category": "outdoor",
    "duration_minutes": 120,
    "rating": 4.0,
    "lat": 43.893488,
    "lon": 87.686131,
    "description": "地址: 八道湾街道腾汇三路186号 | 类别: 风景名胜;风景名胜相关;旅游景点",
    "city": "乌鲁木齐"
  },
  {
    "name": "云满台",
    "category": "sightseeing",
    "duration_minutes": 120,
    "rating": 4.0,
    "lat": 43.783824,
    "lon": 87.56367,
    "description": "地址: 高山路841号 | 类别: 风景名胜;风景名胜;风景名胜",
    "city": "乌鲁木齐"
  },
  {
    "name": "陕西大寺",
    "category": "sightseeing",
    "duration_minutes": 120,
    "rating": 4.0,
    "lat": 43.789304,
    "lon": 87.621051,
    "description": "地址: 永和正街17号 | 类别: 风景名胜;风景名胜;回教寺",
    "city": "乌鲁木齐"
  },
  {
    "name": "乌鲁木齐体育公园",
    "category": "outdoor",
    "duration_minutes": 120,
    "rating": 4.0,
    "lat": 43.793626,
    "lon": 87.633841,
    "description": "地址: 东环路206号 | 类别: 风景名胜;公园广场;公园",
    "city": "乌鲁木齐"
  },
  {
    "name": "乌鲁木齐西山老君庙",
    "category": "history",
    "duration_minutes": 120,
    "rating": 4.0,
    "lat": 43.801337,
    "lon": 87.523247,
    "description": "地址: 西山路122号 | 类别: 风景名胜;风景名胜;寺庙道观",
    "city": "乌鲁木齐"
  },
  {
    "name": "揽秀园",
    "category": "sightseeing",
    "duration_minutes": 120,
    "rating": 4.0,
    "lat": 43.805674,
    "lon": 87.600255,
    "description": "地址: 友好南路646号 | 类别: 风景名胜;风景名胜;风景名胜",
    "city": "乌鲁木齐"
  },
  {
    "name": "三工六队清真寺",
    "category": "history",
    "duration_minutes": 120,
    "rating": 4.0,
    "lat": 43.920605,
    "lon": 87.57423,
    "description": "地址: 田园路与城北大道辅路交叉口东南80米 | 类别: 风景名胜;风景名胜;寺庙道观",
    "city": "乌鲁木齐"
  },
  {
    "name": "阿唛龙幻想乐园(暂停营业)",
    "category": "sightseeing",
    "duration_minutes": 120,
    "rating": 4.0,
    "lat": 43.832953,
    "lon": 87.423493,
    "description": "电话: 0991-8157777 | 地址: 金桥路300号 | 类别: 体育休闲服务;休闲场所;游乐场",
    "city": "乌鲁木齐"
  },
  {
    "name": "米东区人民公园",
    "category": "outdoor",
    "duration_minutes": 120,
    "rating": 4.0,
    "lat": 43.968233,
    "lon": 87.64288,
    "description": "地址: 古牧地西路353号 | 类别: 风景名胜;公园广场;公园",
    "city": "乌鲁木齐"
  },
  {
    "name": "燕儿窝风景区",
    "category": "sightseeing",
    "duration_minutes": 120,
    "rating": 4.0,
    "lat": 43.717517,
    "lon": 87.587211,
    "description": "电话: 0991-8533970 | 地址: 燕儿窝路811号 | 类别: 风景名胜;风景名胜;风景名胜",
    "city": "乌鲁木齐"
  },
  {
    "name": "水上乐园·欢乐世界(暂停营业)",
    "category": "sightseeing",
    "duration_minutes": 120,
    "rating": 4.0,
    "lat": 43.748194,
    "lon": 87.611207,
    "description": "电话: 0991-8585999 | 地址: 赛马场街道燕儿窝路2号 | 类别: 体育休闲服务;休闲场所;游乐场",
    "city": "乌鲁木齐"
  },
  {
    "name": "新城公园",
    "category": "outdoor",
    "duration_minutes": 120,
    "rating": 4.0,
    "lat": 43.887853,
    "lon": 87.544925,
    "description": "地址: 杭州西路 | 类别: 风景名胜;公园广场;公园",
    "city": "乌鲁木齐"
  },
  {
    "name": "四宫清真寺",
    "category": "history",
    "duration_minutes": 120,
    "rating": 4.0,
    "lat": 43.921817,
    "lon": 87.555674,
    "description": "地址: 三宫村4队四工路 | 类别: 风景名胜;风景名胜;寺庙道观",
    "city": "乌鲁木齐"
  },
  {
    "name": "金泉公园(不对外开放)",
    "category": "outdoor",
    "duration_minutes": 120,
    "rating": 4.0,
    "lat": 43.739515,
    "lon": 87.635147,
    "description": "地址: 新疆大学南校区对面 | 类别: 风景名胜;公园广场;公园",
    "city": "乌鲁木齐"
  },
  {
    "name": "石化公园",
    "category": "outdoor",
    "duration_minutes": 120,
    "rating": 4.0,
    "lat": 43.956462,
    "lon": 87.702158,
    "description": "地址: 石化大庆路 | 类别: 风景名胜;公园广场;公园",
    "city": "乌鲁木齐"
  },
  {
    "name": "铁路花园",
    "category": "outdoor",
    "duration_minutes": 120,
    "rating": 4.0,
    "lat": 43.871113,
    "lon": 87.556033,
    "description": "地址: 铁路局河南西路 | 类别: 风景名胜;公园广场;公园",
    "city": "乌鲁木齐"
  },
  {
    "name": "M787室内极限运动公园",
    "category": "outdoor",
    "duration_minutes": 120,
    "rating": 4.0,
    "lat": 43.802587,
    "lon": 87.562798,
    "description": "地址: 西山东街82号二楼商铺 | 类别: 体育休闲服务;体育休闲服务场所;体育休闲服务场所",
    "city": "乌鲁木齐"
  },
  {
    "name": "颐中园美食公园",
    "category": "outdoor",
    "duration_minutes": 120,
    "rating": 4.0,
    "lat": 43.798625,
    "lon": 87.601526,
    "description": "电话: 13139881177 | 地址: 公园北街与文化宫路交叉口东北140米 | 类别: 风景名胜;公园广场;公园",
    "city": "乌鲁木齐"
  },
  {
    "name": "碱泉街游园",
    "category": "outdoor",
    "duration_minutes": 120,
    "rating": 4.0,
    "lat": 43.802158,
    "lon": 87.647418,
    "description": "地址: 碱泉二街113号 | 类别: 风景名胜;公园广场;公园",
    "city": "乌鲁木齐"
  },
  {
    "name": "撒拉寺",
    "category": "history",
    "duration_minutes": 120,
    "rating": 4.0,
    "lat": 43.782434,
    "lon": 87.619765,
    "description": "电话: 0991-3227889 | 地址: 撒拉寺巷27号 | 类别: 风景名胜;风景名胜;寺庙道观",
    "city": "乌鲁木齐"
  },
  {
    "name": "雅玛里克山宝塔",
    "category": "outdoor",
    "duration_minutes": 120,
    "rating": 4.0,
    "lat": 43.80317,
    "lon": 87.587764,
    "description": "地址: 南梁坡南巷雅玛里克山旅游风景区 | 类别: 风景名胜;风景名胜相关;旅游景点",
    "city": "乌鲁木齐"
  },
  {
    "name": "清泉禅寺-山门",
    "category": "outdoor",
    "duration_minutes": 120,
    "rating": 4.0,
    "lat": 43.829842,
    "lon": 87.659121,
    "description": "地址: 水磨沟风景区-清泉寺内(西北角) | 类别: 风景名胜;风景名胜相关;旅游景点",
    "city": "乌鲁木齐"
  },
  {
    "name": "南山国家森林公园",
    "category": "outdoor",
    "duration_minutes": 120,
    "rating": 4.0,
    "lat": 43.61881,
    "lon": 87.524561,
    "description": "地址: 023县道 | 类别: 风景名胜;公园广场;公园",
    "city": "乌鲁木齐"
  },
  {
    "name": "和田街清真寺",
    "category": "sightseeing",
    "duration_minutes": 120,
    "rating": 4.0,
    "lat": 43.787925,
    "lon": 87.604168,
    "description": "地址: 和田一街15号 | 类别: 风景名胜;风景名胜;回教寺",
    "city": "乌鲁木齐"
  },
  {
    "name": "南大寺",
    "category": "history",
    "duration_minutes": 120,
    "rating": 4.0,
    "lat": 43.780273,
    "lon": 87.616255,
    "description": "地址: 天池路147号大巴扎步行街 | 类别: 风景名胜;风景名胜;寺庙道观",
    "city": "乌鲁木齐"
  },
  {
    "name": "米东区文体公园",
    "category": "outdoor",
    "duration_minutes": 120,
    "rating": 4.0,
    "lat": 43.980354,
    "lon": 87.67764,
    "description": "地址: 轮台东路与裕丰路交叉口南260米 | 类别: 风景名胜;公园广场;公园",
    "city": "乌鲁木齐"
  },
  {
    "name": "月亮山公园",
    "category": "outdoor",
    "duration_minutes": 120,
    "rating": 4.0,
    "lat": 43.824968,
    "lon": 87.518141,
    "description": "地址: 万盛大街与玄武湖路交叉口南480米 | 类别: 风景名胜;公园广场;公园",
    "city": "乌鲁木齐"
  },
  {
    "name": "白鸟湖湿地",
    "category": "outdoor",
    "duration_minutes": 120,
    "rating": 4.0,
    "lat": 43.818151,
    "lon": 87.446666,
    "description": "地址: 中城国际城二期湖光里对面 | 类别: 风景名胜;风景名胜相关;旅游景点",
    "city": "乌鲁木齐"
  },
  {
    "name": "丝路之心文旅城",
    "category": "sightseeing",
    "duration_minutes": 120,
    "rating": 4.0,
    "lat": 43.975723,
    "lon": 87.549812,
    "description": "电话: 15026075737 | 地址: 长春北路与北辰四街交汇处 | 类别: 商务住宅;住宅区;住宅区",
    "city": "乌鲁木齐"
  },
  {
    "name": "乌鲁木齐市林业(园林管理)局植物园(南园区)",
    "category": "outdoor",
    "duration_minutes": 120,
    "rating": 4.0,
    "lat": 43.888651,
    "lon": 87.550374,
    "description": "地址: 北京中路916号乌鲁木齐市植物园内(西侧) | 类别: 风景名胜;公园广场;植物园",
    "city": "乌鲁木齐"
  },
  {
    "name": "九家湾五队清真寺",
    "category": "sightseeing",
    "duration_minutes": 120,
    "rating": 4.0,
    "lat": 43.826275,
    "lon": 87.547716,
    "description": "地址: 九家湾水库街296号 | 类别: 风景名胜;风景名胜;风景名胜",
    "city": "乌鲁木齐"
  },
  {
    "name": "白大寺",
    "category": "sightseeing",
    "duration_minutes": 120,
    "rating": 4.0,
    "lat": 43.78326,
    "lon": 87.618734,
    "description": "地址: 解放南路441号 | 类别: 风景名胜;风景名胜;回教寺",
    "city": "乌鲁木齐"
  },
  {
    "name": "幸福花园七期小广场",
    "category": "sightseeing",
    "duration_minutes": 120,
    "rating": 4.0,
    "lat": 43.776789,
    "lon": 87.656074,
    "description": "电话: 13899936881 | 地址: 金沙滩街南二巷西100米 | 类别: 体育休闲服务;体育休闲服务场所;体育休闲服务场所",
    "city": "乌鲁木齐"
  },
  {
    "name": "新疆活体昆虫博物馆",
    "category": "museum",
    "duration_minutes": 120,
    "rating": 4.0,
    "lat": 43.888209,
    "lon": 87.55507,
    "description": "电话: 0991-6660716;13579933201 | 地址: 植物园内 | 类别: 风景名胜;风景名胜相关;旅游景点",
    "city": "乌鲁木齐"
  },
  {
    "name": "大风车无动力乐园",
    "category": "sightseeing",
    "duration_minutes": 120,
    "rating": 4.0,
    "lat": 43.890229,
    "lon": 87.66613,
    "description": "电话: 13109965700 | 地址: 七道湾街道振安街蓝领公寓一期小区1单元101室 | 类别: 体育休闲服务;休闲场所;游乐场",
    "city": "乌鲁木齐"
  },
  {
    "name": "基督教五一路聚会点",
    "category": "sightseeing",
    "duration_minutes": 120,
    "rating": 4.0,
    "lat": 43.790273,
    "lon": 87.596894,
    "description": "地址: 经二路104号附近 | 类别: 风景名胜;风景名胜;教堂",
    "city": "乌鲁木齐"
  },
  {
    "name": "独好公园",
    "category": "outdoor",
    "duration_minutes": 120,
    "rating": 4.0,
    "lat": 43.902977,
    "lon": 87.595413,
    "description": "地址: 喀什东路266号 | 类别: 风景名胜;公园广场;公园",
    "city": "乌鲁木齐"
  },
  {
    "name": "水磨沟风景区-白塔",
    "category": "history",
    "duration_minutes": 120,
    "rating": 4.0,
    "lat": 43.824708,
    "lon": 87.650399,
    "description": "电话: 0991-4684055 | 地址: 水磨沟路472号风景区内 | 类别: 风景名胜;风景名胜相关;旅游景点",
    "city": "乌鲁木齐"
  },
  {
    "name": "石人沟2号观景台",
    "category": "sightseeing",
    "duration_minutes": 120,
    "rating": 4.0,
    "lat": 43.825749,
    "lon": 87.781397,
    "description": "地址: 水磨沟区农村事务管理办公室水磨沟区农村事务管理办公室石人子沟村三队百泉路1078号石人沟内(西侧) | 类别: 风景名胜;风景名胜;风景名胜",
    "city": "乌鲁木齐"
  },
  {
    "name": "乌拉泊古城",
    "category": "history",
    "duration_minutes": 120,
    "rating": 4.0,
    "lat": 43.640116,
    "lon": 87.58756,
    "description": "地址: 红雁街道乌拉泊湖畔 | 类别: 风景名胜;风景名胜;风景名胜",
    "city": "乌鲁木齐"
  },
  {
    "name": "水磨沟清真寺",
    "category": "sightseeing",
    "duration_minutes": 120,
    "rating": 4.0,
    "lat": 43.82456,
    "lon": 87.69145,
    "description": "地址: 清水巷2号 | 类别: 风景名胜;风景名胜;回教寺",
    "city": "乌鲁木齐"
  },
  {
    "name": "南梁坡清真寺",
    "category": "sightseeing",
    "duration_minutes": 120,
    "rating": 4.0,
    "lat": 43.807818,
    "lon": 87.583198,
    "description": "地址: 南昌路93号 | 类别: 风景名胜;风景名胜;回教寺",
    "city": "乌鲁木齐"
  },
  {
    "name": "兰乔圣菲滑雪场",
    "category": "sightseeing",
    "duration_minutes": 120,
    "rating": 4.0,
    "lat": 43.794698,
    "lon": 87.546565,
    "description": "地址: 兰乔圣菲A区 | 类别: 体育休闲服务;运动场馆;滑雪场|生活服务;洗浴推拿场所;洗浴推拿场所",
    "city": "乌鲁木齐"
  },
  {
    "name": "小西沟大寺",
    "category": "sightseeing",
    "duration_minutes": 120,
    "rating": 4.0,
    "lat": 43.852091,
    "lon": 87.562638,
    "description": "地址: 北京路街道北京南路499号北京路中和美食街 | 类别: 风景名胜;风景名胜;回教寺",
    "city": "乌鲁木齐"
  },
  {
    "name": "哈熊沟",
    "category": "sightseeing",
    "duration_minutes": 120,
    "rating": 4.0,
    "lat": 43.826575,
    "lon": 87.989731,
    "description": "地址: 东南58公里处的天山北坡 | 类别: 风景名胜;风景名胜;风景名胜",
    "city": "乌鲁木齐"
  },
  {
    "name": "二宫基督教聚会点",
    "category": "history",
    "duration_minutes": 120,
    "rating": 4.0,
    "lat": 43.861988,
    "lon": 87.560931,
    "description": "地址: 青海路北一巷里 | 类别: 风景名胜;风景名胜;教堂",
    "city": "乌鲁木齐"
  },
  {
    "name": "长胜大队清真寺",
    "category": "history",
    "duration_minutes": 120,
    "rating": 4.0,
    "lat": 43.735667,
    "lon": 87.51091,
    "description": "地址: 乌库公路附近 | 类别: 风景名胜;风景名胜;寺庙道观|风景名胜;风景名胜;回教寺",
    "city": "乌鲁木齐"
  },
  {
    "name": "二道桥清真寺",
    "category": "history",
    "duration_minutes": 120,
    "rating": 4.0,
    "lat": 43.779772,
    "lon": 87.618781,
    "description": "电话: 0991-8555480 | 地址: 和平南路505号 | 类别: 风景名胜;风景名胜;回教寺",
    "city": "乌鲁木齐"
  },
  {
    "name": "河州清真大寺",
    "category": "sightseeing",
    "duration_minutes": 120,
    "rating": 4.0,
    "lat": 43.788595,
    "lon": 87.620912,
    "description": "地址: 建中路92号 | 类别: 风景名胜;风景名胜;回教寺",
    "city": "乌鲁木齐"
  },
  {
    "name": "石人沟",
    "category": "sightseeing",
    "duration_minutes": 120,
    "rating": 4.0,
    "lat": 43.821953,
    "lon": 87.788291,
    "description": "地址: 石矿路1798号 | 类别: 风景名胜;风景名胜;风景名胜",
    "city": "乌鲁木齐"
  },
  {
    "name": "莲池寺",
    "category": "history",
    "duration_minutes": 120,
    "rating": 4.0,
    "lat": 43.985144,
    "lon": 87.63666,
    "description": "地址: 龙河北路与轮台西路交叉口北260米 | 类别: 风景名胜;风景名胜;寺庙道观",
    "city": "乌鲁木齐"
  },
  {
    "name": "歌林和院和乐园",
    "category": "sightseeing",
    "duration_minutes": 120,
    "rating": 4.0,
    "lat": 43.816075,
    "lon": 87.712225,
    "description": "地址: 秋实路与观园路交叉口东北500米 | 类别: 体育休闲服务;体育休闲服务场所;体育休闲服务场所",
    "city": "乌鲁木齐"
  },
  {
    "name": "老南坊坑坑大寺",
    "category": "sightseeing",
    "duration_minutes": 120,
    "rating": 4.0,
    "lat": 43.783066,
    "lon": 87.615561,
    "description": "电话: 0991-5962155 | 地址: 龙泉街南巷52号 | 类别: 风景名胜;风景名胜;回教寺",
    "city": "乌鲁木齐"
  },
  {
    "name": "鲤鱼山山顶观景台",
    "category": "outdoor",
    "duration_minutes": 120,
    "rating": 4.0,
    "lat": 43.843032,
    "lon": 87.583793,
    "description": "电话: 0991-4320205 | 地址: 鲤鱼山南路与西八家户路交叉口西南220米 | 类别: 风景名胜;风景名胜相关;旅游景点",
    "city": "乌鲁木齐"
  },
  {
    "name": "雅山东方红广场毛主席雕像",
    "category": "outdoor",
    "duration_minutes": 120,
    "rating": 4.0,
    "lat": 43.799949,
    "lon": 87.582129,
    "description": "地址: 宝塔路雅玛里克山森林公园内(东侧) | 类别: 风景名胜;风景名胜;风景名胜",
    "city": "乌鲁木齐"
  },
  {
    "name": "鲤鱼山清真寺",
    "category": "outdoor",
    "duration_minutes": 120,
    "rating": 4.0,
    "lat": 43.845059,
    "lon": 87.577683,
    "description": "地址: 府友巷14号 | 类别: 风景名胜;风景名胜;回教寺",
    "city": "乌鲁木齐"
  },
  {
    "name": "水墨天山国家登山步道",
    "category": "outdoor",
    "duration_minutes": 120,
    "rating": 4.0,
    "lat": 43.819503,
    "lon": 87.815891,
    "description": "地址: 水磨沟区农村事务管理办公室水磨沟区农村事务管理办公室石人子沟村三队百泉路1078号石人沟内(南侧) | 类别: 风景名胜;风景名胜;风景名胜",
    "city": "乌鲁木齐"
  },
  {
    "name": "乌鲁木齐市植物园-冰雪大世界",
    "category": "sightseeing",
    "duration_minutes": 120,
    "rating": 4.0,
    "lat": 43.890316,
    "lon": 87.554783,
    "description": "电话: 13139666928 | 地址: 杭州路街道杭州路街道北京中路916号(喀什路与北京路交汇处)植物园内 | 类别: 体育休闲服务;运动场馆;滑雪场",
    "city": "乌鲁木齐"
  },
  {
    "name": "兰州寺",
    "category": "sightseeing",
    "duration_minutes": 120,
    "rating": 4.0,
    "lat": 43.785025,
    "lon": 87.62995,
    "description": "地址: 跃进路277号 | 类别: 风景名胜;风景名胜;回教寺",
    "city": "乌鲁木齐"
  },
  {
    "name": "东坊大寺",
    "category": "sightseeing",
    "duration_minutes": 120,
    "rating": 4.0,
    "lat": 43.787501,
    "lon": 87.621639,
    "description": "地址: 新市路181号 | 类别: 风景名胜;风景名胜;回教寺",
    "city": "乌鲁木齐"
  },
  {
    "name": "百鸟园",
    "category": "sightseeing",
    "duration_minutes": 120,
    "rating": 4.0,
    "lat": 43.825076,
    "lon": 87.600445,
    "description": "地址: 河滩北路与克拉玛依东街辅路交叉口东140米 | 类别: 公司企业;公司企业;公司企业",
    "city": "乌鲁木齐"
  },
  {
    "name": "乌鲁木齐市苜蓿台生态公园(暂停开放)",
    "category": "outdoor",
    "duration_minutes": 120,
    "rating": 4.0,
    "lat": 43.526319,
    "lon": 87.623524,
    "description": "电话: 13565999813 | 地址: 103省道 | 类别: 风景名胜;风景名胜;国家级景点",
    "city": "乌鲁木齐"
  },
  {
    "name": "八家户北清真寺",
    "category": "sightseeing",
    "duration_minutes": 120,
    "rating": 4.0,
    "lat": 43.872942,
    "lon": 87.592549,
    "description": "地址: 鲤鱼山南路与河南东路交叉处南侧路西 | 类别: 风景名胜;风景名胜;回教寺",
    "city": "乌鲁木齐"
  },
  {
    "name": "亚洲大陆地理中心(暂停开放)",
    "category": "sightseeing",
    "duration_minutes": 120,
    "rating": 4.0,
    "lat": 43.677299,
    "lon": 87.335595,
    "description": "地址: 永丰乡包家槽子村西山农场附近 | 类别: 风景名胜;风景名胜;风景名胜",
    "city": "乌鲁木齐"
  },
  {
    "name": "仓房沟清真大寺",
    "category": "sightseeing",
    "duration_minutes": 120,
    "rating": 4.0,
    "lat": 43.753782,
    "lon": 87.581492,
    "description": "地址: 仓房沟中路405号 | 类别: 风景名胜;风景名胜;回教寺",
    "city": "乌鲁木齐"
  },
  {
    "name": "三宫清真大寺",
    "category": "history",
    "duration_minutes": 120,
    "rating": 4.0,
    "lat": 43.905908,
    "lon": 87.573029,
    "description": "地址: 桐乡四巷34号 | 类别: 风景名胜;风景名胜;回教寺",
    "city": "乌鲁木齐"
  },
  {
    "name": "荷香园",
    "category": "outdoor",
    "duration_minutes": 120,
    "rating": 4.0,
    "lat": 43.916924,
    "lon": 87.644974,
    "description": "地址: 辽源街与米东南路东巷交叉口东380米 | 类别: 风景名胜;公园广场;公园",
    "city": "乌鲁木齐"
  },
  {
    "name": "小葡萄科技广场",
    "category": "outdoor",
    "duration_minutes": 120,
    "rating": 4.0,
    "lat": 43.786081,
    "lon": 87.638829,
    "description": "地址: 体育馆路与幸福路南三巷交叉口东南60米 | 类别: 风景名胜;公园广场;城市广场",
    "city": "乌鲁木齐"
  },
  {
    "name": "星新峡",
    "category": "sightseeing",
    "duration_minutes": 120,
    "rating": 4.0,
    "lat": 43.830268,
    "lon": 87.636358,
    "description": "地址: 温泉西路与六道湾路交叉口北20米 | 类别: 风景名胜;风景名胜;风景名胜",
    "city": "乌鲁木齐"
  },
  {
    "name": "西北路清真寺",
    "category": "sightseeing",
    "duration_minutes": 120,
    "rating": 4.0,
    "lat": 43.81191,
    "lon": 87.588832,
    "description": "地址: 哈密南路90号 | 类别: 风景名胜;风景名胜;回教寺",
    "city": "乌鲁木齐"
  },
  {
    "name": "二工古墓清真大寺",
    "category": "sightseeing",
    "duration_minutes": 120,
    "rating": 4.0,
    "lat": 43.863766,
    "lon": 87.585954,
    "description": "地址: 长春南路与长春南路西一巷交叉口东南280米 | 类别: 风景名胜;风景名胜;回教寺",
    "city": "乌鲁木齐"
  },
  {
    "name": "红湖",
    "category": "outdoor",
    "duration_minutes": 120,
    "rating": 4.0,
    "lat": 43.762237,
    "lon": 87.62155,
    "description": "地址: 湖源路新疆大学(红湖校区) | 类别: 风景名胜;风景名胜相关;旅游景点",
    "city": "乌鲁木齐"
  },
  {
    "name": "西大寺",
    "category": "sightseeing",
    "duration_minutes": 120,
    "rating": 4.0,
    "lat": 43.961161,
    "lon": 87.65407,
    "description": "电话: 0991-8859080 | 地址: 米泉南路267号 | 类别: 风景名胜;风景名胜;回教寺",
    "city": "乌鲁木齐"
  },
  {
    "name": "振兴村大寺",
    "category": "sightseeing",
    "duration_minutes": 120,
    "rating": 4.0,
    "lat": 43.971463,
    "lon": 87.683607,
    "description": "地址: 府前东路与皇渠南路交叉口东南200米 | 类别: 风景名胜;风景名胜;回教寺",
    "city": "乌鲁木齐"
  },
  {
    "name": "宏大广场-圣丹亚舞文化广场",
    "category": "sightseeing",
    "duration_minutes": 120,
    "rating": 4.0,
    "lat": 43.813741,
    "lon": 87.615895,
    "description": "地址: 新民路554号宏大广场 | 类别: 体育休闲服务;体育休闲服务场所;体育休闲服务场所",
    "city": "乌鲁木齐"
  },
  {
    "name": "燕景神木源",
    "category": "sightseeing",
    "duration_minutes": 120,
    "rating": 4.0,
    "lat": 43.713983,
    "lon": 87.590175,
    "description": "电话: 0991-8521288;0991-8525252 | 地址: 燕儿窝路788号 | 类别: 风景名胜;风景名胜;风景名胜",
    "city": "乌鲁木齐"
  },
  {
    "name": "雅玛里克山-妖魔山",
    "category": "outdoor",
    "duration_minutes": 120,
    "rating": 4.0,
    "lat": 43.787845,
    "lon": 87.560438,
    "description": "地址: 环卫南路 | 类别: 风景名胜;风景名胜;风景名胜",
    "city": "乌鲁木齐"
  },
  {
    "name": "联丰二队清真寺",
    "category": "sightseeing",
    "duration_minutes": 120,
    "rating": 4.0,
    "lat": 43.916439,
    "lon": 87.652134,
    "description": "地址: 东华北路与城北主干道辅路交叉口东南120米 | 类别: 风景名胜;风景名胜;回教寺",
    "city": "乌鲁木齐"
  },
  {
    "name": "玉博源玉石博物馆",
    "category": "museum",
    "duration_minutes": 120,
    "rating": 4.0,
    "lat": 43.857459,
    "lon": 87.609131,
    "description": "地址: 立井街北十巷与规划支路交叉口西北100米 | 类别: 科教文化服务;博物馆;博物馆",
    "city": "乌鲁木齐"
  },
  {
    "name": "摩天轮",
    "category": "sightseeing",
    "duration_minutes": 120,
    "rating": 4.0,
    "lat": 43.809024,
    "lon": 87.606588,
    "description": "地址: 红山路北一巷40号红山公园北园内(东侧) | 类别: 风景名胜;风景名胜相关;旅游景点",
    "city": "乌鲁木齐"
  },
  {
    "name": "冀宝斋",
    "category": "sightseeing",
    "duration_minutes": 120,
    "rating": 4.0,
    "lat": 43.806672,
    "lon": 87.620842,
    "description": "电话: 0991-8886849;13659912056 | 地址: 新民路222号 | 类别: 科教文化服务;科教文化场所;科教文化场所",
    "city": "乌鲁木齐"
  },
  {
    "name": "头屯河谷森林公园中心广场",
    "category": "outdoor",
    "duration_minutes": 120,
    "rating": 4.0,
    "lat": 43.992106,
    "lon": 87.333357,
    "description": "地址: 兵团第十二师五一农场万亩绿心 | 类别: 风景名胜;公园广场;公园广场",
    "city": "乌鲁木齐"
  },
  {
    "name": "西山",
    "category": "outdoor",
    "duration_minutes": 120,
    "rating": 4.0,
    "lat": 43.796962,
    "lon": 87.46663,
    "description": "地址: 康泰东蹩方蛛大药房西南侧140米 | 类别: 风景名胜;风景名胜;风景名胜",
    "city": "乌鲁木齐"
  },
  {
    "name": "动物世界",
    "category": "outdoor",
    "duration_minutes": 120,
    "rating": 4.0,
    "lat": 43.751381,
    "lon": 87.612354,
    "description": "地址: 燕儿窝路2号乌鲁木齐市水上乐园 | 类别: 风景名胜;公园广场;动物园",
    "city": "乌鲁木齐"
  },
  {
    "name": "宏大广场-春芳霞舞文化广场",
    "category": "outdoor",
    "duration_minutes": 120,
    "rating": 4.0,
    "lat": 43.813741,
    "lon": 87.61588,
    "description": "地址: 新民东街与新民路交叉口南60米 | 类别: 风景名胜;公园广场;城市广场",
    "city": "乌鲁木齐"
  },
  {
    "name": "紫金公园",
    "category": "outdoor",
    "duration_minutes": 120,
    "rating": 4.0,
    "lat": 43.76994,
    "lon": 87.45911,
    "description": "地址: 科建路附近 | 类别: 风景名胜;公园广场;公园",
    "city": "乌鲁木齐"
  },
  {
    "name": "红山公园北园-林则徐纪念像",
    "category": "outdoor",
    "duration_minutes": 120,
    "rating": 4.0,
    "lat": 43.80804,
    "lon": 87.60191,
    "description": "电话: 0991-8855671 | 地址: 红山路北1巷40号红山公园内(西侧) | 类别: 风景名胜;风景名胜相关;旅游景点",
    "city": "乌鲁木齐"
  },
  {
    "name": "谢利盖巴什拜羔羊",
    "category": "sightseeing",
    "duration_minutes": 120,
    "rating": 4.0,
    "lat": 43.820922,
    "lon": 87.612209,
    "description": "地址: 南湖南路83号 | 类别: 风景名胜;风景名胜相关;旅游景点",
    "city": "乌鲁木齐"
  },
  {
    "name": "东九家湾寺",
    "category": "history",
    "duration_minutes": 120,
    "rating": 4.0,
    "lat": 43.844352,
    "lon": 87.560068,
    "description": "地址: 红庙子路693号 | 类别: 风景名胜;风景名胜;寺庙道观",
    "city": "乌鲁木齐"
  },
  {
    "name": "陕西老坊寺",
    "category": "history",
    "duration_minutes": 120,
    "rating": 4.0,
    "lat": 43.78696,
    "lon": 87.61678,
    "description": "电话: 0991-8189190 | 地址: 新市路44号 | 类别: 风景名胜;风景名胜;寺庙道观",
    "city": "乌鲁木齐"
  },
  {
    "name": "火炬广场",
    "category": "outdoor",
    "duration_minutes": 120,
    "rating": 4.0,
    "lat": 43.855006,
    "lon": 87.571155,
    "description": "地址: 高新街街道高新街街道火炬大厦对面 | 类别: 风景名胜;公园广场;城市广场",
    "city": "乌鲁木齐"
  },
  {
    "name": "小公园",
    "category": "outdoor",
    "duration_minutes": 120,
    "rating": 4.0,
    "lat": 43.786235,
    "lon": 87.543496,
    "description": "地址: 环卫南路59号 | 类别: 风景名胜;公园广场;公园",
    "city": "乌鲁木齐"
  },
  {
    "name": "长城",
    "category": "sightseeing",
    "duration_minutes": 120,
    "rating": 4.0,
    "lat": 43.753956,
    "lon": 87.611823,
    "description": "地址: 燕儿窝路2号乌鲁木齐市水上乐园 | 类别: 风景名胜;风景名胜相关;旅游景点",
    "city": "乌鲁木齐"
  },
  {
    "name": "中国人民解放军进军新疆纪念碑",
    "category": "history",
    "duration_minutes": 120,
    "rating": 4.0,
    "lat": 43.795168,
    "lon": 87.624114,
    "description": "地址: 人民广场 | 类别: 风景名胜;风景名胜;纪念馆",
    "city": "乌鲁木齐"
  },
  {
    "name": "长城",
    "category": "sightseeing",
    "duration_minutes": 120,
    "rating": 4.0,
    "lat": 43.753956,
    "lon": 87.611823,
    "description": "地址: 燕儿窝路2号乌鲁木齐市水上乐园 | 类别: 风景名胜;风景名胜相关;旅游景点",
    "city": "乌鲁木齐"
  },
  {
    "name": "中国人民解放军进军新疆纪念碑",
    "category": "history",
    "duration_minutes": 120,
    "rating": 4.0,
    "lat": 43.795168,
    "lon": 87.624114,
    "description": "地址: 人民广场 | 类别: 风景名胜;风景名胜;纪念馆",
    "city": "乌鲁木齐"
  },
  {
    "name": "十三队清真寺",
    "category": "sightseeing",
    "duration_minutes": 120,
    "rating": 4.0,
    "lat": 43.943419,
    "lon": 87.690303,
    "description": "地址: 芦草沟乡人民庄村4队3巷23号 | 类别: 风景名胜;风景名胜;回教寺",
    "city": "乌鲁木齐"
  },
  {
    "name": "八户梁巷清真寺",
    "category": "sightseeing",
    "duration_minutes": 120,
    "rating": 4.0,
    "lat": 43.772816,
    "lon": 87.6216,
    "description": "地址: 八户梁街159号 | 类别: 风景名胜;风景名胜;回教寺",
    "city": "乌鲁木齐"
  },
  {
    "name": "棋盘山公园",
    "category": "outdoor",
    "duration_minutes": 120,
    "rating": 4.0,
    "lat": 43.833904,
    "lon": 87.714019,
    "description": "地址: 葛家沟东路 | 类别: 风景名胜;公园广场;公园",
    "city": "乌鲁木齐"
  },
  {
    "name": "翠泉公园",
    "category": "outdoor",
    "duration_minutes": 120,
    "rating": 4.0,
    "lat": 43.809342,
    "lon": 87.66556,
    "description": "类别: 风景名胜;公园广场;公园",
    "city": "乌鲁木齐"
  },
  {
    "name": "和平园",
    "category": "outdoor",
    "duration_minutes": 120,
    "rating": 4.0,
    "lat": 43.857397,
    "lon": 87.556222,
    "description": "类别: 风景名胜;公园广场;公园",
    "city": "乌鲁木齐"
  },
  {
    "name": "骑马山游园",
    "category": "outdoor",
    "duration_minutes": 120,
    "rating": 4.0,
    "lat": 43.815954,
    "lon": 87.533996,
    "description": "地址: 福海路 | 类别: 风景名胜;公园广场;公园",
    "city": "乌鲁木齐"
  },
  {
    "name": "洋行清真寺(不对外)",
    "category": "sightseeing",
    "duration_minutes": 120,
    "rating": 4.0,
    "lat": 43.775963,
    "lon": 87.615659,
    "description": "地址: 胜利路143号 | 类别: 风景名胜;风景名胜;回教寺",
    "city": "乌鲁木齐"
  },
  {
    "name": "米东区十三户清真寺",
    "category": "sightseeing",
    "duration_minutes": 120,
    "rating": 4.0,
    "lat": 43.959103,
    "lon": 87.647933,
    "description": "地址: 古牧地镇稻香南路423号 | 类别: 风景名胜;风景名胜;回教寺",
    "city": "乌鲁木齐"
  },
  {
    "name": "红沙滩风景区",
    "category": "sightseeing",
    "duration_minutes": 120,
    "rating": 4.0,
    "lat": 43.807379,
    "lon": 87.371097,
    "description": "地址: 西山农场附近 | 类别: 风景名胜;风景名胜;风景名胜",
    "city": "乌鲁木齐"
  },
  {
    "name": "黑山头清真北寺",
    "category": "outdoor",
    "duration_minutes": 120,
    "rating": 4.0,
    "lat": 43.859063,
    "lon": 87.552605,
    "description": "地址: 阿勒泰路1333号 | 类别: 风景名胜;风景名胜;回教寺",
    "city": "乌鲁木齐"
  },
  {
    "name": "天山公园无动力乐园",
    "category": "outdoor",
    "duration_minutes": 120,
    "rating": 4.0,
    "lat": 43.754102,
    "lon": 87.640836,
    "description": "电话: 18137936885 | 地址: 大湾街道天山公园(东南角) | 类别: 体育休闲服务;休闲场所;游乐场",
    "city": "乌鲁木齐"
  },
  {
    "name": "山鼎",
    "category": "outdoor",
    "duration_minutes": 120,
    "rating": 4.0,
    "lat": 43.819114,
    "lon": 87.642205,
    "description": "电话: 17397771847 | 地址: 成功街381号 | 类别: 风景名胜;风景名胜相关;旅游景点",
    "city": "乌鲁木齐"
  },
  {
    "name": "河马泉新区智慧体育公园(建设中)",
    "category": "outdoor",
    "duration_minutes": 120,
    "rating": 4.0,
    "lat": 43.850248,
    "lon": 87.722055,
    "description": "地址: 华昌街与夏荷路交叉口西南 | 类别: 风景名胜;公园广场;公园",
    "city": "乌鲁木齐"
  },
  {
    "name": "万科公园",
    "category": "outdoor",
    "duration_minutes": 120,
    "rating": 4.0,
    "lat": 43.948375,
    "lon": 87.631875,
    "description": "地址: 永顺街北巷与永顺街交叉口西北280米 | 类别: 商务住宅;商务住宅相关;商务住宅相关",
    "city": "乌鲁木齐"
  },
  {
    "name": "天山明月城·天山武侠小镇",
    "category": "outdoor",
    "duration_minutes": 120,
    "rating": 4.0,
    "lat": 43.893178,
    "lon": 87.684256,
    "description": "地址: 腾汇一路301号 | 类别: 购物服务;特色商业街;特色商业街",
    "city": "乌鲁木齐"
  },
  {
    "name": "红湾花海景区",
    "category": "outdoor",
    "duration_minutes": 120,
    "rating": 4.0,
    "lat": 43.843048,
    "lon": 87.784588,
    "description": "电话: 13899835052 | 地址: 石人沟中路302号 | 类别: 风景名胜;风景名胜相关;旅游景点",
    "city": "乌鲁木齐"
  },
  {
    "name": "PUCHI星际之旅主题乐园(万达广场店)",
    "category": "sightseeing",
    "duration_minutes": 120,
    "rating": 4.0,
    "lat": 43.7891,
    "lon": 87.587561,
    "description": "电话: 18149896851 | 地址: 德汇宝贝广场一楼无印良品店旁边拐角处(德汇宝贝广场2号门进入上一层楼) | 类别: 体育休闲服务;休闲场所;游乐场",
    "city": "乌鲁木齐"
  },
  {
    "name": "天山国家森林公园",
    "category": "outdoor",
    "duration_minutes": 120,
    "rating": 4.0,
    "lat": 43.907283,
    "lon": 87.881805,
    "description": "地址: 柏杨河乡原始部落自助烧烤东侧180米 | 类别: 风景名胜;公园广场;公园|风景名胜;公园广场;动物园",
    "city": "乌鲁木齐"
  },
  {
    "name": "博格达公园",
    "category": "outdoor",
    "duration_minutes": 120,
    "rating": 4.0,
    "lat": 43.783458,
    "lon": 87.688296,
    "description": "地址: 大学路天山牧歌小区旁 | 类别: 风景名胜;公园广场;公园",
    "city": "乌鲁木齐"
  },
  {
    "name": "九龙生态园-福缘堂",
    "category": "sightseeing",
    "duration_minutes": 120,
    "rating": 4.0,
    "lat": 43.756869,
    "lon": 87.461757,
    "description": "电话: 0991-8777999 | 地址: 苜蓿沟北路3880号九龙生态园内(东侧) | 类别: 风景名胜;风景名胜相关;旅游景点",
    "city": "乌鲁木齐"
  },
  {
    "name": "青山苑",
    "category": "outdoor",
    "duration_minutes": 120,
    "rating": 4.0,
    "lat": 43.802648,
    "lon": 87.60648,
    "description": "地址: 新华北路23号 | 类别: 风景名胜;公园广场;公园",
    "city": "乌鲁木齐"
  },
  {
    "name": "芦草沟中寺",
    "category": "sightseeing",
    "duration_minutes": 120,
    "rating": 4.0,
    "lat": 43.913305,
    "lon": 87.726268,
    "description": "地址: 人民庄子路 | 类别: 风景名胜;风景名胜;回教寺",
    "city": "乌鲁木齐"
  },
  {
    "name": "新疆雕塑艺术园",
    "category": "sightseeing",
    "duration_minutes": 120,
    "rating": 4.0,
    "lat": 43.810213,
    "lon": 87.716846,
    "description": "电话: 13609920435 | 地址: 观园路275号新疆雕塑学会 | 类别: 科教文化服务;科教文化场所;科教文化场所",
    "city": "乌鲁木齐"
  },
  {
    "name": "红庙子",
    "category": "history",
    "duration_minutes": 120,
    "rating": 4.0,
    "lat": 43.83864,
    "lon": 87.553046,
    "description": "地址: 新通东街与新通街交叉口西420米 | 类别: 风景名胜;风景名胜相关;旅游景点",
    "city": "乌鲁木齐"
  },
  {
    "name": "天山雪莲博物馆",
    "category": "museum",
    "duration_minutes": 120,
    "rating": 4.0,
    "lat": 43.781918,
    "lon": 87.61689,
    "description": "电话: 0991-5166333;18099918989 | 地址: 龙泉街南巷75号大巴扎步行街二期疆来城一楼130、132号商铺 | 类别: 科教文化服务;博物馆;博物馆",
    "city": "乌鲁木齐"
  },
  {
    "name": "园林景观塑石",
    "category": "sightseeing",
    "duration_minutes": 120,
    "rating": 4.0,
    "lat": 43.813982,
    "lon": 87.578135,
    "description": "电话: 13139691615;15999109765 | 地址: 明珠花卉市场东北门园林景观塑石11号 | 类别: 风景名胜;风景名胜相关;旅游景点",
    "city": "乌鲁木齐"
  },
  {
    "name": "乌鲁木齐市东正教堂",
    "category": "sightseeing",
    "duration_minutes": 120,
    "rating": 4.0,
    "lat": 43.770192,
    "lon": 87.620683,
    "description": "地址: 新东路90号 | 类别: 风景名胜;风景名胜;教堂",
    "city": "乌鲁木齐"
  },
  {
    "name": "铁西公园",
    "category": "outdoor",
    "duration_minutes": 120,
    "rating": 4.0,
    "lat": 43.872584,
    "lon": 87.419782,
    "description": "地址: 西园街161号 | 类别: 风景名胜;公园广场;公园",
    "city": "乌鲁木齐"
  },
  {
    "name": "红光山-孙悟空",
    "category": "outdoor",
    "duration_minutes": 120,
    "rating": 4.0,
    "lat": 43.886514,
    "lon": 87.614234,
    "description": "电话: 0991-4889165 | 地址: 红光山景区(西南角) | 类别: 风景名胜;风景名胜;风景名胜",
    "city": "乌鲁木齐"
  },
  {
    "name": "醉心普吉岛",
    "category": "sightseeing",
    "duration_minutes": 120,
    "rating": 4.0,
    "lat": 43.825187,
    "lon": 87.590901,
    "description": "电话: 15951583037 | 地址: 普吉岛巴东海滩中国城内 | 类别: 风景名胜;风景名胜相关;旅游景点",
    "city": "乌鲁木齐"
  },
  {
    "name": "水磨河景观带公园",
    "category": "outdoor",
    "duration_minutes": 120,
    "rating": 4.0,
    "lat": 43.90302,
    "lon": 87.643949,
    "description": "地址: 万科·朗润园附近 | 类别: 风景名胜;公园广场;公园",
    "city": "乌鲁木齐"
  },
  {
    "name": "天山大峡谷",
    "category": "outdoor",
    "duration_minutes": 120,
    "rating": 4.0,
    "lat": 43.493451,
    "lon": 87.441704,
    "description": "电话: 0991-7629111 | 地址: 板房沟乡灯草沟村 | 类别: 风景名胜;风景名胜;风景名胜",
    "city": "乌鲁木齐"
  },
  {
    "name": "太原路清真寺",
    "category": "sightseeing",
    "duration_minutes": 120,
    "rating": 4.0,
    "lat": 43.888759,
    "lon": 87.536213,
    "description": "地址: 太原北路708号 | 类别: 风景名胜;风景名胜;回教寺",
    "city": "乌鲁木齐"
  },
  {
    "name": "新疆泰加自然博物馆",
    "category": "museum",
    "duration_minutes": 120,
    "rating": 4.0,
    "lat": 43.808388,
    "lon": 87.475259,
    "description": "地址: 融合南路89号 | 类别: 科教文化服务;博物馆;博物馆",
    "city": "乌鲁木齐"
  },
  {
    "name": "红山公园北园-南湖泛舟",
    "category": "outdoor",
    "duration_minutes": 120,
    "rating": 4.0,
    "lat": 43.806606,
    "lon": 87.604011,
    "description": "电话: 0991-8855671 | 地址: 红山路北1巷40号红山公园内(西南角) | 类别: 风景名胜;风景名胜相关;旅游景点",
    "city": "乌鲁木齐"
  },
  {
    "name": "筑春园(暂停开放)",
    "category": "outdoor",
    "duration_minutes": 120,
    "rating": 4.0,
    "lat": 43.879688,
    "lon": 87.549983,
    "description": "地址: 四建小区内 | 类别: 风景名胜;公园广场;公园",
    "city": "乌鲁木齐"
  },
  {
    "name": "紫瑞园",
    "category": "outdoor",
    "duration_minutes": 120,
    "rating": 4.0,
    "lat": 43.919203,
    "lon": 87.643515,
    "description": "地址: 辽源街与辽源东街辅路交叉口西北180米 | 类别: 风景名胜;公园广场;公园",
    "city": "乌鲁木齐"
  },
  {
    "name": "红光山大佛寺-大雄宝殿",
    "category": "history",
    "duration_minutes": 120,
    "rating": 4.0,
    "lat": 43.882377,
    "lon": 87.616327,
    "description": "地址: 红光山大佛寺 | 类别: 风景名胜;风景名胜;寺庙道观",
    "city": "乌鲁木齐"
  }
]