[
  {
    "name": "五四广场",
    "category": "outdoor",
    "duration_minutes": 120,
    "rating": 4.0,
    "lat": 36.06274,
    "lon": 120.384576,
    "description": "地址: 东海西路(五四广场地铁站C口步行170米) | 类别: 风景名胜;公园广场;城市广场",
    "city": "青岛"
  },
  {
    "name": "海滨风景区",
    "category": "outdoor",
    "duration_minutes": 120,
    "rating": 4.0,
    "lat": 36.057782,
    "lon": 120.343211,
    "description": "地址: 东海西路24号(汇泉广场地铁站C口步行320米) | 类别: 风景名胜;风景名胜;风景名胜",
    "city": "青岛"
  },
  {
    "name": "青岛奥帆海洋文化旅游区",
    "category": "outdoor",
    "duration_minutes": 120,
    "rating": 4.0,
    "lat": 36.060279,
    "lon": 120.3905,
    "description": "电话: 0532-58617801 | 地址: 清远路1号 | 类别: 风景名胜;风景名胜;国家级景点",
    "city": "青岛"
  },
  {
    "name": "青岛湛山寺",
    "category": "history",
    "duration_minutes": 120,
    "rating": 4.0,
    "lat": 36.064978,
    "lon": 120.36449,
    "description": "电话: 0532-83862038 | 地址: 芝泉路2号 | 类别: 风景名胜;风景名胜;寺庙道观",
    "city": "青岛"
  },
  {
    "name": "奥林匹克帆船中心·奥帆海洋文化旅游区",
    "category": "outdoor",
    "duration_minutes": 120,
    "rating": 4.0,
    "lat": 36.054643,
    "lon": 120.395063,
    "description": "电话: 0532-58617777 | 地址: 澳门路86号奥帆中心 | 类别: 风景名胜;风景名胜;风景名胜",
    "city": "青岛"
  },
  {
    "name": "八大关风景区",
    "category": "sightseeing",
    "duration_minutes": 120,
    "rating": 4.0,
    "lat": 36.053625,
    "lon": 120.350903,
    "description": "电话: 0532-82870565 | 地址: 武胜关支路10号 | 类别: 风景名胜;风景名胜;风景名胜",
    "city": "青岛"
  },
  {
    "name": "太平山中央公园",
    "category": "outdoor",
    "duration_minutes": 120,
    "rating": 4.0,
    "lat": 36.067606,
    "lon": 120.357684,
    "description": "地址: 太平山景区内 | 类别: 风景名胜;公园广场;公园",
    "city": "青岛"
  },
  {
    "name": "情人坝",
    "category": "sightseeing",
    "duration_minutes": 120,
    "rating": 4.0,
    "lat": 36.052388,
    "lon": 120.390288,
    "description": "地址: 珠海路街道金湾路7号 | 类别: 风景名胜;风景名胜;风景名胜",
    "city": "青岛"
  },
  {
    "name": "青岛中山公园",
    "category": "outdoor",
    "duration_minutes": 120,
    "rating": 4.0,
    "lat": 36.064394,
    "lon": 120.350415,
    "description": "电话: 0532-57770077 | 地址: 八大关街道文登路26号 | 类别: 风景名胜;公园广场;公园",
    "city": "青岛"
  },
  {
    "name": "青岛啤酒博物馆",
    "category": "museum",
    "duration_minutes": 120,
    "rating": 4.0,
    "lat": 36.079106,
    "lon": 120.347318,
    "description": "地址: 登州路56-1 | 类别: 科教文化服务;博物馆;博物馆",
    "city": "青岛"
  },
  {
    "name": "青岛太平角公园",
    "category": "outdoor",
    "duration_minutes": 120,
    "rating": 4.0,
    "lat": 36.053038,
    "lon": 120.360265,
    "description": "地址: 湛山路8号 | 类别: 风景名胜;公园广场;公园",
    "city": "青岛"
  },
  {
    "name": "台东步行街",
    "category": "sightseeing",
    "duration_minutes": 120,
    "rating": 4.0,
    "lat": 36.083505,
    "lon": 120.354123,
    "description": "地址: 台东三路(台东地铁站E口步行160米) | 类别: 购物服务;特色商业街;步行街",
    "city": "青岛"
  },
  {
    "name": "燕儿岛智慧公园",
    "category": "outdoor",
    "duration_minutes": 120,
    "rating": 4.0,
    "lat": 36.055267,
    "lon": 120.40571,
    "description": "地址: 珠海路街道澳门路138号 | 类别: 风景名胜;公园广场;公园",
    "city": "青岛"
  },
  {
    "name": "青岛电视塔",
    "category": "history",
    "duration_minutes": 120,
    "rating": 4.0,
    "lat": 36.06907,
    "lon": 120.355368,
    "description": "电话: 0532-83654020 | 地址: 太平山路1号 | 类别: 风景名胜;风景名胜;省级景点",
    "city": "青岛"
  },
  {
    "name": "青岛动物园",
    "category": "outdoor",
    "duration_minutes": 120,
    "rating": 4.0,
    "lat": 36.069562,
    "lon": 120.34996,
    "description": "电话: 0532-82872970 | 地址: 延安一路102号(近中山公园) | 类别: 风景名胜;公园广场;动物园",
    "city": "青岛"
  },
  {
    "name": "栈桥景区",
    "category": "outdoor",
    "duration_minutes": 120,
    "rating": 4.0,
    "lat": 36.061736,
    "lon": 120.3193,
    "description": "电话: 0532-82884548 | 地址: 太平路12号(青岛站地铁站G口步行370米) | 类别: 风景名胜;公园广场;公园",
    "city": "青岛"
  },
  {
    "name": "小鱼山",
    "category": "outdoor",
    "duration_minutes": 120,
    "rating": 4.0,
    "lat": 36.058765,
    "lon": 120.336558,
    "description": "电话: 0532-82868532 | 地址: 八大关街道福山支路24号 | 类别: 风景名胜;风景名胜;国家级景点",
    "city": "青岛"
  },
  {
    "name": "信号山公园",
    "category": "outdoor",
    "duration_minutes": 120,
    "rating": 4.0,
    "lat": 36.066446,
    "lon": 120.331561,
    "description": "电话: 0532-66991166 | 地址: 龙山路16号甲 | 类别: 风景名胜;公园广场;公园",
    "city": "青岛"
  },
  {
    "name": "青岛市音乐广场",
    "category": "outdoor",
    "duration_minutes": 120,
    "rating": 4.0,
    "lat": 36.058383,
    "lon": 120.381085,
    "description": "电话: 0532-82872937 | 地址: 澳门路12号(近五四广场) | 类别: 风景名胜;公园广场;城市广场",
    "city": "青岛"
  },
  {
    "name": "青岛海底世界",
    "category": "outdoor",
    "duration_minutes": 120,
    "rating": 4.0,
    "lat": 36.057077,
    "lon": 120.33602,
    "description": "电话: 0532-58617777;0532-82892187 | 地址: 莱阳路2号 | 类别: 风景名胜;公园广场;水族馆",
    "city": "青岛"
  },
  {
    "name": "青岛第一海水浴场",
    "category": "outdoor",
    "duration_minutes": 120,
    "rating": 4.0,
    "lat": 36.057428,
    "lon": 120.341325,
    "description": "电话: 0532-82963355 | 地址: 南海路14号(汇泉广场地铁站C口步行470米) | 类别: 体育休闲服务;运动场馆;海滨浴场",
    "city": "青岛"
  },
  {
    "name": "青岛第二海水浴场",
    "category": "outdoor",
    "duration_minutes": 120,
    "rating": 4.0,
    "lat": 36.050649,
    "lon": 120.352169,
    "description": "电话: 0532-66577309 | 地址: 山海关路6号(近花石楼) | 类别: 体育休闲服务;运动场馆;海滨浴场",
    "city": "青岛"
  },
  {
    "name": "比利时领事馆旧址",
    "category": "sightseeing",
    "duration_minutes": 120,
    "rating": 4.0,
    "lat": 36.050459,
    "lon": 120.36036,
    "description": "地址: 太平角一路21号(太平角公园地铁站B口步行480米) | 类别: 风景名胜;风景名胜相关;旅游景点",
    "city": "青岛"
  },
  {
    "name": "海之恋Park",
    "category": "outdoor",
    "duration_minutes": 120,
    "rating": 4.0,
    "lat": 36.065361,
    "lon": 120.434592,
    "description": "地址: 东海东路与海兴路交叉口 | 类别: 风景名胜;公园广场;公园",
    "city": "青岛"
  },
  {
    "name": "中国人民解放军海军博物馆",
    "category": "museum",
    "duration_minutes": 120,
    "rating": 4.0,
    "lat": 36.054786,
    "lon": 120.327714,
    "description": "电话: 0532-82866787 | 地址: 莱阳路8号 | 类别: 科教文化服务;博物馆;博物馆",
    "city": "青岛"
  },
  {
    "name": "银海大世界",
    "category": "outdoor",
    "duration_minutes": 120,
    "rating": 4.0,
    "lat": 36.057818,
    "lon": 120.422801,
    "description": "电话: 13969676988 | 地址: 东海中路30号(近银都花园) | 类别: 风景名胜;风景名胜;风景名胜",
    "city": "青岛"
  },
  {
    "name": "榉林公园",
    "category": "outdoor",
    "duration_minutes": 120,
    "rating": 4.0,
    "lat": 36.070487,
    "lon": 120.356988,
    "description": "电话: 0532-83643831 | 地址: 龙潭路西100米 | 类别: 风景名胜;公园广场;公园",
    "city": "青岛"
  },
  {
    "name": "浮山森林公园",
    "category": "outdoor",
    "duration_minutes": 120,
    "rating": 4.0,
    "lat": 36.08929,
    "lon": 120.433328,
    "description": "地址: 银川西路 | 类别: 风景名胜;公园广场;公园广场",
    "city": "青岛"
  },
  {
    "name": "宫崎骏漫画街",
    "category": "history",
    "duration_minutes": 120,
    "rating": 4.0,
    "lat": 36.063232,
    "lon": 120.331135,
    "description": "地址: 龙江路与黄县路交叉口西南20米 | 类别: 风景名胜;风景名胜;风景名胜",
    "city": "青岛"
  },
  {
    "name": "远洋广场",
    "category": "sightseeing",
    "duration_minutes": 120,
    "rating": 4.0,
    "lat": 36.065139,
    "lon": 120.398464,
    "description": "电话: 0532-85737090 | 地址: 香港中路街道香港中路61号 | 类别: 商务住宅;楼宇;楼宇相关|风景名胜;风景名胜相关;旅游景点",
    "city": "青岛"
  },
  {
    "name": "鲁迅公园",
    "category": "outdoor",
    "duration_minutes": 120,
    "rating": 4.0,
    "lat": 36.055007,
    "lon": 120.333117,
    "description": "电话: 0532-82860760;0532-82868471 | 地址: 琴屿路1号 | 类别: 风景名胜;公园广场;公园",
    "city": "青岛"
  },
  {
    "name": "天主教青岛教区圣弥厄尔主教座堂天主堂",
    "category": "sightseeing",
    "duration_minutes": 120,
    "rating": 4.0,
    "lat": 36.068143,
    "lon": 120.320588,
    "description": "电话: 0532-82865960 | 地址: 浙江路15号 | 类别: 风景名胜;风景名胜;教堂",
    "city": "青岛"
  },
  {
    "name": "八大关风景区-公主楼",
    "category": "sightseeing",
    "duration_minutes": 120,
    "rating": 4.0,
    "lat": 36.052506,
    "lon": 120.349532,
    "description": "地址: 八大关街道南区居庸关路10号八大关风景区内 | 类别: 风景名胜;风景名胜;观景点",
    "city": "青岛"
  },
  {
    "name": "海合安·青岛极地海洋公园",
    "category": "outdoor",
    "duration_minutes": 120,
    "rating": 4.0,
    "lat": 36.069211,
    "lon": 120.442663,
    "description": "电话: 0532-80999777 | 地址: 东海东路60号 | 类别: 风景名胜;公园广场;水族馆",
    "city": "青岛"
  },
  {
    "name": "青岛网红墙",
    "category": "sightseeing",
    "duration_minutes": 120,
    "rating": 4.0,
    "lat": 36.061402,
    "lon": 120.331631,
    "description": "地址: 大学路与龙口路交叉口(人民会堂地铁站B口步行170米) | 类别: 风景名胜;风景名胜;风景名胜",
    "city": "青岛"
  },
  {
    "name": "青岛市植物园",
    "category": "outdoor",
    "duration_minutes": 120,
    "rating": 4.0,
    "lat": 36.061495,
    "lon": 120.361766,
    "description": "电话: 0532-83861179;0532-83897907;0532-83879607 | 地址: 郧阳路7号 | 类别: 风景名胜;公园广场;植物园",
    "city": "青岛"
  },
  {
    "name": "花石楼",
    "category": "sightseeing",
    "duration_minutes": 120,
    "rating": 4.0,
    "lat": 36.050238,
    "lon": 120.353492,
    "description": "电话: 0532-83872168 | 地址: 黄海路18号 | 类别: 风景名胜;风景名胜;风景名胜",
    "city": "青岛"
  },
  {
    "name": "中山公园太平山观光索道",
    "category": "outdoor",
    "duration_minutes": 120,
    "rating": 4.0,
    "lat": 36.067958,
    "lon": 120.357501,
    "description": "电话: 4006876588 | 地址: 太平山路1号 | 类别: 风景名胜;风景名胜;风景名胜",
    "city": "青岛"
  },
  {
    "name": "小青岛公园",
    "category": "outdoor",
    "duration_minutes": 120,
    "rating": 4.0,
    "lat": 36.053098,
    "lon": 120.323783,
    "description": "电话: 0532-82863944 | 地址: 琴屿路26号 | 类别: 风景名胜;公园广场;公园",
    "city": "青岛"
  },
  {
    "name": "青岛栈桥广场",
    "category": "history",
    "duration_minutes": 120,
    "rating": 4.0,
    "lat": 36.059561,
    "lon": 120.327439,
    "description": "地址: 江苏路街道太平路8号(人民会堂地铁站E口步行290米) | 类别: 购物服务;商场;商场",
    "city": "青岛"
  },
  {
    "name": "奥帆之星广场",
    "category": "sightseeing",
    "duration_minutes": 120,
    "rating": 4.0,
    "lat": 36.056242,
    "lon": 120.396691,
    "description": "地址: 澳门路98号(奥帆中心内) | 类别: 购物服务;商场;普通商场",
    "city": "青岛"
  },
  {
    "name": "百花苑",
    "category": "sightseeing",
    "duration_minutes": 120,
    "rating": 4.0,
    "lat": 36.0657,
    "lon": 120.345011,
    "description": "电话: 0532-82862461 | 地址: 八大关街道八大关街道延安一路55号 | 类别: 风景名胜;风景名胜;国家级景点",
    "city": "青岛"
  },
  {
    "name": "青岛德国总督楼旧址博物馆",
    "category": "museum",
    "duration_minutes": 120,
    "rating": 4.0,
    "lat": 36.064939,
    "lon": 120.332953,
    "description": "电话: 0532-82868838 | 地址: 龙山路26号(信号山青大附院地铁站B2口步行190米) | 类别: 风景名胜;风景名胜;省级景点",
    "city": "青岛"
  },
  {
    "name": "青岛观音寺",
    "category": "history",
    "duration_minutes": 120,
    "rating": 4.0,
    "lat": 36.093459,
    "lon": 120.397887,
    "description": "电话: 0532-82960939 | 地址: 辽源路街道福州北路84号 | 类别: 风景名胜;风景名胜;寺庙道观",
    "city": "青岛"
  },
  {
    "name": "汇泉广场",
    "category": "outdoor",
    "duration_minutes": 120,
    "rating": 4.0,
    "lat": 36.058387,
    "lon": 120.345606,
    "description": "地址: 文登路1号(汇泉广场地铁站B口步行390米) | 类别: 风景名胜;公园广场;公园",
    "city": "青岛"
  },
  {
    "name": "青岛革命烈士纪念馆",
    "category": "history",
    "duration_minutes": 120,
    "rating": 4.0,
    "lat": 36.066579,
    "lon": 120.363179,
    "description": "电话: 0532-83863750;0532-83861236 | 地址: 芝泉路6号 | 类别: 风景名胜;风景名胜;纪念馆",
    "city": "青岛"
  },
  {
    "name": "八大别墅区-蝴蝶楼",
    "category": "sightseeing",
    "duration_minutes": 120,
    "rating": 4.0,
    "lat": 36.049924,
    "lon": 120.345998,
    "description": "电话: 0532-83869357 | 地址: 山海关路21号 | 类别: 风景名胜;风景名胜;风景名胜",
    "city": "青岛"
  },
  {
    "name": "中国雕塑院·青岛雕塑园",
    "category": "sightseeing",
    "duration_minutes": 120,
    "rating": 4.0,
    "lat": 36.079683,
    "lon": 120.454678,
    "description": "电话: 0532-88707755 | 地址: 东海东路66号(东海东路和海青路交叉口) | 类别: 风景名胜;风景名胜;国家级景点",
    "city": "青岛"
  },
  {
    "name": "云上艺术中心",
    "category": "sightseeing",
    "duration_minutes": 120,
    "rating": 4.0,
    "lat": 36.056742,
    "lon": 120.369609,
    "description": "电话: 0532-55958888 | 地址: 湛山街道香港西路48号海天中心T2塔楼80层 | 类别: 商务住宅;楼宇;商务写字楼|风景名胜;风景名胜;风景名胜",
    "city": "青岛"
  },
  {
    "name": "燕岛山公园",
    "category": "outdoor",
    "duration_minutes": 120,
    "rating": 4.0,
    "lat": 36.053777,
    "lon": 120.396421,
    "description": "地址: 青岛奥帆中心景区东侧 | 类别: 风景名胜;公园广场;公园",
    "city": "青岛"
  },
  {
    "name": "青岛石老人海水浴场",
    "category": "outdoor",
    "duration_minutes": 120,
    "rating": 4.0,
    "lat": 36.09168,
    "lon": 120.46801,
    "description": "电话: 0532-88890308 | 地址: 海口路287号 | 类别: 体育休闲服务;运动场馆;海滨浴场",
    "city": "青岛"
  },
  {
    "name": "孤独的树",
    "category": "sightseeing",
    "duration_minutes": 120,
    "rating": 4.0,
    "lat": 36.054469,
    "lon": 120.330968,
    "description": "地址: 琴屿路与滨海绿道交叉口西100米 | 类别: 风景名胜;风景名胜;风景名胜",
    "city": "青岛"
  },
  {
    "name": "青岛北岭山森林公园",
    "category": "outdoor",
    "duration_minutes": 120,
    "rating": 4.0,
    "lat": 36.119684,
    "lon": 120.370176,
    "description": "电话: 0532-84851988 | 地址: 南丰路 | 类别: 风景名胜;风景名胜;风景名胜",
    "city": "青岛"
  },
  {
    "name": "奥帆帆码头",
    "category": "sightseeing",
    "duration_minutes": 120,
    "rating": 4.0,
    "lat": 36.059595,
    "lon": 120.391207,
    "description": "地址: 奥林匹克帆船中心·奥帆海洋文化旅游区(西北角) | 类别: 风景名胜;风景名胜;风景名胜",
    "city": "青岛"
  },
  {
    "name": "奥帆博物馆",
    "category": "museum",
    "duration_minutes": 120,
    "rating": 4.0,
    "lat": 36.053175,
    "lon": 120.394317,
    "description": "电话: 0532-66562015 | 地址: 奥帆路3号 | 类别: 科教文化服务;博物馆;博物馆",
    "city": "青岛"
  },
  {
    "name": "太平山",
    "category": "outdoor",
    "duration_minutes": 120,
    "rating": 4.0,
    "lat": 36.065367,
    "lon": 120.359331,
    "description": "地址: 八大关街道文登路28号青岛中山公园内 | 类别: 地名地址信息;自然地名;山|风景名胜;风景名胜相关;旅游景点",
    "city": "青岛"
  },
  {
    "name": "青岛市海泊河公园",
    "category": "outdoor",
    "duration_minutes": 120,
    "rating": 4.0,
    "lat": 36.095879,
    "lon": 120.356415,
    "description": "电话: 0532-83716454 | 地址: 康宁路1号(海泊桥海慈医疗地铁站A口步行210米) | 类别: 风景名胜;公园广场;公园",
    "city": "青岛"
  },
  {
    "name": "孤独的树",
    "category": "sightseeing",
    "duration_minutes": 120,
    "rating": 4.0,
    "lat": 36.052909,
    "lon": 120.429805,
    "description": "地址: 香港东路6号 | 类别: 风景名胜;风景名胜;风景名胜",
    "city": "青岛"
  },
  {
    "name": "青岛清真寺",
    "category": "sightseeing",
    "duration_minutes": 120,
    "rating": 4.0,
    "lat": 36.097677,
    "lon": 120.412533,
    "description": "电话: 0532-82865537 | 地址: 同安路579号 | 类别: 风景名胜;风景名胜;回教寺",
    "city": "青岛"
  },
  {
    "name": "海趣园",
    "category": "outdoor",
    "duration_minutes": 120,
    "rating": 4.0,
    "lat": 36.058278,
    "lon": 120.375544,
    "description": "地址: 东海西路8号(延安三路地铁站C口步行390米) | 类别: 风景名胜;公园广场;公园",
    "city": "青岛"
  },
  {
    "name": "巧克巧蔻巧克力博物馆",
    "category": "museum",
    "duration_minutes": 120,
    "rating": 4.0,
    "lat": 36.070886,
    "lon": 120.318804,
    "description": "电话: 17657037665 | 地址: 中山路139号(中山路地铁站D口步行230米) | 类别: 科教文化服务;博物馆;博物馆",
    "city": "青岛"
  },
  {
    "name": "青岛奥帆中心游艇会码头",
    "category": "sightseeing",
    "duration_minutes": 120,
    "rating": 4.0,
    "lat": 36.058368,
    "lon": 120.39402,
    "description": "电话: 0532-85733357 | 地址: 澳门路86号奥帆中心内 | 类别: 风景名胜;风景名胜;风景名胜",
    "city": "青岛"
  },
  {
    "name": "上街里·三江里",
    "category": "outdoor",
    "duration_minutes": 120,
    "rating": 4.0,
    "lat": 36.070141,
    "lon": 120.323129,
    "description": "地址: 中山路街道济宁路24号(中山路地铁站B口步行350米) | 类别: 风景名胜;风景名胜相关;旅游景点",
    "city": "青岛"
  },
  {
    "name": "八大湖公园",
    "category": "outdoor",
    "duration_minutes": 120,
    "rating": 4.0,
    "lat": 36.079107,
    "lon": 120.389448,
    "description": "地址: 太湖路19号(宁夏路地铁站C口步行470米) | 类别: 风景名胜;公园广场;公园",
    "city": "青岛"
  },
  {
    "name": "观海木栈道",
    "category": "outdoor",
    "duration_minutes": 120,
    "rating": 4.0,
    "lat": 36.054297,
    "lon": 120.406252,
    "description": "地址: 珠海路街道澳门路138号燕儿岛智慧公园(东南角) | 类别: 风景名胜;风景名胜;风景名胜",
    "city": "青岛"
  },
  {
    "name": "青岛德国监狱旧址博物馆",
    "category": "museum",
    "duration_minutes": 120,
    "rating": 4.0,
    "lat": 36.061521,
    "lon": 120.32873,
    "description": "电话: 0532-82876273 | 地址: 常州路23号 | 类别: 科教文化服务;博物馆;博物馆",
    "city": "青岛"
  },
  {
    "name": "彩虹桥(滨海步行道)",
    "category": "outdoor",
    "duration_minutes": 120,
    "rating": 4.0,
    "lat": 36.060502,
    "lon": 120.389779,
    "description": "地址: 澳门路与清远路交叉口西南60米 | 类别: 风景名胜;风景名胜;风景名胜",
    "city": "青岛"
  },
  {
    "name": "青岛浮山湾灯光秀",
    "category": "outdoor",
    "duration_minutes": 120,
    "rating": 4.0,
    "lat": 36.057758,
    "lon": 120.380684,
    "description": "地址: 湛山街道浮山湾 | 类别: 风景名胜;风景名胜相关;旅游景点",
    "city": "青岛"
  },
  {
    "name": "老舍故居",
    "category": "history",
    "duration_minutes": 120,
    "rating": 4.0,
    "lat": 36.062297,
    "lon": 120.331836,
    "description": "电话: 0532-82867580 | 地址: 黄县路12号(人民会堂地铁站B口步行350米) | 类别: 风景名胜;风景名胜;纪念馆",
    "city": "青岛"
  },
  {
    "name": "青岛基督教堂",
    "category": "sightseeing",
    "duration_minutes": 120,
    "rating": 4.0,
    "lat": 36.065159,
    "lon": 120.327975,
    "description": "电话: 0532-82865970 | 地址: 江苏路15号(近沂水路) | 类别: 风景名胜;风景名胜;教堂",
    "city": "青岛"
  },
  {
    "name": "中国(青岛)水彩画博物馆(筹)",
    "category": "museum",
    "duration_minutes": 120,
    "rating": 4.0,
    "lat": 36.061677,
    "lon": 120.332632,
    "description": "电话: 0532-82868762;0532-82888886 | 地址: 金口路街道大学路7号(人民会堂地铁站B口步行280米) | 类别: 科教文化服务;博物馆;博物馆",
    "city": "青岛"
  },
  {
    "name": "中国水准零点景区",
    "category": "sightseeing",
    "duration_minutes": 120,
    "rating": 4.0,
    "lat": 36.055614,
    "lon": 120.422936,
    "description": "电话: 13969676988 | 地址: 东海中路30号银海大世界院内 | 类别: 风景名胜;风景名胜;国家级景点",
    "city": "青岛"
  },
  {
    "name": "观象山公园",
    "category": "outdoor",
    "duration_minutes": 120,
    "rating": 4.0,
    "lat": 36.070221,
    "lon": 120.3267,
    "description": "地址: 江苏路街道江苏路街道观象二路21号 | 类别: 风景名胜;公园广场;公园",
    "city": "青岛"
  },
  {
    "name": "青小园小麦岛入口东园",
    "category": "outdoor",
    "duration_minutes": 120,
    "rating": 4.0,
    "lat": 36.058557,
    "lon": 120.429438,
    "description": "地址: 麦岛路与东海中路交叉口南340米 | 类别: 风景名胜;公园广场;公园",
    "city": "青岛"
  },
  {
    "name": "中山公园-小西湖",
    "category": "outdoor",
    "duration_minutes": 120,
    "rating": 4.0,
    "lat": 36.063766,
    "lon": 120.345192,
    "description": "地址: 文登路28号青岛中山公园内(西侧) | 类别: 风景名胜;风景名胜相关;旅游景点",
    "city": "青岛"
  },
  {
    "name": "青岛第一海水浴场-沙滩",
    "category": "outdoor",
    "duration_minutes": 120,
    "rating": 4.0,
    "lat": 36.057009,
    "lon": 120.342208,
    "description": "地址: 南海路23号(近汇泉湾广场王朝大酒店)青岛第一海水浴场停车场 | 类别: 风景名胜;风景名胜;海滩",
    "city": "青岛"
  },
  {
    "name": "七观台风景点",
    "category": "sightseeing",
    "duration_minutes": 120,
    "rating": 4.0,
    "lat": 36.083245,
    "lon": 120.440059,
    "description": "地址: 御景峰北侧260米 | 类别: 风景名胜;风景名胜;风景名胜",
    "city": "青岛"
  },
  {
    "name": "青岛老城文化旅游区",
    "category": "sightseeing",
    "duration_minutes": 120,
    "rating": 4.0,
    "lat": 36.067176,
    "lon": 120.319031,
    "description": "地址: 曲阜路与中山路交叉口东北60米 | 类别: 风景名胜;风景名胜相关;旅游景点",
    "city": "青岛"
  },
  {
    "name": "劈柴院",
    "category": "sightseeing",
    "duration_minutes": 120,
    "rating": 4.0,
    "lat": 36.071261,
    "lon": 120.31793,
    "description": "地址: 北京路16号(中山路地铁站D口步行360米) | 类别: 购物服务;特色商业街;特色商业街",
    "city": "青岛"
  },
  {
    "name": "燕儿山网红洞",
    "category": "outdoor",
    "duration_minutes": 120,
    "rating": 4.0,
    "lat": 36.059136,
    "lon": 120.415554,
    "description": "地址: 珠海路街道东海中路103号 | 类别: 风景名胜;风景名胜;风景名胜",
    "city": "青岛"
  },
  {
    "name": "海云庵",
    "category": "history",
    "duration_minutes": 120,
    "rating": 4.0,
    "lat": 36.111425,
    "lon": 120.350562,
    "description": "电话: 0532-86120277 | 地址: 民俗小吃街 | 类别: 风景名胜;风景名胜;寺庙道观",
    "city": "青岛"
  },
  {
    "name": "青岛消防博物馆",
    "category": "museum",
    "duration_minutes": 120,
    "rating": 4.0,
    "lat": 36.079118,
    "lon": 120.384438,
    "description": "电话: 0532-81851113 | 地址: 金湖路16号 | 类别: 科教文化服务;博物馆;博物馆",
    "city": "青岛"
  },
  {
    "name": "青岛动物园-西区",
    "category": "sightseeing",
    "duration_minutes": 120,
    "rating": 4.0,
    "lat": 36.068741,
    "lon": 120.348768,
    "description": "电话: 0532-82872970 | 地址: 延安一路102号青岛动物园 | 类别: 风景名胜;风景名胜相关;旅游景点",
    "city": "青岛"
  },
  {
    "name": "康有为故居纪念馆",
    "category": "history",
    "duration_minutes": 120,
    "rating": 4.0,
    "lat": 36.059884,
    "lon": 120.339375,
    "description": "电话: 0532-82879957;0532-82969239 | 地址: 福山支路5号 | 类别: 风景名胜;风景名胜;纪念馆",
    "city": "青岛"
  },
  {
    "name": "四方机车公园",
    "category": "outdoor",
    "duration_minutes": 120,
    "rating": 4.0,
    "lat": 36.107126,
    "lon": 120.350331,
    "description": "地址: 杭州路16号 | 类别: 风景名胜;公园广场;公园",
    "city": "青岛"
  },
  {
    "name": "冰山之角",
    "category": "outdoor",
    "duration_minutes": 120,
    "rating": 4.0,
    "lat": 36.068103,
    "lon": 120.438905,
    "description": "电话: 0532-80999066 | 地址: 东海东路52号 | 类别: 风景名胜;风景名胜;风景名胜",
    "city": "青岛"
  },
  {
    "name": "大鲍岛上街里",
    "category": "sightseeing",
    "duration_minutes": 120,
    "rating": 4.0,
    "lat": 36.074594,
    "lon": 120.321352,
    "description": "电话: 0532-58587199 | 地址: 市场二路振业大厦东侧约30米 | 类别: 购物服务;综合市场;农副产品市场",
    "city": "青岛"
  },
  {
    "name": "江西路游园",
    "category": "outdoor",
    "duration_minutes": 120,
    "rating": 4.0,
    "lat": 36.072002,
    "lon": 120.37079,
    "description": "地址: 江西路18-24附近(芝泉路地铁站B口步行380米) | 类别: 风景名胜;公园广场;城市广场",
    "city": "青岛"
  },
  {
    "name": "银海游艇",
    "category": "outdoor",
    "duration_minutes": 120,
    "rating": 4.0,
    "lat": 36.05738,
    "lon": 120.42409,
    "description": "电话: 0532-85880000;12301 | 地址: 东海中路30号 | 类别: 风景名胜;风景名胜;风景名胜",
    "city": "青岛"
  },
  {
    "name": "五四广场五月的风",
    "category": "sightseeing",
    "duration_minutes": 120,
    "rating": 4.0,
    "lat": 36.061427,
    "lon": 120.385265,
    "description": "地址: 东海西路35号 | 类别: 风景名胜;风景名胜;风景名胜",
    "city": "青岛"
  },
  {
    "name": "青岛第三海水浴场(暂停营业)",
    "category": "outdoor",
    "duration_minutes": 120,
    "rating": 4.0,
    "lat": 36.050451,
    "lon": 120.365486,
    "description": "地址: 湛山五路5号 | 类别: 体育休闲服务;运动场馆;海滨浴场|生活服务;洗浴推拿场所;洗浴推拿场所",
    "city": "青岛"
  },
  {
    "name": "小麦岛公园",
    "category": "outdoor",
    "duration_minutes": 120,
    "rating": 4.0,
    "lat": 36.054245,
    "lon": 120.431045,
    "description": "地址: 中韩街道麦岛 | 类别: 风景名胜;风景名胜;风景名胜",
    "city": "青岛"
  },
  {
    "name": "崂山环海线(暂停营业)",
    "category": "outdoor",
    "duration_minutes": 120,
    "rating": 4.0,
    "lat": 36.060893,
    "lon": 120.381867,
    "description": "电话: 13006500252 | 地址: 澳门路13号 | 类别: 生活服务;旅行社;旅行社",
    "city": "青岛"
  },
  {
    "name": "青岛山一战遗址公园(暂停开放)",
    "category": "outdoor",
    "duration_minutes": 120,
    "rating": 4.0,
    "lat": 36.069595,
    "lon": 120.34313,
    "description": "电话: 0532-82791918;0532-82873567 | 地址: 八大关街道京山路26号 | 类别: 风景名胜;公园广场;公园",
    "city": "青岛"
  },
  {
    "name": "灯塔",
    "category": "history",
    "duration_minutes": 120,
    "rating": 4.0,
    "lat": 36.052805,
    "lon": 120.387676,
    "description": "地址: 东海西路24号海滨风景区内(东侧) | 类别: 风景名胜;风景名胜相关;旅游景点",
    "city": "青岛"
  },
  {
    "name": "青岛一战遗址博物馆(暂停开放)",
    "category": "museum",
    "duration_minutes": 120,
    "rating": 4.0,
    "lat": 36.068849,
    "lon": 120.345103,
    "description": "电话: 0532-82791918 | 地址: 京山路26号 | 类别: 科教文化服务;博物馆;博物馆",
    "city": "青岛"
  },
  {
    "name": "青岛山炮台遗址(暂停开放)",
    "category": "outdoor",
    "duration_minutes": 120,
    "rating": 4.0,
    "lat": 36.069374,
    "lon": 120.342894,
    "description": "电话: 0532-82866672;12301 | 地址: 京山路26号 | 类别: 风景名胜;风景名胜;省级景点",
    "city": "青岛"
  },
  {
    "name": "八大峡广场",
    "category": "outdoor",
    "duration_minutes": 120,
    "rating": 4.0,
    "lat": 36.05303,
    "lon": 120.309569,
    "description": "电话: 0532-88627725 | 地址: 八大峡街道巫峡路2号 | 类别: 风景名胜;公园广场;城市广场",
    "city": "青岛"
  },
  {
    "name": "海涛园",
    "category": "outdoor",
    "duration_minutes": 120,
    "rating": 4.0,
    "lat": 36.053577,
    "lon": 120.366757,
    "description": "地址: 东海西路 | 类别: 风景名胜;风景名胜;风景名胜",
    "city": "青岛"
  },
  {
    "name": "青岛栈桥海水浴场(暂停营业)",
    "category": "outdoor",
    "duration_minutes": 120,
    "rating": 4.0,
    "lat": 36.062106,
    "lon": 120.31574,
    "description": "电话: 0532-82868575 | 地址: 太平路14号(近栈桥)(青岛站地铁站G口步行210米) | 类别: 体育休闲服务;运动场馆;海滨浴场",
    "city": "青岛"
  },
  {
    "name": "浮山湾",
    "category": "outdoor",
    "duration_minutes": 120,
    "rating": 4.0,
    "lat": 36.057803,
    "lon": 120.380732,
    "description": "地址: 澳门路与惠东路交叉口南140米 | 类别: 风景名胜;风景名胜;风景名胜",
    "city": "青岛"
  },
  {
    "name": "燕岛秋潮",
    "category": "sightseeing",
    "duration_minutes": 120,
    "rating": 4.0,
    "lat": 36.052325,
    "lon": 120.396613,
    "description": "地址: 燕儿岛路1号青岛奥林匹克帆船中心内 | 类别: 风景名胜;风景名胜相关;旅游景点",
    "city": "青岛"
  },
  {
    "name": "青岛市博物馆",
    "category": "museum",
    "duration_minutes": 120,
    "rating": 4.0,
    "lat": 36.101532,
    "lon": 120.473116,
    "description": "电话: 0532-88896286 | 地址: 梅岭东路51号(会展中心地铁站E口步行300米) | 类别: 科教文化服务;博物馆;博物馆",
    "city": "青岛"
  },
  {
    "name": "天后宫",
    "category": "history",
    "duration_minutes": 120,
    "rating": 4.0,
    "lat": 36.0617,
    "lon": 120.327255,
    "description": "电话: 0532-82880728 | 地址: 太平路19号(人民会堂地铁站A口步行290米) | 类别: 风景名胜;风景名胜;风景名胜",
    "city": "青岛"
  },
  {
    "name": "青岛邮电博物馆",
    "category": "museum",
    "duration_minutes": 120,
    "rating": 4.0,
    "lat": 36.063461,
    "lon": 120.321815,
    "description": "电话: 0532-82872386 | 地址: 安徽路5号 | 类别: 科教文化服务;博物馆;博物馆",
    "city": "青岛"
  },
  {
    "name": "金沙滩",
    "category": "sightseeing",
    "duration_minutes": 120,
    "rating": 4.0,
    "lat": 35.95721,
    "lon": 120.24513,
    "description": "电话: 0532-86707399 | 地址: 金沙滩路 | 类别: 风景名胜;风景名胜;海滩",
    "city": "青岛"
  },
  {
    "name": "爱心树",
    "category": "sightseeing",
    "duration_minutes": 120,
    "rating": 4.0,
    "lat": 36.057328,
    "lon": 120.341838,
    "description": "地址: 南海路14号第一海水浴场内 | 类别: 风景名胜;风景名胜;风景名胜",
    "city": "青岛"
  },
  {
    "name": "安娜别墅",
    "category": "sightseeing",
    "duration_minutes": 120,
    "rating": 4.0,
    "lat": 36.06681,
    "lon": 120.320117,
    "description": "电话: 13465423149 | 地址: 浙江路与曲阜路交叉口西南40米 | 类别: 购物服务;特色商业街;特色商业街|风景名胜;风景名胜相关;旅游景点",
    "city": "青岛"
  },
  {
    "name": "薛家岛旅游度假区",
    "category": "sightseeing",
    "duration_minutes": 120,
    "rating": 4.0,
    "lat": 35.956321,
    "lon": 120.239211,
    "description": "地址: 长江中路1号 | 类别: 风景名胜;风景名胜;省级景点",
    "city": "青岛"
  },
  {
    "name": "八大关风景区-居庸关路14号",
    "category": "sightseeing",
    "duration_minutes": 120,
    "rating": 4.0,
    "lat": 36.052616,
    "lon": 120.350431,
    "description": "电话: 0532-83869357 | 地址: 居庸关路14号 | 类别: 风景名胜;风景名胜相关;旅游景点",
    "city": "青岛"
  },
  {
    "name": "中共青岛党史纪念馆",
    "category": "history",
    "duration_minutes": 120,
    "rating": 4.0,
    "lat": 36.107477,
    "lon": 120.344061,
    "description": "电话: 0532-83718027 | 地址: 海岸路18号 | 类别: 风景名胜;风景名胜;纪念馆",
    "city": "青岛"
  },
  {
    "name": "浮山森林公园-荒草庵",
    "category": "history",
    "duration_minutes": 120,
    "rating": 4.0,
    "lat": 36.08007,
    "lon": 120.429094,
    "description": "地址: 银川西路浮山森林公园(西南角) | 类别: 风景名胜;风景名胜;寺庙道观",
    "city": "青岛"
  },
  {
    "name": "青岛葡萄酒博物馆(暂停开放)",
    "category": "museum",
    "duration_minutes": 120,
    "rating": 4.0,
    "lat": 36.072515,
    "lon": 120.347857,
    "description": "电话: 0532-82718388;0532-82718399 | 地址: 延安一路68号 | 类别: 科教文化服务;博物馆;博物馆",
    "city": "青岛"
  },
  {
    "name": "贮水山儿童公园",
    "category": "outdoor",
    "duration_minutes": 120,
    "rating": 4.0,
    "lat": 36.079885,
    "lon": 120.33655,
    "description": "地址: 辽宁路280号(近黄台路) | 类别: 风景名胜;公园广场;公园广场",
    "city": "青岛"
  },
  {
    "name": "八大关风景区-山海关路11号",
    "category": "outdoor",
    "duration_minutes": 120,
    "rating": 4.0,
    "lat": 36.051327,
    "lon": 120.35019,
    "description": "电话: 0532-83869357 | 地址: 八大关街道山海关路11号 | 类别: 风景名胜;风景名胜相关;旅游景点",
    "city": "青岛"
  },
  {
    "name": "平行世界公园",
    "category": "outdoor",
    "duration_minutes": 120,
    "rating": 4.0,
    "lat": 36.147496,
    "lon": 120.460841,
    "description": "地址: 科苑经七路与枣山东路交叉口南200米 | 类别: 风景名胜;公园广场;公园",
    "city": "青岛"
  },
  {
    "name": "假日海滩",
    "category": "outdoor",
    "duration_minutes": 120,
    "rating": 4.0,
    "lat": 36.055542,
    "lon": 120.40785,
    "description": "地址: 观潮路与东海中路交叉口东南220米 | 类别: 风景名胜;风景名胜;海滩",
    "city": "青岛"
  },
  {
    "name": "老舍公园",
    "category": "outdoor",
    "duration_minutes": 120,
    "rating": 4.0,
    "lat": 36.065725,
    "lon": 120.32181,
    "description": "地址: 安徽路19号 | 类别: 风景名胜;公园广场;公园",
    "city": "青岛"
  },
  {
    "name": "辛家庄北山体育文化公园",
    "category": "outdoor",
    "duration_minutes": 120,
    "rating": 4.0,
    "lat": 36.072691,
    "lon": 120.411547,
    "description": "地址: 莆田路与龙岩路交叉口西北100米 | 类别: 风景名胜;公园广场;公园",
    "city": "青岛"
  },
  {
    "name": "居庸关路木栈道",
    "category": "sightseeing",
    "duration_minutes": 120,
    "rating": 4.0,
    "lat": 36.05223,
    "lon": 120.352421,
    "description": "电话: 0532-83869357 | 地址: 居庸关路与宁武关路交叉口东80米 | 类别: 风景名胜;风景名胜;风景名胜",
    "city": "青岛"
  },
  {
    "name": "青岛世界园艺博览园",
    "category": "sightseeing",
    "duration_minutes": 120,
    "rating": 4.0,
    "lat": 36.197891,
    "lon": 120.496828,
    "description": "电话: 4001890532 | 地址: 世园大道 | 类别: 风景名胜;风景名胜相关;旅游景点",
    "city": "青岛"
  },
  {
    "name": "极地之光·青岛海上摩天轮",
    "category": "outdoor",
    "duration_minutes": 120,
    "rating": 4.0,
    "lat": 36.067722,
    "lon": 120.443268,
    "description": "电话: 0532-80999777;0532-85909999 | 地址: 东海东路60号海合安·青岛极地海洋公园内(南侧) | 类别: 体育休闲服务;体育休闲服务场所;体育休闲服务场所",
    "city": "青岛"
  },
  {
    "name": "砂砾海滩",
    "category": "outdoor",
    "duration_minutes": 120,
    "rating": 4.0,
    "lat": 36.059585,
    "lon": 120.412087,
    "description": "地址: 东海中路与台湾路交叉口东40米 | 类别: 体育休闲服务;运动场馆;海滨浴场",
    "city": "青岛"
  },
  {
    "name": "石老人观光园",
    "category": "sightseeing",
    "duration_minutes": 120,
    "rating": 4.0,
    "lat": 36.098387,
    "lon": 120.507487,
    "description": "电话: 0532-88832599;0532-88890758 | 地址: 崂山路1号 | 类别: 风景名胜;风景名胜;国家级景点",
    "city": "青岛"
  },
  {
    "name": "沙子口休闲广场",
    "category": "sightseeing",
    "duration_minutes": 120,
    "rating": 4.0,
    "lat": 36.113192,
    "lon": 120.543701,
    "description": "地址: 沙子口街道崂山路109号 | 类别: 风景名胜;风景名胜;风景名胜",
    "city": "青岛"
  },
  {
    "name": "浮山森林公园宁乐广场",
    "category": "outdoor",
    "duration_minutes": 120,
    "rating": 4.0,
    "lat": 36.081887,
    "lon": 120.414307,
    "description": "地址: 宁德路6号 | 类别: 风景名胜;公园广场;公园广场",
    "city": "青岛"
  },
  {
    "name": "竹子庵公园",
    "category": "outdoor",
    "duration_minutes": 120,
    "rating": 4.0,
    "lat": 36.20479,
    "lon": 120.482034,
    "description": "地址: 崂山路青岛崂山国家级风景名胜区夏庄街道 | 类别: 风景名胜;风景名胜;寺庙道观|风景名胜;公园广场;公园",
    "city": "青岛"
  },
  {
    "name": "李慰农公园",
    "category": "outdoor",
    "duration_minutes": 120,
    "rating": 4.0,
    "lat": 36.060379,
    "lon": 120.313058,
    "description": "地址: 太平路32号 | 类别: 风景名胜;公园广场;公园",
    "city": "青岛"
  },
  {
    "name": "张村河生态公园",
    "category": "outdoor",
    "duration_minutes": 120,
    "rating": 4.0,
    "lat": 36.127668,
    "lon": 120.464154,
    "description": "地址: 合肥路与科苑经五路交叉口路北 | 类别: 风景名胜;公园广场;公园",
    "city": "青岛"
  },
  {
    "name": "石老人国家旅游度假区",
    "category": "sightseeing",
    "duration_minutes": 120,
    "rating": 4.0,
    "lat": 36.091026,
    "lon": 120.468891,
    "description": "电话: 0532-88890758 | 地址: 崂山路1号 | 类别: 体育休闲服务;度假疗养场所;度假村",
    "city": "青岛"
  },
  {
    "name": "德国领事馆旧址",
    "category": "sightseeing",
    "duration_minutes": 120,
    "rating": 4.0,
    "lat": 36.063052,
    "lon": 120.324965,
    "description": "地址: 青岛路1号(人民会堂地铁站A1口步行490米) | 类别: 风景名胜;风景名胜;省级景点",
    "city": "青岛"
  },
  {
    "name": "胶澳总督府旧址",
    "category": "sightseeing",
    "duration_minutes": 120,
    "rating": 4.0,
    "lat": 36.064927,
    "lon": 120.324548,
    "description": "地址: 沂水路11号(近青岛市政协) | 类别: 风景名胜;风景名胜;风景名胜",
    "city": "青岛"
  },
  {
    "name": "青岛方特梦幻王国",
    "category": "sightseeing",
    "duration_minutes": 120,
    "rating": 4.0,
    "lat": 36.208054,
    "lon": 120.283343,
    "description": "电话: 4001660006;0532-58759642 | 地址: 红岛街道岙东南路华强文化产业基地内 | 类别: 体育休闲服务;休闲场所;游乐场|风景名胜;风景名胜相关;旅游景点",
    "city": "青岛"
  },
  {
    "name": "八角广场",
    "category": "outdoor",
    "duration_minutes": 120,
    "rating": 4.0,
    "lat": 36.059189,
    "lon": 120.39294,
    "description": "地址: 香港中路街道澳门路121号青岛奥林匹克帆船中心内 | 类别: 风景名胜;公园广场;城市广场",
    "city": "青岛"
  },
  {
    "name": "中国青岛奥帆中心奥运火炬",
    "category": "sightseeing",
    "duration_minutes": 120,
    "rating": 4.0,
    "lat": 36.057405,
    "lon": 120.391002,
    "description": "电话: 0532-66562015;0532-82828998 | 地址: 澳门路121号青岛奥林匹克帆船中心内 | 类别: 风景名胜;风景名胜;风景名胜",
    "city": "青岛"
  },
  {
    "name": "海涛园-天地间",
    "category": "outdoor",
    "duration_minutes": 120,
    "rating": 4.0,
    "lat": 36.054413,
    "lon": 120.367543,
    "description": "地址: 湛山三路青岛海滨风景区(东南角) | 类别: 风景名胜;公园广场;城市广场",
    "city": "青岛"
  },
  {
    "name": "海之风广场",
    "category": "outdoor",
    "duration_minutes": 120,
    "rating": 4.0,
    "lat": 36.073812,
    "lon": 120.44834,
    "description": "地址: 东海东路千水千月广场 | 类别: 风景名胜;公园广场;城市广场",
    "city": "青岛"
  },
  {
    "name": "海泊河广场",
    "category": "outdoor",
    "duration_minutes": 120,
    "rating": 4.0,
    "lat": 36.089314,
    "lon": 120.370802,
    "description": "地址: 敦化路63号-甲号 | 类别: 风景名胜;公园广场;公园广场",
    "city": "青岛"
  },
  {
    "name": "石湾大士寺",
    "category": "history",
    "duration_minutes": 120,
    "rating": 4.0,
    "lat": 36.113325,
    "lon": 120.506417,
    "description": "电话: 13708963278 | 地址: 沙子口街道石湾村 | 类别: 风景名胜;风景名胜;寺庙道观",
    "city": "青岛"
  },
  {
    "name": "嘉定山公园",
    "category": "outdoor",
    "duration_minutes": 120,
    "rating": 4.0,
    "lat": 36.111959,
    "lon": 120.373999,
    "description": "地址: 上饶路北首 | 类别: 风景名胜;公园广场;公园",
    "city": "青岛"
  },
  {
    "name": "回澜阁",
    "category": "sightseeing",
    "duration_minutes": 120,
    "rating": 4.0,
    "lat": 36.058475,
    "lon": 120.320444,
    "description": "电话: 0532-82884548 | 地址: 太平路14号 | 类别: 风景名胜;风景名胜;风景名胜",
    "city": "青岛"
  },
  {
    "name": "浮山阳光大草坪·春蜂来",
    "category": "outdoor",
    "duration_minutes": 120,
    "rating": 4.0,
    "lat": 36.09369,
    "lon": 120.423094,
    "description": "地址: 银川西路97号 | 类别: 风景名胜;风景名胜;风景名胜",
    "city": "青岛"
  },
  {
    "name": "象耳山公园",
    "category": "outdoor",
    "duration_minutes": 120,
    "rating": 4.0,
    "lat": 36.144661,
    "lon": 120.444333,
    "description": "地址: 银液泉路与天茶山路交叉口东320米 | 类别: 风景名胜;公园广场;公园",
    "city": "青岛"
  },
  {
    "name": "青岛美高梅酒店南广场",
    "category": "outdoor",
    "duration_minutes": 120,
    "rating": 4.0,
    "lat": 36.097284,
    "lon": 120.466131,
    "description": "地址: 香港东路195号南广场(苗岭路地铁站F口步行270米) | 类别: 风景名胜;公园广场;城市广场",
    "city": "青岛"
  },
  {
    "name": "石老人",
    "category": "sightseeing",
    "duration_minutes": 120,
    "rating": 4.0,
    "lat": 36.088549,
    "lon": 120.495761,
    "description": "地址: 崂山路1号 | 类别: 风景名胜;风景名胜;风景名胜",
    "city": "青岛"
  },
  {
    "name": "太和山风景区",
    "category": "outdoor",
    "duration_minutes": 120,
    "rating": 4.0,
    "lat": 36.215651,
    "lon": 120.468588,
    "description": "地址: 夏庄街道太和社区 | 类别: 风景名胜;风景名胜;风景名胜",
    "city": "青岛"
  },
  {
    "name": "香港花园广场",
    "category": "outdoor",
    "duration_minutes": 120,
    "rating": 4.0,
    "lat": 36.066668,
    "lon": 120.406711,
    "description": "地址: 江西路160号(高雄路地铁站A口步行370米) | 类别: 风景名胜;公园广场;城市广场",
    "city": "青岛"
  },
  {
    "name": "赵太侔故居",
    "category": "history",
    "duration_minutes": 120,
    "rating": 4.0,
    "lat": 36.06296,
    "lon": 120.331191,
    "description": "地址: 江苏路街道龙江路7号(人民会堂地铁站B口步行380米) | 类别: 风景名胜;风景名胜;纪念馆",
    "city": "青岛"
  },
  {
    "name": "团岛山公园",
    "category": "outdoor",
    "duration_minutes": 120,
    "rating": 4.0,
    "lat": 36.057857,
    "lon": 120.29364,
    "description": "地址: 团岛山路1号(团岛地铁站A口步行450米) | 类别: 风景名胜;公园广场;公园",
    "city": "青岛"
  },
  {
    "name": "糖球广场",
    "category": "outdoor",
    "duration_minutes": 120,
    "rating": 4.0,
    "lat": 36.111438,
    "lon": 120.353831,
    "description": "地址: 遵化路23号 | 类别: 风景名胜;公园广场;公园广场",
    "city": "青岛"
  },
  {
    "name": "法海寺",
    "category": "history",
    "duration_minutes": 120,
    "rating": 4.0,
    "lat": 36.234489,
    "lon": 120.447244,
    "description": "电话: 0532-87797639 | 地址: 夏庄街道源头社区26号 | 类别: 风景名胜;风景名胜;寺庙道观",
    "city": "青岛"
  },
  {
    "name": "栈桥音乐家广场",
    "category": "outdoor",
    "duration_minutes": 120,
    "rating": 4.0,
    "lat": 36.062492,
    "lon": 120.320827,
    "description": "电话: 13176527510 | 地址: 太平路35号 | 类别: 风景名胜;公园广场;城市广场",
    "city": "青岛"
  },
  {
    "name": "金石博物馆",
    "category": "museum",
    "duration_minutes": 120,
    "rating": 4.0,
    "lat": 36.100097,
    "lon": 120.470292,
    "description": "电话: 0532-88977999 | 地址: 秦岭路8号 | 类别: 科教文化服务;博物馆;博物馆",
    "city": "青岛"
  },
  {
    "name": "李沧文化公园",
    "category": "outdoor",
    "duration_minutes": 120,
    "rating": 4.0,
    "lat": 36.168254,
    "lon": 120.42258,
    "description": "地址: 夏庄路126号 | 类别: 风景名胜;公园广场;公园",
    "city": "青岛"
  },
  {
    "name": "四方区海云庵广场",
    "category": "outdoor",
    "duration_minutes": 120,
    "rating": 4.0,
    "lat": 36.110948,
    "lon": 120.350246,
    "description": "地址: 兴隆路与嘉禾路交叉口东50米 | 类别: 风景名胜;公园广场;城市广场",
    "city": "青岛"
  },
  {
    "name": "崂山风景区",
    "category": "outdoor",
    "duration_minutes": 120,
    "rating": 4.0,
    "lat": 36.184922,
    "lon": 120.618274,
    "description": "电话: 0532-96616 | 地址: 崂山景区旅游专用路 | 类别: 风景名胜;风景名胜;国家级景点",
    "city": "青岛"
  },
  {
    "name": "西班牙风情馆",
    "category": "sightseeing",
    "duration_minutes": 120,
    "rating": 4.0,
    "lat": 36.051924,
    "lon": 120.349537,
    "description": "地址: 居庸关路11号 | 类别: 科教文化服务;科教文化场所;科教文化场所",
    "city": "青岛"
  },
  {
    "name": "红星燎原",
    "category": "sightseeing",
    "duration_minutes": 120,
    "rating": 4.0,
    "lat": 36.043885,
    "lon": 120.364764,
    "description": "地址: 青岛济军黑陶艺术馆东南侧140米 | 类别: 风景名胜;风景名胜;风景名胜",
    "city": "青岛"
  },
  {
    "name": "梦幻水母宫",
    "category": "outdoor",
    "duration_minutes": 120,
    "rating": 4.0,
    "lat": 36.055924,
    "lon": 120.33458,
    "description": "地址: 莱阳路2号青岛海底世界内(东北角) | 类别: 风景名胜;公园广场;水族馆",
    "city": "青岛"
  },
  {
    "name": "青岛市市南区湛山广场",
    "category": "outdoor",
    "duration_minutes": 120,
    "rating": 4.0,
    "lat": 36.060281,
    "lon": 120.369972,
    "description": "地址: 湛山广场(延安三路地铁站A口步行440米) | 类别: 风景名胜;公园广场;公园广场",
    "city": "青岛"
  },
  {
    "name": "青岛市市南区湛山广场",
    "category": "outdoor",
    "duration_minutes": 120,
    "rating": 4.0,
    "lat": 36.060281,
    "lon": 120.369972,
    "description": "地址: 湛山广场(延安三路地铁站A口步行440米) | 类别: 风景名胜;公园广场;公园广场",
    "city": "青岛"
  },
  {
    "name": "青岛西海岸金沙滩啤酒城",
    "category": "outdoor",
    "duration_minutes": 120,
    "rating": 4.0,
    "lat": 35.952345,
    "lon": 120.239158,
    "description": "电话: 0532-86870002 | 地址: 薛家岛街道西海岸新区金沙滩啤酒城17号大棚 | 类别: 风景名胜;公园广场;城市广场",
    "city": "青岛"
  },
  {
    "name": "青岛水族馆",
    "category": "outdoor",
    "duration_minutes": 120,
    "rating": 4.0,
    "lat": 36.056511,
    "lon": 120.335231,
    "description": "电话: 0532-82866614;0532-82892187 | 地址: 八大关街道莱阳路4号(近海军博物馆) | 类别: 风景名胜;公园广场;水族馆|购物服务;便民商店/便利店;便民商店/便利店",
    "city": "青岛"
  },
  {
    "name": "齐鲁康体公园",
    "category": "outdoor",
    "duration_minutes": 120,
    "rating": 4.0,
    "lat": 36.114714,
    "lon": 120.419974,
    "description": "地址: 齐鲁医院以北 | 类别: 风景名胜;公园广场;公园",
    "city": "青岛"
  },
  {
    "name": "南山公园",
    "category": "outdoor",
    "duration_minutes": 120,
    "rating": 4.0,
    "lat": 36.103368,
    "lon": 120.365356,
    "description": "地址: 阜新路街道鞍山二路42号 | 类别: 风景名胜;公园广场;公园",
    "city": "青岛"
  },
  {
    "name": "枫林涧",
    "category": "sightseeing",
    "duration_minutes": 120,
    "rating": 4.0,
    "lat": 36.062438,
    "lon": 120.350168,
    "description": "地址: 文登路28号青岛中山公园内(南侧) | 类别: 风景名胜;风景名胜相关;旅游景点",
    "city": "青岛"
  },
  {
    "name": "中国海洋大学鱼山校区海洋生物博物馆",
    "category": "museum",
    "duration_minutes": 120,
    "rating": 4.0,
    "lat": 36.062802,
    "lon": 120.335631,
    "description": "地址: 鱼山路5号中国海洋大学鱼山校区 | 类别: 科教文化服务;博物馆;博物馆",
    "city": "青岛"
  },
  {
    "name": "中山公园-桂花园",
    "category": "outdoor",
    "duration_minutes": 120,
    "rating": 4.0,
    "lat": 36.063769,
    "lon": 120.349908,
    "description": "地址: 文登路28号青岛中山公园内 | 类别: 风景名胜;风景名胜相关;旅游景点",
    "city": "青岛"
  },
  {
    "name": "浮山公园游乐场",
    "category": "outdoor",
    "duration_minutes": 120,
    "rating": 4.0,
    "lat": 36.093606,
    "lon": 120.427165,
    "description": "地址: 银川西路99号 | 类别: 体育休闲服务;休闲场所;游乐场",
    "city": "青岛"
  },
  {
    "name": "东莞路文化广场",
    "category": "outdoor",
    "duration_minutes": 120,
    "rating": 4.0,
    "lat": 36.103853,
    "lon": 120.385737,
    "description": "地址: 东莞路12号(清江路地铁站A口步行450米) | 类别: 风景名胜;公园广场;城市广场",
    "city": "青岛"
  },
  {
    "name": "鲁迅公园-凉亭",
    "category": "outdoor",
    "duration_minutes": 120,
    "rating": 4.0,
    "lat": 36.057875,
    "lon": 120.337777,
    "description": "电话: 0532-82860760 | 地址: 琴屿路26号鲁迅公园内 | 类别: 风景名胜;风景名胜相关;旅游景点",
    "city": "青岛"
  },
  {
    "name": "青岛第二海水浴场-瞭望台",
    "category": "outdoor",
    "duration_minutes": 120,
    "rating": 4.0,
    "lat": 36.050043,
    "lon": 120.351795,
    "description": "电话: 0532-66577309 | 地址: 山海关路6号青岛第二海水浴场 | 类别: 风景名胜;风景名胜相关;旅游景点",
    "city": "青岛"
  },
  {
    "name": "广兴里",
    "category": "sightseeing",
    "duration_minutes": 120,
    "rating": 4.0,
    "lat": 36.071206,
    "lon": 120.320799,
    "description": "地址: 海泊路63号(中山路地铁站D口对面) | 类别: 风景名胜;风景名胜相关;旅游景点",
    "city": "青岛"
  },
  {
    "name": "观海山公园",
    "category": "outdoor",
    "duration_minutes": 120,
    "rating": 4.0,
    "lat": 36.066996,
    "lon": 120.325166,
    "description": "地址: 观海二路东头(信号山青大附院地铁站A口步行490米) | 类别: 风景名胜;公园广场;公园",
    "city": "青岛"
  },
  {
    "name": "青岛沧口公园",
    "category": "outdoor",
    "duration_minutes": 120,
    "rating": 4.0,
    "lat": 36.185076,
    "lon": 120.388766,
    "description": "地址: 兴华路33号 | 类别: 风景名胜;公园广场;公园",
    "city": "青岛"
  },
  {
    "name": "青岛啤酒博物馆A馆",
    "category": "museum",
    "duration_minutes": 120,
    "rating": 4.0,
    "lat": 36.078878,
    "lon": 120.34622,
    "description": "电话: 0532-83833437 | 地址: 登州路56号青岛啤酒厂内 | 类别: 科教文化服务;博物馆;博物馆",
    "city": "青岛"
  },
  {
    "name": "八大关风景区-韶关路54号甲",
    "category": "sightseeing",
    "duration_minutes": 120,
    "rating": 4.0,
    "lat": 36.057871,
    "lon": 120.35157,
    "description": "电话: 0532-83869357 | 地址: 韶关路与香港西路交叉口西南40米 | 类别: 风景名胜;风景名胜;风景名胜",
    "city": "青岛"
  },
  {
    "name": "十梅庵公园",
    "category": "outdoor",
    "duration_minutes": 120,
    "rating": 4.0,
    "lat": 36.199364,
    "lon": 120.419416,
    "description": "地址: 十梅庵村东南侧 | 类别: 风景名胜;风景名胜相关;旅游景点",
    "city": "青岛"
  },
  {
    "name": "青岛贝林自然博物馆",
    "category": "museum",
    "duration_minutes": 120,
    "rating": 4.0,
    "lat": 36.079478,
    "lon": 120.333705,
    "description": "电话: 0532-58558667 | 地址: 辽宁路280号少年宫对面 | 类别: 科教文化服务;博物馆;博物馆",
    "city": "青岛"
  },
  {
    "name": "华·秀1902中心(纺织谷)",
    "category": "sightseeing",
    "duration_minutes": 120,
    "rating": 4.0,
    "lat": 36.145627,
    "lon": 120.377233,
    "description": "地址: 四流南路80号(中心医院地铁站B2口步行280米) | 类别: 商务住宅;产业园区;产业园区",
    "city": "青岛"
  },
  {
    "name": "伏龙山公园",
    "category": "outdoor",
    "duration_minutes": 120,
    "rating": 4.0,
    "lat": 36.069932,
    "lon": 120.333009,
    "description": "地址: 伏龙路5号 | 类别: 风景名胜;公园广场;公园",
    "city": "青岛"
  },
  {
    "name": "青岛鲁作博物馆",
    "category": "museum",
    "duration_minutes": 120,
    "rating": 4.0,
    "lat": 36.058243,
    "lon": 120.329898,
    "description": "电话: 0532-80978000 | 地址: 莱阳路28号(人民会堂地铁站D口步行160米) | 类别: 科教文化服务;博物馆;博物馆",
    "city": "青岛"
  },
  {
    "name": "元帅楼",
    "category": "sightseeing",
    "duration_minutes": 120,
    "rating": 4.0,
    "lat": 36.050894,
    "lon": 120.348155,
    "description": "电话: 0532-83869357 | 地址: 八大关街道武胜关支路10号八大关风景区(西南角) | 类别: 风景名胜;风景名胜;风景名胜",
    "city": "青岛"
  },
  {
    "name": "信号山公园-旋转观景楼",
    "category": "outdoor",
    "duration_minutes": 120,
    "rating": 4.0,
    "lat": 36.066936,
    "lon": 120.331304,
    "description": "地址: 龙山路16号甲 | 类别: 风景名胜;风景名胜;观景点",
    "city": "青岛"
  },
  {
    "name": "青小园牟平路游园口袋公园",
    "category": "outdoor",
    "duration_minutes": 120,
    "rating": 4.0,
    "lat": 36.062884,
    "lon": 120.344015,
    "description": "地址: 牟平路延安一路路口(汇泉广场地铁站A口步行450米) | 类别: 风景名胜;公园广场;公园",
    "city": "青岛"
  },
  {
    "name": "老虎山公园",
    "category": "outdoor",
    "duration_minutes": 120,
    "rating": 4.0,
    "lat": 36.182728,
    "lon": 120.414199,
    "description": "地址: 虎山路街道上犹路与文安东路交叉口东140米 | 类别: 风景名胜;公园广场;公园",
    "city": "青岛"
  },
  {
    "name": "富源广场",
    "category": "outdoor",
    "duration_minutes": 120,
    "rating": 4.0,
    "lat": 36.10798,
    "lon": 120.417532,
    "description": "地址: 浮山后二小区富源二路16号甲 | 类别: 风景名胜;公园广场;城市广场",
    "city": "青岛"
  },
  {
    "name": "浮山香苑",
    "category": "outdoor",
    "duration_minutes": 120,
    "rating": 4.0,
    "lat": 36.091687,
    "lon": 120.408035,
    "description": "地址: 同安路街道银川西路126号 | 类别: 风景名胜;公园广场;公园",
    "city": "青岛"
  },
  {
    "name": "青岛取引所旧址",
    "category": "sightseeing",
    "duration_minutes": 120,
    "rating": 4.0,
    "lat": 36.079277,
    "lon": 120.320916,
    "description": "电话: 0532-88888822;15863000022 | 地址: 即墨路街道馆陶路22号 | 类别: 风景名胜;风景名胜;风景名胜",
    "city": "青岛"
  },
  {
    "name": "唐岛湾景区",
    "category": "sightseeing",
    "duration_minutes": 120,
    "rating": 4.0,
    "lat": 35.922932,
    "lon": 120.195555,
    "description": "电话: 0532-86914001 | 地址: 薛家岛街道漓江西路674号 | 类别: 风景名胜;风景名胜;风景名胜",
    "city": "青岛"
  },
  {
    "name": "苏联公民协会旧址",
    "category": "sightseeing",
    "duration_minutes": 120,
    "rating": 4.0,
    "lat": 36.05464,
    "lon": 120.349395,
    "description": "电话: 0532-83869357 | 地址: 韶关路26号 | 类别: 风景名胜;风景名胜相关;旅游景点",
    "city": "青岛"
  },
  {
    "name": "白泥地公园",
    "category": "outdoor",
    "duration_minutes": 120,
    "rating": 4.0,
    "lat": 36.19906,
    "lon": 120.365081,
    "description": "地址: 环湾路 | 类别: 风景名胜;公园广场;公园",
    "city": "青岛"
  },
  {
    "name": "青岛动物园熊猫馆",
    "category": "outdoor",
    "duration_minutes": 120,
    "rating": 4.0,
    "lat": 36.070176,
    "lon": 120.350794,
    "description": "电话: 0532-82872970 | 地址: 青岛动物园-西区 | 类别: 风景名胜;公园广场;动物园",
    "city": "青岛"
  },
  {
    "name": "双山公园",
    "category": "outdoor",
    "duration_minutes": 120,
    "rating": 4.0,
    "lat": 36.115415,
    "lon": 120.388397,
    "description": "地址: 重庆南路与蚌埠路路口 | 类别: 风景名胜;公园广场;公园",
    "city": "青岛"
  },
  {
    "name": "中山公园-孙中山雕像",
    "category": "outdoor",
    "duration_minutes": 120,
    "rating": 4.0,
    "lat": 36.063162,
    "lon": 120.346741,
    "description": "地址: 青岛中山公园内(文东路28号) | 类别: 风景名胜;风景名胜;风景名胜",
    "city": "青岛"
  },
  {
    "name": "双拥公园",
    "category": "outdoor",
    "duration_minutes": 120,
    "rating": 4.0,
    "lat": 36.125139,
    "lon": 120.589215,
    "description": "地址: 大河东客服中心南停车场东200米 | 类别: 风景名胜;公园广场;公园",
    "city": "青岛"
  },
  {
    "name": "青岛国际俱乐部旧址",
    "category": "sightseeing",
    "duration_minutes": 120,
    "rating": 4.0,
    "lat": 36.062991,
    "lon": 120.319385,
    "description": "地址: 中山路1号(青岛站地铁站G口步行370米) | 类别: 风景名胜;风景名胜;风景名胜",
    "city": "青岛"
  },
  {
    "name": "崂山区深圳路体育公园",
    "category": "outdoor",
    "duration_minutes": 120,
    "rating": 4.0,
    "lat": 36.118893,
    "lon": 120.456498,
    "description": "地址: 银岭路北头 | 类别: 风景名胜;公园广场;公园",
    "city": "青岛"
  },
  {
    "name": "八大关风景区-太平角一路1号",
    "category": "sightseeing",
    "duration_minutes": 120,
    "rating": 4.0,
    "lat": 36.054565,
    "lon": 120.355891,
    "description": "电话: 0532-83869357 | 地址: 武胜关支路10号八大关风景区内(东侧) | 类别: 风景名胜;风景名胜相关;旅游景点",
    "city": "青岛"
  },
  {
    "name": "青岛中山路城市记忆馆",
    "category": "outdoor",
    "duration_minutes": 120,
    "rating": 4.0,
    "lat": 36.068084,
    "lon": 120.31794,
    "description": "电话: 15505323526 | 地址: 中山路72号 | 类别: 风景名胜;风景名胜;风景名胜",
    "city": "青岛"
  },
  {
    "name": "山海通廊",
    "category": "outdoor",
    "duration_minutes": 120,
    "rating": 4.0,
    "lat": 36.098268,
    "lon": 120.448231,
    "description": "地址: 苗岭路56号 | 类别: 风景名胜;风景名胜相关;旅游景点",
    "city": "青岛"
  },
  {
    "name": "欧式建筑",
    "category": "sightseeing",
    "duration_minutes": 120,
    "rating": 4.0,
    "lat": 36.065642,
    "lon": 120.330502,
    "description": "电话: 18661851818 | 地址: 龙山路18号拾花楼 | 类别: 商务住宅;住宅区;住宅小区",
    "city": "青岛"
  },
  {
    "name": "青岛37号公园",
    "category": "outdoor",
    "duration_minutes": 120,
    "rating": 4.0,
    "lat": 36.066175,
    "lon": 120.393152,
    "description": "电话: 4001183737 | 地址: 香港中路37号(香港中路与云霄路交汇处) | 类别: 商务住宅;产业园区;产业园区",
    "city": "青岛"
  },
  {
    "name": "TEU集装箱部落",
    "category": "sightseeing",
    "duration_minutes": 120,
    "rating": 4.0,
    "lat": 36.084784,
    "lon": 120.31198,
    "description": "地址: 港洲路1号 | 类别: 购物服务;商场;商场",
    "city": "青岛"
  },
  {
    "name": "螃蟹上岸雕塑",
    "category": "sightseeing",
    "duration_minutes": 120,
    "rating": 4.0,
    "lat": 36.057942,
    "lon": 120.375843,
    "description": "地址: 澳门路海趣园(东南角) | 类别: 风景名胜;风景名胜相关;旅游景点",
    "city": "青岛"
  },
  {
    "name": "人民英雄纪念碑碑心石开采旧址",
    "category": "sightseeing",
    "duration_minutes": 120,
    "rating": 4.0,
    "lat": 36.080665,
    "lon": 120.437274,
    "description": "地址: 凤栖谷路与青大三路交叉口东北360米 | 类别: 风景名胜;风景名胜;风景名胜",
    "city": "青岛"
  },
  {
    "name": "左批观日",
    "category": "sightseeing",
    "duration_minutes": 120,
    "rating": 4.0,
    "lat": 36.003042,
    "lon": 120.313064,
    "description": "地址: S399(九龙山路) | 类别: 风景名胜;风景名胜相关;旅游景点",
    "city": "青岛"
  },
  {
    "name": "流清河沙滩",
    "category": "sightseeing",
    "duration_minutes": 120,
    "rating": 4.0,
    "lat": 36.12522,
    "lon": 120.614519,
    "description": "地址: 崂山景区旅游专用路东100米 | 类别: 风景名胜;风景名胜;海滩",
    "city": "青岛"
  },
  {
    "name": "夹岭山公园",
    "category": "outdoor",
    "duration_minutes": 120,
    "rating": 4.0,
    "lat": 36.108717,
    "lon": 120.401305,
    "description": "地址: 伊春路227号附近 | 类别: 风景名胜;风景名胜相关;旅游景点",
    "city": "青岛"
  },
  {
    "name": "青小园-海泊河管理路口袋公园",
    "category": "outdoor",
    "duration_minutes": 120,
    "rating": 4.0,
    "lat": 36.113061,
    "lon": 120.328649,
    "description": "地址: 海泊河入海口 | 类别: 风景名胜;公园广场;公园",
    "city": "青岛"
  },
  {
    "name": "全民健身中心出入口(FN04)",
    "category": "sightseeing",
    "duration_minutes": 120,
    "rating": 4.0,
    "lat": 36.089816,
    "lon": 120.415124,
    "description": "地址: 浮山 | 类别: 风景名胜;风景名胜;风景名胜",
    "city": "青岛"
  },
  {
    "name": "东方伊甸园",
    "category": "outdoor",
    "duration_minutes": 120,
    "rating": 4.0,
    "lat": 36.258117,
    "lon": 120.310616,
    "description": "地址: 火炬路40号-1 | 类别: 风景名胜;公园广场;公园",
    "city": "青岛"
  },
  {
    "name": "毛主席石像",
    "category": "sightseeing",
    "duration_minutes": 120,
    "rating": 4.0,
    "lat": 36.079101,
    "lon": 120.439055,
    "description": "地址: 海川路与海富路交叉口西320米 | 类别: 风景名胜;风景名胜相关;旅游景点",
    "city": "青岛"
  },
  {
    "name": "天主教青岛教区圣心修道院旧址",
    "category": "sightseeing",
    "duration_minutes": 120,
    "rating": 4.0,
    "lat": 36.068158,
    "lon": 120.319977,
    "description": "地址: 浙江路28号 | 类别: 风景名胜;风景名胜;风景名胜",
    "city": "青岛"
  },
  {
    "name": "青岛崂山国家级风景名胜区-流清游览区",
    "category": "outdoor",
    "duration_minutes": 120,
    "rating": 4.0,
    "lat": 36.135219,
    "lon": 120.622902,
    "description": "地址: 崂山景区 | 类别: 风景名胜;风景名胜;国家级景点",
    "city": "青岛"
  },
  {
    "name": "青岛奥林匹克雕塑文化园",
    "category": "sightseeing",
    "duration_minutes": 120,
    "rating": 4.0,
    "lat": 36.285939,
    "lon": 120.395192,
    "description": "电话: 0532-87759871 | 地址: 兴阳路318号 | 类别: 风景名胜;风景名胜;省级景点",
    "city": "青岛"
  },
  {
    "name": "崂山风景区九水游览区",
    "category": "outdoor",
    "duration_minutes": 120,
    "rating": 4.0,
    "lat": 36.210433,
    "lon": 120.607996,
    "description": "电话: 0532-87053351;96616 | 地址: 崂山风景区内(北侧) | 类别: 风景名胜;风景名胜;国家级景点",
    "city": "青岛"
  },
  {
    "name": "坛顶山公园",
    "category": "outdoor",
    "duration_minutes": 120,
    "rating": 4.0,
    "lat": 36.1067,
    "lon": 120.377176,
    "description": "地址: 拜泉路20号 | 类别: 风景名胜;公园广场;公园",
    "city": "青岛"
  },
  {
    "name": "青岛·海底隧道博物馆",
    "category": "museum",
    "duration_minutes": 120,
    "rating": 4.0,
    "lat": 36.002875,
    "lon": 120.289641,
    "description": "电话: 0532-86990865 | 地址: 九龙江路63号 | 类别: 科教文化服务;博物馆;博物馆",
    "city": "青岛"
  },
  {
    "name": "团岛湾海滩",
    "category": "outdoor",
    "duration_minutes": 120,
    "rating": 4.0,
    "lat": 36.053068,
    "lon": 120.29441,
    "description": "地址: 团岛路34号(团岛地铁站A口步行740米) | 类别: 风景名胜;风景名胜;海滩",
    "city": "青岛"
  }
]