[
  {
    "name": "观山湖公园",
    "category": "outdoor",
    "duration_minutes": 120,
    "rating": 4.0,
    "lat": 26.639578,
    "lon": 106.638004,
    "description": "电话: 0851-84878411 | 地址: 观山大桥南北两侧 | 类别: 风景名胜;公园广场;公园",
    "city": "贵阳"
  },
  {
    "name": "贵州省博物馆",
    "category": "museum",
    "duration_minutes": 120,
    "rating": 4.0,
    "lat": 26.647605,
    "lon": 106.642467,
    "description": "地址: 林城东路107号 | 类别: 科教文化服务;博物馆;博物馆",
    "city": "贵阳"
  },
  {
    "name": "贵阳市观山湖公园民族大联欢广场",
    "category": "outdoor",
    "duration_minutes": 120,
    "rating": 4.0,
    "lat": 26.637924,
    "lon": 106.638034,
    "description": "地址: 观山大桥观山湖公园 | 类别: 风景名胜;公园广场;城市广场",
    "city": "贵阳"
  },
  {
    "name": "泉湖公园",
    "category": "outdoor",
    "duration_minutes": 120,
    "rating": 4.0,
    "lat": 26.671771,
    "lon": 106.618317,
    "description": "电话: 0851-86607083 | 地址: 云峰大道142号 | 类别: 风景名胜;风景名胜;国家级景点",
    "city": "贵阳"
  },
  {
    "name": "西普陀寺",
    "category": "history",
    "duration_minutes": 120,
    "rating": 4.0,
    "lat": 26.670373,
    "lon": 106.620969,
    "description": "电话: 18198297740;18798009031 | 地址: 云峰大道龙井路8号(泉湖公园地铁站A口步行400米) | 类别: 风景名胜;风景名胜;寺庙道观",
    "city": "贵阳"
  },
  {
    "name": "阅山湖公园",
    "category": "outdoor",
    "duration_minutes": 120,
    "rating": 4.0,
    "lat": 26.639906,
    "lon": 106.600927,
    "description": "地址: 云潭北路与观山西路交叉口 | 类别: 风景名胜;公园广场;公园",
    "city": "贵阳"
  },
  {
    "name": "贵州省地质博物馆",
    "category": "museum",
    "duration_minutes": 120,
    "rating": 4.0,
    "lat": 26.622894,
    "lon": 106.606919,
    "description": "电话: 0851-85801568 | 地址: 云潭南路601号 | 类别: 科教文化服务;博物馆;博物馆",
    "city": "贵阳"
  },
  {
    "name": "贵阳欢乐世界",
    "category": "sightseeing",
    "duration_minutes": 120,
    "rating": 4.0,
    "lat": 26.670643,
    "lon": 106.640073,
    "description": "电话: 0851-84862777 | 地址: 白云南路483号 | 类别: 体育休闲服务;休闲场所;游乐场",
    "city": "贵阳"
  },
  {
    "name": "贵阳喀斯特公园",
    "category": "outdoor",
    "duration_minutes": 120,
    "rating": 4.0,
    "lat": 26.616218,
    "lon": 106.616838,
    "description": "地址: 石林东路与金阳南路交叉口 | 类别: 风景名胜;公园广场;公园",
    "city": "贵阳"
  },
  {
    "name": "黔灵山公园",
    "category": "outdoor",
    "duration_minutes": 120,
    "rating": 4.0,
    "lat": 26.598319,
    "lon": 106.69223,
    "description": "电话: 0851-86823039 | 地址: 枣山路187号 | 类别: 风景名胜;风景名胜;国家级景点",
    "city": "贵阳"
  },
  {
    "name": "长坡岭国家森林公园",
    "category": "outdoor",
    "duration_minutes": 120,
    "rating": 4.0,
    "lat": 26.655154,
    "lon": 106.671875,
    "description": "地址: 艳山红镇 | 类别: 风景名胜;风景名胜;国家级景点",
    "city": "贵阳"
  },
  {
    "name": "混沌广场",
    "category": "sightseeing",
    "duration_minutes": 120,
    "rating": 4.0,
    "lat": 26.650699,
    "lon": 106.622579,
    "description": "地址: 金阳北路与南苑路交叉口西120米 | 类别: 商务住宅;楼宇;商务写字楼",
    "city": "贵阳"
  },
  {
    "name": "东林寺",
    "category": "history",
    "duration_minutes": 120,
    "rating": 4.0,
    "lat": 26.655067,
    "lon": 106.638313,
    "description": "地址: 金朱东路(东林公园北侧约50米) | 类别: 风景名胜;风景名胜;寺庙道观",
    "city": "贵阳"
  },
  {
    "name": "东林公园",
    "category": "outdoor",
    "duration_minutes": 120,
    "rating": 4.0,
    "lat": 26.653347,
    "lon": 106.637845,
    "description": "地址: 金朱东路恒大中央公园B区11号12号门面西南方向160米 | 类别: 风景名胜;公园广场;公园",
    "city": "贵阳"
  },
  {
    "name": "甲秀楼",
    "category": "sightseeing",
    "duration_minutes": 120,
    "rating": 4.0,
    "lat": 26.571358,
    "lon": 106.719721,
    "description": "地址: 翠微巷8号 | 类别: 风景名胜;风景名胜;风景名胜",
    "city": "贵阳"
  },
  {
    "name": "河滨公园",
    "category": "outdoor",
    "duration_minutes": 120,
    "rating": 4.0,
    "lat": 26.568276,
    "lon": 106.70607,
    "description": "电话: 0851-85956270;12301 | 地址: 瑞金南路31号 | 类别: 风景名胜;公园广场;公园",
    "city": "贵阳"
  },
  {
    "name": "贵阳喀斯特石林恐龙乐园",
    "category": "sightseeing",
    "duration_minutes": 120,
    "rating": 4.0,
    "lat": 26.614857,
    "lon": 106.614278,
    "description": "电话: 18198236999 | 地址: 石林东路喀斯特公园广场 | 类别: 体育休闲服务;休闲场所;游乐场",
    "city": "贵阳"
  },
  {
    "name": "黔灵山公园动物园",
    "category": "outdoor",
    "duration_minutes": 120,
    "rating": 4.0,
    "lat": 26.598972,
    "lon": 106.696629,
    "description": "电话: 0851-86823039 | 地址: 枣山路187号黔灵山公园内(东侧) | 类别: 风景名胜;公园广场;动物园",
    "city": "贵阳"
  },
  {
    "name": "七彩湖公园",
    "category": "outdoor",
    "duration_minutes": 120,
    "rating": 4.0,
    "lat": 26.680966,
    "lon": 106.646757,
    "description": "地址: 铝建路与同心路交汇处 | 类别: 风景名胜;公园广场;公园",
    "city": "贵阳"
  },
  {
    "name": "东山山体公园",
    "category": "outdoor",
    "duration_minutes": 120,
    "rating": 4.0,
    "lat": 26.577969,
    "lon": 106.727332,
    "description": "电话: 0851-85602565 | 地址: 宝山南路22号附近 | 类别: 风景名胜;公园广场;公园",
    "city": "贵阳"
  },
  {
    "name": "观山湖眼摩天轮",
    "category": "outdoor",
    "duration_minutes": 120,
    "rating": 4.0,
    "lat": 26.64123,
    "lon": 106.615023,
    "description": "地址: 越野公园内 | 类别: 风景名胜;风景名胜;风景名胜",
    "city": "贵阳"
  },
  {
    "name": "贵阳市行政中心广场",
    "category": "outdoor",
    "duration_minutes": 120,
    "rating": 4.0,
    "lat": 26.64626,
    "lon": 106.628124,
    "description": "地址: 林城东路贵阳市政府 | 类别: 风景名胜;公园广场;城市广场",
    "city": "贵阳"
  },
  {
    "name": "东山寺",
    "category": "history",
    "duration_minutes": 120,
    "rating": 4.0,
    "lat": 26.578084,
    "lon": 106.727618,
    "description": "电话: 19985649681 | 地址: 栖霞路17号附2号(省人民医院地铁站C口步行220米) | 类别: 风景名胜;风景名胜;寺庙道观",
    "city": "贵阳"
  },
  {
    "name": "兴达兴游乐园",
    "category": "sightseeing",
    "duration_minutes": 120,
    "rating": 4.0,
    "lat": 26.652115,
    "lon": 106.591609,
    "description": "地址: 金朱西路227号 | 类别: 体育休闲服务;休闲场所;游乐场",
    "city": "贵阳"
  },
  {
    "name": "鹿冲关森林公园",
    "category": "outdoor",
    "duration_minutes": 120,
    "rating": 4.0,
    "lat": 26.626134,
    "lon": 106.707259,
    "description": "电话: 0851-86612515 | 地址: 盐沙大道附近 | 类别: 风景名胜;风景名胜;风景名胜",
    "city": "贵阳"
  },
  {
    "name": "白鹭湖湿地公园",
    "category": "outdoor",
    "duration_minutes": 120,
    "rating": 4.0,
    "lat": 26.618649,
    "lon": 106.652566,
    "description": "地址: 金岭社区服务中心金岭社区服务中心交勘院100号 | 类别: 风景名胜;公园广场;公园",
    "city": "贵阳"
  },
  {
    "name": "文昌阁",
    "category": "sightseeing",
    "duration_minutes": 120,
    "rating": 4.0,
    "lat": 26.57869,
    "lon": 106.719288,
    "description": "地址: 文昌街8号 | 类别: 风景名胜;风景名胜;风景名胜",
    "city": "贵阳"
  },
  {
    "name": "弘福寺",
    "category": "history",
    "duration_minutes": 120,
    "rating": 4.0,
    "lat": 26.593629,
    "lon": 106.69193,
    "description": "电话: 0851-86825606 | 地址: 枣山路187号 | 类别: 风景名胜;风景名胜;寺庙道观",
    "city": "贵阳"
  },
  {
    "name": "花果园湿地公园",
    "category": "outdoor",
    "duration_minutes": 120,
    "rating": 4.0,
    "lat": 26.566334,
    "lon": 106.687582,
    "description": "地址: 花果园大街1号 | 类别: 风景名胜;公园广场;公园",
    "city": "贵阳"
  },
  {
    "name": "大十字广场",
    "category": "outdoor",
    "duration_minutes": 120,
    "rating": 4.0,
    "lat": 26.578459,
    "lon": 106.711656,
    "description": "电话: 0851-85651888;0851-85862707;18763199922 | 地址: 延中社区服务中心中华中路4号 | 类别: 风景名胜;公园广场;城市广场",
    "city": "贵阳"
  },
  {
    "name": "贵阳阿哈湖国家湿地公园",
    "category": "outdoor",
    "duration_minutes": 120,
    "rating": 4.0,
    "lat": 26.539331,
    "lon": 106.646496,
    "description": "电话: 0851-85116666 | 地址: 小车河路与甲秀南路交汇处 | 类别: 风景名胜;风景名胜;国家级景点",
    "city": "贵阳"
  },
  {
    "name": "黔灵山公园-贵阳大熊猫馆",
    "category": "outdoor",
    "duration_minutes": 120,
    "rating": 4.0,
    "lat": 26.600886,
    "lon": 106.698172,
    "description": "电话: 0851-86823039 | 地址: 黔灵山公园动物园(东北角) | 类别: 风景名胜;风景名胜相关;旅游景点",
    "city": "贵阳"
  },
  {
    "name": "斗牛城山庄",
    "category": "outdoor",
    "duration_minutes": 120,
    "rating": 4.0,
    "lat": 26.662284,
    "lon": 106.674472,
    "description": "地址: 长坡岭森林公园 | 类别: 体育休闲服务;休闲场所;休闲场所",
    "city": "贵阳"
  },
  {
    "name": "观山湖区双拥公园",
    "category": "outdoor",
    "duration_minutes": 120,
    "rating": 4.0,
    "lat": 26.655263,
    "lon": 106.611686,
    "description": "地址: 金岭南街与将军山路交叉口西南200米 | 类别: 风景名胜;公园广场;公园",
    "city": "贵阳"
  },
  {
    "name": "天主堂",
    "category": "sightseeing",
    "duration_minutes": 120,
    "rating": 4.0,
    "lat": 26.58994,
    "lon": 106.713394,
    "description": "地址: 陕西路166号 | 类别: 风景名胜;风景名胜;教堂",
    "city": "贵阳"
  },
  {
    "name": "金华湖",
    "category": "outdoor",
    "duration_minutes": 120,
    "rating": 4.0,
    "lat": 26.629394,
    "lon": 106.634029,
    "description": "电话: 0851-84584005 | 地址: 百年路观山湖公园内(南侧) | 类别: 风景名胜;风景名胜相关;旅游景点",
    "city": "贵阳"
  },
  {
    "name": "贵阳双子塔",
    "category": "history",
    "duration_minutes": 120,
    "rating": 4.0,
    "lat": 26.56465,
    "lon": 106.68519,
    "description": "地址: 花果园大街88号方圆荟·海豚广场 | 类别: 风景名胜;风景名胜相关;旅游景点",
    "city": "贵阳"
  },
  {
    "name": "金阳印象童世界乐园",
    "category": "sightseeing",
    "duration_minutes": 120,
    "rating": 4.0,
    "lat": 26.612877,
    "lon": 106.606515,
    "description": "电话: 17385774353;17785619561 | 地址: 奥林匹克体育中心云潭南路东 | 类别: 体育休闲服务;休闲场所;游乐场",
    "city": "贵阳"
  },
  {
    "name": "阳明祠",
    "category": "sightseeing",
    "duration_minutes": 120,
    "rating": 4.0,
    "lat": 26.583645,
    "lon": 106.725742,
    "description": "地址: 东山路15号 | 类别: 风景名胜;风景名胜;风景名胜",
    "city": "贵阳"
  },
  {
    "name": "贵阳百花湖风景名胜区",
    "category": "outdoor",
    "duration_minutes": 120,
    "rating": 4.0,
    "lat": 26.658332,
    "lon": 106.501581,
    "description": "电话: 0851-84873642 | 地址: 朱昌镇金朱西路路头 | 类别: 风景名胜;风景名胜;省级景点",
    "city": "贵阳"
  },
  {
    "name": "贵阳古风不夜城·千灯之夜",
    "category": "sightseeing",
    "duration_minutes": 120,
    "rating": 4.0,
    "lat": 26.653825,
    "lon": 106.589488,
    "description": "地址: 金朱西路227号 | 类别: 风景名胜;风景名胜;风景名胜",
    "city": "贵阳"
  },
  {
    "name": "小湾河湿地公园",
    "category": "outdoor",
    "duration_minutes": 120,
    "rating": 4.0,
    "lat": 26.599874,
    "lon": 106.640649,
    "description": "地址: 合肥路与龙锦路交叉口西南60米 | 类别: 风景名胜;风景名胜;风景名胜",
    "city": "贵阳"
  },
  {
    "name": "东山公园",
    "category": "outdoor",
    "duration_minutes": 120,
    "rating": 4.0,
    "lat": 26.582502,
    "lon": 106.726635,
    "description": "电话: 0851-85602565 | 地址: 黔灵东路街道东山路16号 | 类别: 风景名胜;公园广场;公园",
    "city": "贵阳"
  },
  {
    "name": "观山湖区口袋花园",
    "category": "outdoor",
    "duration_minutes": 120,
    "rating": 4.0,
    "lat": 26.619121,
    "lon": 106.611137,
    "description": "地址: 金阳街道奥兴路 | 类别: 风景名胜;风景名胜;风景名胜",
    "city": "贵阳"
  },
  {
    "name": "贵州省民族博物馆",
    "category": "museum",
    "duration_minutes": 120,
    "rating": 4.0,
    "lat": 26.568152,
    "lon": 106.71273,
    "description": "电话: 0851-85831664;0851-85831710 | 地址: 箭道街23号贵州民族文化宫 | 类别: 科教文化服务;博物馆;博物馆",
    "city": "贵阳"
  },
  {
    "name": "多彩贵州城",
    "category": "sightseeing",
    "duration_minutes": 120,
    "rating": 4.0,
    "lat": 26.52904,
    "lon": 106.789304,
    "description": "地址: 龙洞堡老里坡1号 | 类别: 风景名胜;风景名胜;国家级景点",
    "city": "贵阳"
  },
  {
    "name": "观山湖民族广场",
    "category": "outdoor",
    "duration_minutes": 120,
    "rating": 4.0,
    "lat": 26.640835,
    "lon": 106.628429,
    "description": "电话: 0851-84584005 | 地址: 林城东路9号 | 类别: 风景名胜;公园广场;城市广场",
    "city": "贵阳"
  },
  {
    "name": "贵阳市森林公园",
    "category": "outdoor",
    "duration_minutes": 120,
    "rating": 4.0,
    "lat": 26.546255,
    "lon": 106.751939,
    "description": "电话: 0851-85514343;0851-85535225 | 地址: 园林路90号 | 类别: 风景名胜;风景名胜;省级景点",
    "city": "贵阳"
  },
  {
    "name": "时光贵州时光广场",
    "category": "outdoor",
    "duration_minutes": 120,
    "rating": 4.0,
    "lat": 26.578303,
    "lon": 106.46834,
    "description": "地址: 百花路与观清路交叉口西南60米 | 类别: 风景名胜;公园广场;城市广场",
    "city": "贵阳"
  },
  {
    "name": "花溪公园",
    "category": "outdoor",
    "duration_minutes": 120,
    "rating": 4.0,
    "lat": 26.433012,
    "lon": 106.67221,
    "description": "地址: 花溪大道南段3108号 | 类别: 风景名胜;风景名胜;省级景点",
    "city": "贵阳"
  },
  {
    "name": "曹关湿地公园",
    "category": "outdoor",
    "duration_minutes": 120,
    "rating": 4.0,
    "lat": 26.694955,
    "lon": 106.618438,
    "description": "地址: 大山洞社区服务中心云环路 | 类别: 风景名胜;公园广场;公园",
    "city": "贵阳"
  },
  {
    "name": "赛点体育公园",
    "category": "outdoor",
    "duration_minutes": 120,
    "rating": 4.0,
    "lat": 26.65458,
    "lon": 106.612916,
    "description": "电话: 19522868788 | 地址: 金朱西路新世界酒店对面 | 类别: 风景名胜;风景名胜相关;旅游景点",
    "city": "贵阳"
  },
  {
    "name": "花溪十里河滩国家城市湿地公园",
    "category": "outdoor",
    "duration_minutes": 120,
    "rating": 4.0,
    "lat": 26.452877,
    "lon": 106.677607,
    "description": "电话: 0851-83623593 | 地址: 花溪大道南段辅路与郎萝桥交叉口东220米 | 类别: 风景名胜;公园广场;公园|风景名胜;风景名胜;风景名胜",
    "city": "贵阳"
  },
  {
    "name": "登高云山森林公园",
    "category": "outdoor",
    "duration_minutes": 120,
    "rating": 4.0,
    "lat": 26.611222,
    "lon": 106.74624,
    "description": "地址: 中环路东段(保利温泉四期南侧约200米) | 类别: 风景名胜;公园广场;公园",
    "city": "贵阳"
  },
  {
    "name": "马鞍山公园",
    "category": "outdoor",
    "duration_minutes": 120,
    "rating": 4.0,
    "lat": 26.677273,
    "lon": 106.606363,
    "description": "地址: 云环路与泉湖路交汇处 | 类别: 风景名胜;公园广场;公园",
    "city": "贵阳"
  },
  {
    "name": "天鹅湖景区",
    "category": "outdoor",
    "duration_minutes": 120,
    "rating": 4.0,
    "lat": 26.671322,
    "lon": 106.675907,
    "description": "电话: 0851-84402239 | 地址: 彩云街 | 类别: 风景名胜;风景名胜;风景名胜",
    "city": "贵阳"
  },
  {
    "name": "观山湖儿童游乐园",
    "category": "outdoor",
    "duration_minutes": 120,
    "rating": 4.0,
    "lat": 26.638797,
    "lon": 106.631403,
    "description": "电话: 0851-84878411 | 地址: 观山湖公园内(西侧) | 类别: 体育休闲服务;休闲场所;游乐场",
    "city": "贵阳"
  },
  {
    "name": "法治文化广场",
    "category": "outdoor",
    "duration_minutes": 120,
    "rating": 4.0,
    "lat": 26.639906,
    "lon": 106.62411,
    "description": "地址: 金阳北路2号 | 类别: 风景名胜;公园广场;城市广场",
    "city": "贵阳"
  },
  {
    "name": "天河潭旅游度假区",
    "category": "sightseeing",
    "duration_minutes": 120,
    "rating": 4.0,
    "lat": 26.440169,
    "lon": 106.580558,
    "description": "电话: 4009009995 | 地址: 石板镇 | 类别: 风景名胜;风景名胜;国家级景点",
    "city": "贵阳"
  },
  {
    "name": "群升世纪广场",
    "category": "sightseeing",
    "duration_minutes": 120,
    "rating": 4.0,
    "lat": 26.637305,
    "lon": 106.619682,
    "description": "地址: 诚信路9号(观山西路地铁站C口步行460米) | 类别: 商务住宅;楼宇;楼宇相关",
    "city": "贵阳"
  },
  {
    "name": "通源·越野公园",
    "category": "outdoor",
    "duration_minutes": 120,
    "rating": 4.0,
    "lat": 26.64073,
    "lon": 106.614372,
    "description": "地址: 云潭北路20号(得来速)旁 | 类别: 风景名胜;公园广场;公园",
    "city": "贵阳"
  },
  {
    "name": "贵州省植物园",
    "category": "outdoor",
    "duration_minutes": 120,
    "rating": 4.0,
    "lat": 26.628801,
    "lon": 106.727387,
    "description": "电话: 0851-86762512;0851-86769103 | 地址: 黔灵镇鹿冲关路86号 | 类别: 风景名胜;公园广场;植物园",
    "city": "贵阳"
  },
  {
    "name": "四季贵州·山地温泉水世界",
    "category": "outdoor",
    "duration_minutes": 120,
    "rating": 4.0,
    "lat": 26.573948,
    "lon": 106.486596,
    "description": "电话: 0851-82566668;0851-82566666 | 地址: 百马大道与清州大道交汇处 | 类别: 体育休闲服务;体育休闲服务场所;体育休闲服务场所",
    "city": "贵阳"
  },
  {
    "name": "云楼",
    "category": "sightseeing",
    "duration_minutes": 120,
    "rating": 4.0,
    "lat": 26.669907,
    "lon": 106.618472,
    "description": "地址: 泉湖公园南大门(泉湖公园地铁站A口步行350米) | 类别: 风景名胜;风景名胜;风景名胜",
    "city": "贵阳"
  },
  {
    "name": "贵阳市仙人洞道观",
    "category": "history",
    "duration_minutes": 120,
    "rating": 4.0,
    "lat": 26.57582,
    "lon": 106.735172,
    "description": "电话: 15185088335 | 地址: 云关乡仙人洞路1号 | 类别: 风景名胜;风景名胜;寺庙道观",
    "city": "贵阳"
  },
  {
    "name": "太阳湖滨河公园",
    "category": "outdoor",
    "duration_minutes": 120,
    "rating": 4.0,
    "lat": 26.727376,
    "lon": 106.664001,
    "description": "地址: 二十六大道与白金大道交叉口东150米 | 类别: 风景名胜;公园广场;公园",
    "city": "贵阳"
  },
  {
    "name": "双龙生态公园",
    "category": "outdoor",
    "duration_minutes": 120,
    "rating": 4.0,
    "lat": 26.530159,
    "lon": 106.769457,
    "description": "地址: 龙腾路与兴龙北路交叉口东北100米 | 类别: 风景名胜;公园广场;公园",
    "city": "贵阳"
  },
  {
    "name": "悦湖城市广场",
    "category": "outdoor",
    "duration_minutes": 120,
    "rating": 4.0,
    "lat": 26.634448,
    "lon": 106.609464,
    "description": "地址: 云潭北路与观山西路交叉口 | 类别: 风景名胜;风景名胜相关;旅游景点|商务住宅;商务住宅相关;商务住宅相关",
    "city": "贵阳"
  },
  {
    "name": "中央公园",
    "category": "outdoor",
    "duration_minutes": 120,
    "rating": 4.0,
    "lat": 26.560061,
    "lon": 106.472064,
    "description": "地址: 云岭东路355附近 | 类别: 商务住宅;住宅区;住宅小区",
    "city": "贵阳"
  },
  {
    "name": "天籁九州",
    "category": "sightseeing",
    "duration_minutes": 120,
    "rating": 4.0,
    "lat": 26.610563,
    "lon": 106.647526,
    "description": "地址: 黔灵山路266号 | 类别: 风景名胜;风景名胜相关;旅游景点",
    "city": "贵阳"
  },
  {
    "name": "多彩贵州城极地海洋世界",
    "category": "outdoor",
    "duration_minutes": 120,
    "rating": 4.0,
    "lat": 26.529396,
    "lon": 106.790572,
    "description": "电话: 0851-85511850 | 地址: 多彩贵州城内 | 类别: 风景名胜;公园广场;水族馆",
    "city": "贵阳"
  },
  {
    "name": "俊发·黑石湿地公园",
    "category": "outdoor",
    "duration_minutes": 120,
    "rating": 4.0,
    "lat": 26.644921,
    "lon": 106.681319,
    "description": "地址: 俊贤路与俊秀街交叉口西100米 | 类别: 风景名胜;公园广场;公园",
    "city": "贵阳"
  },
  {
    "name": "孔学堂",
    "category": "sightseeing",
    "duration_minutes": 120,
    "rating": 4.0,
    "lat": 26.464389,
    "lon": 106.678035,
    "description": "电话: 0851-83610798;0851-83873027 | 地址: 董家堰 | 类别: 风景名胜;风景名胜相关;旅游景点",
    "city": "贵阳"
  },
  {
    "name": "振华广场",
    "category": "outdoor",
    "duration_minutes": 120,
    "rating": 4.0,
    "lat": 26.641973,
    "lon": 106.778469,
    "description": "地址: 新添大道北段1005号 | 类别: 风景名胜;公园广场;城市广场",
    "city": "贵阳"
  },
  {
    "name": "无伤桥",
    "category": "history",
    "duration_minutes": 120,
    "rating": 4.0,
    "lat": 26.627281,
    "lon": 106.632885,
    "description": "地址: 无一茶社东南侧140米 | 类别: 风景名胜;风景名胜;风景名胜",
    "city": "贵阳"
  },
  {
    "name": "长坡岭国家森林公园-樱花湖",
    "category": "outdoor",
    "duration_minutes": 120,
    "rating": 4.0,
    "lat": 26.656252,
    "lon": 106.668565,
    "description": "地址: 长坡岭国家森林公园樱花湖 | 类别: 风景名胜;风景名胜相关;旅游景点",
    "city": "贵阳"
  },
  {
    "name": "缤纷广场",
    "category": "outdoor",
    "duration_minutes": 120,
    "rating": 4.0,
    "lat": 26.646523,
    "lon": 106.619193,
    "description": "地址: 林城西路与碧海南路交叉口西北约180米 | 类别: 风景名胜;公园广场;城市广场",
    "city": "贵阳"
  },
  {
    "name": "雅关",
    "category": "sightseeing",
    "duration_minutes": 120,
    "rating": 4.0,
    "lat": 26.611916,
    "lon": 106.694524,
    "description": "地址: 盐沙大道云山隧道南侧黔灵村马鞍组139号(保利云山小区与雅关小区间人行步道中段) | 类别: 风景名胜;风景名胜;风景名胜",
    "city": "贵阳"
  },
  {
    "name": "彼昂智慧体育公园",
    "category": "outdoor",
    "duration_minutes": 120,
    "rating": 4.0,
    "lat": 26.612393,
    "lon": 106.650912,
    "description": "电话: 0851-83848115;15285637414 | 地址: 湖滨路与铜仁路交叉口东南120米 | 类别: 风景名胜;公园广场;公园广场",
    "city": "贵阳"
  },
  {
    "name": "贵阳药用植物园",
    "category": "outdoor",
    "duration_minutes": 120,
    "rating": 4.0,
    "lat": 26.531993,
    "lon": 106.700414,
    "description": "电话: 0851-83832053;0851-83801667 | 地址: 沙南社区服务中心沙冲南路202号 | 类别: 风景名胜;公园广场;植物园",
    "city": "贵阳"
  },
  {
    "name": "景阳森林公园",
    "category": "outdoor",
    "duration_minutes": 120,
    "rating": 4.0,
    "lat": 26.831056,
    "lon": 106.71845,
    "description": "地址: 长生路与210国道交叉口东南40米 | 类别: 风景名胜;公园广场;公园",
    "city": "贵阳"
  },
  {
    "name": "麒麟洞",
    "category": "sightseeing",
    "duration_minutes": 120,
    "rating": 4.0,
    "lat": 26.597447,
    "lon": 106.696201,
    "description": "电话: 0851-86823039 | 地址: 枣山路187号黔灵山公园内(东侧) | 类别: 风景名胜;风景名胜;风景名胜",
    "city": "贵阳"
  },
  {
    "name": "西南国际商贸城毛主席像",
    "category": "sightseeing",
    "duration_minutes": 120,
    "rating": 4.0,
    "lat": 26.603229,
    "lon": 106.581692,
    "description": "地址: 杭州路贵阳西南国际商贸城(南侧) | 类别: 风景名胜;风景名胜相关;旅游景点",
    "city": "贵阳"
  },
  {
    "name": "通源观山湖汽车公园",
    "category": "outdoor",
    "duration_minutes": 120,
    "rating": 4.0,
    "lat": 26.645925,
    "lon": 106.610925,
    "description": "地址: 金麦社区服务中心通源汽车文化广场 | 类别: 汽车服务;汽车服务相关;汽车服务相关",
    "city": "贵阳"
  },
  {
    "name": "红飘带",
    "category": "sightseeing",
    "duration_minutes": 120,
    "rating": 4.0,
    "lat": 26.529378,
    "lon": 106.793171,
    "description": "电话: 0851-85855777 | 地址: 贵州双龙航空港经济区见龙洞路和彩湖路交会处 | 类别: 风景名胜;风景名胜;红色景区",
    "city": "贵阳"
  },
  {
    "name": "时光贵州古镇",
    "category": "sightseeing",
    "duration_minutes": 120,
    "rating": 4.0,
    "lat": 26.575723,
    "lon": 106.467884,
    "description": "电话: 0851-82538332;18983501187 | 地址: X196(百花路) | 类别: 风景名胜;风景名胜相关;旅游景点",
    "city": "贵阳"
  },
  {
    "name": "花溪黄金大道",
    "category": "sightseeing",
    "duration_minutes": 120,
    "rating": 4.0,
    "lat": 26.43008,
    "lon": 106.658023,
    "description": "地址: 迎宾路 | 类别: 风景名胜;风景名胜相关;旅游景点",
    "city": "贵阳"
  },
  {
    "name": "米克假日公园",
    "category": "outdoor",
    "duration_minutes": 120,
    "rating": 4.0,
    "lat": 26.65072,
    "lon": 106.618388,
    "description": "电话: 13595133562 | 地址: 观山湖区富力中心A7栋1楼 | 类别: 购物服务;商场;商场",
    "city": "贵阳"
  },
  {
    "name": "贵阳市观山湖区公园管理处",
    "category": "outdoor",
    "duration_minutes": 120,
    "rating": 4.0,
    "lat": 26.63176,
    "lon": 106.630812,
    "description": "地址: 观山湖公园(西南角) | 类别: 风景名胜;风景名胜相关;旅游景点",
    "city": "贵阳"
  },
  {
    "name": "城市山水公园",
    "category": "outdoor",
    "duration_minutes": 120,
    "rating": 4.0,
    "lat": 26.625628,
    "lon": 106.773546,
    "description": "地址: 新添寨新创路 | 类别: 商务住宅;住宅区;住宅区",
    "city": "贵阳"
  },
  {
    "name": "塔山公园",
    "category": "outdoor",
    "duration_minutes": 120,
    "rating": 4.0,
    "lat": 26.690878,
    "lon": 106.654484,
    "description": "地址: 白沙关社区服务中心龚家寨塔北路三支路21号 | 类别: 风景名胜;公园广场;公园",
    "city": "贵阳"
  },
  {
    "name": "双拥广场",
    "category": "outdoor",
    "duration_minutes": 120,
    "rating": 4.0,
    "lat": 26.635633,
    "lon": 106.625173,
    "description": "地址: 金阳北路2号 | 类别: 风景名胜;公园广场;城市广场",
    "city": "贵阳"
  },
  {
    "name": "黔灵巷",
    "category": "sightseeing",
    "duration_minutes": 120,
    "rating": 4.0,
    "lat": 26.589548,
    "lon": 106.697038,
    "description": "地址: 北新区路与枣山路交叉口东北60米 | 类别: 购物服务;购物相关场所;购物相关场所",
    "city": "贵阳"
  },
  {
    "name": "奥体中心北广场",
    "category": "outdoor",
    "duration_minutes": 120,
    "rating": 4.0,
    "lat": 26.622077,
    "lon": 106.609897,
    "description": "地址: 云潭南路与兴筑路交叉口 | 类别: 风景名胜;公园广场;城市广场",
    "city": "贵阳"
  },
  {
    "name": "筑城广场",
    "category": "outdoor",
    "duration_minutes": 120,
    "rating": 4.0,
    "lat": 26.569851,
    "lon": 106.710122,
    "description": "地址: 遵义路民族文化宫对面(河滨公园地铁站A口步行120米) | 类别: 风景名胜;公园广场;城市广场",
    "city": "贵阳"
  },
  {
    "name": "蓬莱仙界大景区(暂停开放)",
    "category": "sightseeing",
    "duration_minutes": 120,
    "rating": 4.0,
    "lat": 26.743524,
    "lon": 106.732597,
    "description": "地址: 蓬莱村 | 类别: 风景名胜;风景名胜;国家级景点",
    "city": "贵阳"
  },
  {
    "name": "蓬莱仙界园",
    "category": "sightseeing",
    "duration_minutes": 120,
    "rating": 4.0,
    "lat": 26.744439,
    "lon": 106.730617,
    "description": "地址: 蓬莱村蓬莱仙界内 | 类别: 风景名胜;风景名胜;风景名胜",
    "city": "贵阳"
  },
  {
    "name": "锦绣公园",
    "category": "outdoor",
    "duration_minutes": 120,
    "rating": 4.0,
    "lat": 26.604079,
    "lon": 106.635325,
    "description": "地址: 石龙路188正东方向90米 | 类别: 风景名胜;公园广场;公园",
    "city": "贵阳"
  },
  {
    "name": "恐龙小镇(暂停开放)",
    "category": "sightseeing",
    "duration_minutes": 120,
    "rating": 4.0,
    "lat": 26.584165,
    "lon": 106.444734,
    "description": "电话: 0851-88880001 | 地址: 站街镇三河村云站路46号 | 类别: 风景名胜;风景名胜;风景名胜",
    "city": "贵阳"
  },
  {
    "name": "星月湖公园",
    "category": "outdoor",
    "duration_minutes": 120,
    "rating": 4.0,
    "lat": 26.465367,
    "lon": 106.515861,
    "description": "地址: 天河潭大道 | 类别: 风景名胜;公园广场;公园",
    "city": "贵阳"
  },
  {
    "name": "黔明古寺",
    "category": "history",
    "duration_minutes": 120,
    "rating": 4.0,
    "lat": 26.570188,
    "lon": 106.714505,
    "description": "地址: 遵义路与阳明路交叉口东150米 | 类别: 风景名胜;风景名胜;寺庙道观",
    "city": "贵阳"
  },
  {
    "name": "中国阳明文化园",
    "category": "sightseeing",
    "duration_minutes": 120,
    "rating": 4.0,
    "lat": 26.846421,
    "lon": 106.609733,
    "description": "电话: 0851-82320777;0851-82319882 | 地址: 龙场镇阳明大道 | 类别: 风景名胜;风景名胜;风景名胜",
    "city": "贵阳"
  },
  {
    "name": "贵州森林野生动物园",
    "category": "outdoor",
    "duration_minutes": 120,
    "rating": 4.0,
    "lat": 26.861195,
    "lon": 106.693609,
    "description": "电话: 0851-82359168;0851-82359088 | 地址: 156县道 | 类别: 风景名胜;公园广场;动物园",
    "city": "贵阳"
  },
  {
    "name": "花溪夜郎谷",
    "category": "sightseeing",
    "duration_minutes": 120,
    "rating": 4.0,
    "lat": 26.386902,
    "lon": 106.646181,
    "description": "电话: 15519106882;13518518802 | 地址: 122县道 | 类别: 风景名胜;风景名胜;风景名胜",
    "city": "贵阳"
  },
  {
    "name": "巢凤禅寺",
    "category": "history",
    "duration_minutes": 120,
    "rating": 4.0,
    "lat": 26.549826,
    "lon": 106.484123,
    "description": "电话: 0851-82577191 | 地址: 巢凤社区服务中心东平路36号附10号 | 类别: 风景名胜;风景名胜;寺庙道观",
    "city": "贵阳"
  },
  {
    "name": "九龙山景区",
    "category": "outdoor",
    "duration_minutes": 120,
    "rating": 4.0,
    "lat": 26.668986,
    "lon": 106.509547,
    "description": "地址: 199县道西南40米 | 类别: 风景名胜;风景名胜;国家级景点",
    "city": "贵阳"
  },
  {
    "name": "红枫湖S湾",
    "category": "outdoor",
    "duration_minutes": 120,
    "rating": 4.0,
    "lat": 26.552435,
    "lon": 106.413331,
    "description": "地址: 清镇小三亚北侧 | 类别: 风景名胜;风景名胜;风景名胜",
    "city": "贵阳"
  },
  {
    "name": "贵御温泉",
    "category": "sightseeing",
    "duration_minutes": 120,
    "rating": 4.0,
    "lat": 26.615689,
    "lon": 106.770685,
    "description": "电话: 0851-86461111;0851-86462092;0851-88348888 | 地址: 新添寨温泉路479号 | 类别: 风景名胜;风景名胜;国家级景点",
    "city": "贵阳"
  },
  {
    "name": "黔灵湖",
    "category": "outdoor",
    "duration_minutes": 120,
    "rating": 4.0,
    "lat": 26.597758,
    "lon": 106.687267,
    "description": "电话: 0851-86823039 | 地址: 枣山路187号黔灵山公园内(西侧) | 类别: 风景名胜;风景名胜相关;旅游景点",
    "city": "贵阳"
  },
  {
    "name": "爪爪计划宠物公园",
    "category": "outdoor",
    "duration_minutes": 120,
    "rating": 4.0,
    "lat": 26.658434,
    "lon": 106.577795,
    "description": "电话: 18523060652 | 地址: 金龙路abc号旁(下麦西地铁站A口步行480米) | 类别: 风景名胜;公园广场;公园广场",
    "city": "贵阳"
  },
  {
    "name": "渔洞峡",
    "category": "sightseeing",
    "duration_minutes": 120,
    "rating": 4.0,
    "lat": 26.618501,
    "lon": 106.813956,
    "description": "地址: 鱼洞峡路与101县道交叉口南100米 | 类别: 风景名胜;风景名胜;风景名胜",
    "city": "贵阳"
  },
  {
    "name": "浦江广场",
    "category": "outdoor",
    "duration_minutes": 120,
    "rating": 4.0,
    "lat": 26.515078,
    "lon": 106.70629,
    "description": "地址: 浦江路182号 | 类别: 风景名胜;公园广场;城市广场",
    "city": "贵阳"
  },
  {
    "name": "人民广场",
    "category": "outdoor",
    "duration_minutes": 120,
    "rating": 4.0,
    "lat": 26.554951,
    "lon": 106.470492,
    "description": "地址: 红旗路 | 类别: 风景名胜;公园广场;城市广场",
    "city": "贵阳"
  },
  {
    "name": "月亮湖",
    "category": "outdoor",
    "duration_minutes": 120,
    "rating": 4.0,
    "lat": 26.437725,
    "lon": 106.482131,
    "description": "电话: 0851-83320000 | 地址: 贵安大道北100米 | 类别: 风景名胜;风景名胜;风景名胜",
    "city": "贵阳"
  },
  {
    "name": "中坝转盘",
    "category": "sightseeing",
    "duration_minutes": 120,
    "rating": 4.0,
    "lat": 26.682519,
    "lon": 106.657268,
    "description": "地址: 同心东路与展望街交叉口东南120米 | 类别: 风景名胜;风景名胜;风景名胜",
    "city": "贵阳"
  },
  {
    "name": "甲秀广场",
    "category": "outdoor",
    "duration_minutes": 120,
    "rating": 4.0,
    "lat": 26.571326,
    "lon": 106.717328,
    "description": "地址: 西湖路17号 | 类别: 风景名胜;公园广场;城市广场",
    "city": "贵阳"
  },
  {
    "name": "贵阳北站售票处(北)",
    "category": "sightseeing",
    "duration_minutes": 120,
    "rating": 4.0,
    "lat": 26.620038,
    "lon": 106.67543,
    "description": "地址: 甲秀北路181号贵阳北站F2 | 类别: 生活服务;售票处;售票处",
    "city": "贵阳"
  },
  {
    "name": "贵阳·黔灵山体育公园",
    "category": "outdoor",
    "duration_minutes": 120,
    "rating": 4.0,
    "lat": 26.59034,
    "lon": 106.684947,
    "description": "地址: 黔春立交正下方停车场游泳池旁 | 类别: 风景名胜;公园广场;公园",
    "city": "贵阳"
  },
  {
    "name": "观山湖公园-贵州生态体育公园",
    "category": "outdoor",
    "duration_minutes": 120,
    "rating": 4.0,
    "lat": 26.644869,
    "lon": 106.631525,
    "description": "地址: 林城东路与黔云路交叉口东80米 | 类别: 风景名胜;公园广场;公园",
    "city": "贵阳"
  },
  {
    "name": "保利·公园",
    "category": "outdoor",
    "duration_minutes": 120,
    "rating": 4.0,
    "lat": 26.647203,
    "lon": 106.764144,
    "description": "地址: 香槟大道与航天路交叉口北100米 | 类别: 商务住宅;住宅区;住宅区",
    "city": "贵阳"
  },
  {
    "name": "花溪十里河滩诗意园",
    "category": "outdoor",
    "duration_minutes": 120,
    "rating": 4.0,
    "lat": 26.486378,
    "lon": 106.674205,
    "description": "地址: 溪北社区花溪大道南段南明河附近 | 类别: 风景名胜;公园广场;公园",
    "city": "贵阳"
  },
  {
    "name": "九龙亭(九龙茶峰)",
    "category": "sightseeing",
    "duration_minutes": 120,
    "rating": 4.0,
    "lat": 26.521657,
    "lon": 106.617508,
    "description": "地址: 久安高效茶叶示范园区九龙亭 | 类别: 风景名胜;风景名胜相关;旅游景点",
    "city": "贵阳"
  },
  {
    "name": "大人山公园",
    "category": "outdoor",
    "duration_minutes": 120,
    "rating": 4.0,
    "lat": 26.675183,
    "lon": 106.626506,
    "description": "地址: 红云社区服务中心白云区政府正对面 | 类别: 风景名胜;公园广场;公园",
    "city": "贵阳"
  },
  {
    "name": "花果园嗨乐街区",
    "category": "sightseeing",
    "duration_minutes": 120,
    "rating": 4.0,
    "lat": 26.566152,
    "lon": 106.684652,
    "description": "地址: 花果园步行街南2门西南160米 | 类别: 体育休闲服务;休闲场所;游乐场",
    "city": "贵阳"
  },
  {
    "name": "红枫湖",
    "category": "outdoor",
    "duration_minutes": 120,
    "rating": 4.0,
    "lat": 26.489889,
    "lon": 106.39696,
    "description": "电话: 0851-82624639;0851-82522669 | 地址: 湖滨路旁 | 类别: 风景名胜;风景名胜;风景名胜",
    "city": "贵阳"
  },
  {
    "name": "乾山公园",
    "category": "outdoor",
    "duration_minutes": 120,
    "rating": 4.0,
    "lat": 26.605255,
    "lon": 106.624281,
    "description": "地址: 金阳南路地铁站C口步行300米 | 类别: 风景名胜;公园广场;公园",
    "city": "贵阳"
  },
  {
    "name": "多彩贵州风景眼文创园",
    "category": "sightseeing",
    "duration_minutes": 120,
    "rating": 4.0,
    "lat": 26.532353,
    "lon": 106.776226,
    "description": "电话: 0851-85512667 | 地址: 兴业西路北 | 类别: 商务住宅;产业园区;产业园区",
    "city": "贵阳"
  },
  {
    "name": "观山湖公园-畅吟亭",
    "category": "outdoor",
    "duration_minutes": 120,
    "rating": 4.0,
    "lat": 26.643618,
    "lon": 106.633033,
    "description": "电话: 0851-84584005 | 地址: 临城东路观山湖公园内(西北角) | 类别: 风景名胜;风景名胜相关;旅游景点",
    "city": "贵阳"
  },
  {
    "name": "贵阳市黔灵山公园管理处",
    "category": "outdoor",
    "duration_minutes": 120,
    "rating": 4.0,
    "lat": 26.590713,
    "lon": 106.69494,
    "description": "电话: 0851-86833226 | 地址: 枣山路187号黔灵山公园内(南侧) | 类别: 风景名胜;风景名胜相关;旅游景点",
    "city": "贵阳"
  },
  {
    "name": "普天广场",
    "category": "outdoor",
    "duration_minutes": 120,
    "rating": 4.0,
    "lat": 26.59011,
    "lon": 106.632409,
    "description": "地址: 百花大道贵阳普天公交站 | 类别: 风景名胜;公园广场;城市广场",
    "city": "贵阳"
  },
  {
    "name": "霸王坡-观景台",
    "category": "sightseeing",
    "duration_minutes": 120,
    "rating": 4.0,
    "lat": 26.608914,
    "lon": 106.515167,
    "description": "地址: 霸王坡 | 类别: 风景名胜;风景名胜;观景点",
    "city": "贵阳"
  },
  {
    "name": "临境广场",
    "category": "outdoor",
    "duration_minutes": 120,
    "rating": 4.0,
    "lat": 26.657916,
    "lon": 106.617873,
    "description": "地址: 诚信南路与牧歌街交叉口东北100米 | 类别: 风景名胜;公园广场;城市广场",
    "city": "贵阳"
  },
  {
    "name": "下水大佛",
    "category": "sightseeing",
    "duration_minutes": 120,
    "rating": 4.0,
    "lat": 26.709324,
    "lon": 106.738338,
    "description": "地址: 146县道附近 | 类别: 风景名胜;风景名胜;风景名胜",
    "city": "贵阳"
  },
  {
    "name": "朱昌营盘坡城堡遗址",
    "category": "history",
    "duration_minutes": 120,
    "rating": 4.0,
    "lat": 26.678436,
    "lon": 106.558083,
    "description": "地址: 柳亭庄园南侧250米 | 类别: 风景名胜;风景名胜;风景名胜",
    "city": "贵阳"
  },
  {
    "name": "鹿冲关森林公园文澜院",
    "category": "outdoor",
    "duration_minutes": 120,
    "rating": 4.0,
    "lat": 26.622222,
    "lon": 106.702683,
    "description": "电话: 0851-86612515 | 地址: 鹿冲关森林公园内(西南角) | 类别: 风景名胜;风景名胜相关;旅游景点",
    "city": "贵阳"
  },
  {
    "name": "弱水亭",
    "category": "sightseeing",
    "duration_minutes": 120,
    "rating": 4.0,
    "lat": 26.641825,
    "lon": 106.631575,
    "description": "电话: 0851-84584005 | 地址: 临城东路观山湖公园内(西侧) | 类别: 风景名胜;风景名胜相关;旅游景点",
    "city": "贵阳"
  },
  {
    "name": "求雨坡公园",
    "category": "outdoor",
    "duration_minutes": 120,
    "rating": 4.0,
    "lat": 26.68153,
    "lon": 106.613372,
    "description": "地址: 七一街与七一路交叉口西120米 | 类别: 风景名胜;公园广场;公园",
    "city": "贵阳"
  },
  {
    "name": "观山湖公园爱心妈妈小屋",
    "category": "outdoor",
    "duration_minutes": 120,
    "rating": 4.0,
    "lat": 26.634943,
    "lon": 106.635304,
    "description": "电话: 0851-84584005 | 地址: 观山湖公园(西南角) | 类别: 风景名胜;风景名胜;海滩",
    "city": "贵阳"
  },
  {
    "name": "翠微园",
    "category": "outdoor",
    "duration_minutes": 120,
    "rating": 4.0,
    "lat": 26.570754,
    "lon": 106.720052,
    "description": "电话: 0851-85503811 | 地址: 翠微巷8号 | 类别: 风景名胜;公园广场;公园",
    "city": "贵阳"
  },
  {
    "name": "沁园春雕塑",
    "category": "sightseeing",
    "duration_minutes": 120,
    "rating": 4.0,
    "lat": 26.637423,
    "lon": 106.633126,
    "description": "地址: 金阳北路176号 | 类别: 风景名胜;风景名胜相关;旅游景点",
    "city": "贵阳"
  },
  {
    "name": "沁园春雕塑",
    "category": "sightseeing",
    "duration_minutes": 120,
    "rating": 4.0,
    "lat": 26.637423,
    "lon": 106.633126,
    "description": "地址: 金阳北路176号 | 类别: 风景名胜;风景名胜相关;旅游景点",
    "city": "贵阳"
  },
  {
    "name": "四方金街文化广场",
    "category": "outdoor",
    "duration_minutes": 120,
    "rating": 4.0,
    "lat": 26.68711,
    "lon": 106.649544,
    "description": "地址: 白沙关社区服务中心龚北路 | 类别: 风景名胜;公园广场;城市广场",
    "city": "贵阳"
  },
  {
    "name": "南郊公园",
    "category": "outdoor",
    "duration_minutes": 120,
    "rating": 4.0,
    "lat": 26.538834,
    "lon": 106.678307,
    "description": "地址: 太慈社区服务中心 | 类别: 风景名胜;公园广场;公园",
    "city": "贵阳"
  },
  {
    "name": "观山湖公园-锦鸡铜鼓广场",
    "category": "outdoor",
    "duration_minutes": 120,
    "rating": 4.0,
    "lat": 26.638842,
    "lon": 106.633478,
    "description": "电话: 0851-84584005 | 地址: 观山湖公园内(西侧) | 类别: 风景名胜;公园广场;城市广场",
    "city": "贵阳"
  },
  {
    "name": "灵长馆",
    "category": "sightseeing",
    "duration_minutes": 120,
    "rating": 4.0,
    "lat": 26.602561,
    "lon": 106.695622,
    "description": "电话: 0851-86823039 | 地址: 黔灵山路187号动物园内 | 类别: 风景名胜;风景名胜相关;旅游景点",
    "city": "贵阳"
  },
  {
    "name": "情人谷",
    "category": "sightseeing",
    "duration_minutes": 120,
    "rating": 4.0,
    "lat": 26.605794,
    "lon": 106.808403,
    "description": "地址: 情人谷路 | 类别: 风景名胜;风景名胜;风景名胜",
    "city": "贵阳"
  },
  {
    "name": "阿哈湖观景点",
    "category": "outdoor",
    "duration_minutes": 120,
    "rating": 4.0,
    "lat": 26.535749,
    "lon": 106.654795,
    "description": "地址: 贵阳阿哈湖国家湿地公园(东南角) | 类别: 风景名胜;风景名胜;观景点",
    "city": "贵阳"
  },
  {
    "name": "松溪河湿地公园",
    "category": "outdoor",
    "duration_minutes": 120,
    "rating": 4.0,
    "lat": 26.624336,
    "lon": 106.768621,
    "description": "地址: 新泉路98号 | 类别: 风景名胜;公园广场;公园",
    "city": "贵阳"
  },
  {
    "name": "瞰筑亭",
    "category": "sightseeing",
    "duration_minutes": 120,
    "rating": 4.0,
    "lat": 26.592249,
    "lon": 106.692734,
    "description": "电话: 0851-86823039 | 地址: 枣山路187号黔灵山公园内(南侧) | 类别: 风景名胜;风景名胜相关;旅游景点",
    "city": "贵阳"
  },
  {
    "name": "贵阳日出日落观景点",
    "category": "sightseeing",
    "duration_minutes": 120,
    "rating": 4.0,
    "lat": 26.605166,
    "lon": 106.69218,
    "description": "地址: 黔灵山路187号 | 类别: 风景名胜;风景名胜;风景名胜",
    "city": "贵阳"
  },
  {
    "name": "贵阳北站售票处(南)",
    "category": "sightseeing",
    "duration_minutes": 120,
    "rating": 4.0,
    "lat": 26.618515,
    "lon": 106.676444,
    "description": "地址: 甲秀北路181号贵阳北站F2 | 类别: 生活服务;售票处;售票处",
    "city": "贵阳"
  },
  {
    "name": "贵州乡愁",
    "category": "sightseeing",
    "duration_minutes": 120,
    "rating": 4.0,
    "lat": 26.580059,
    "lon": 106.409223,
    "description": "电话: 0851-82575888 | 地址: 云站路 | 类别: 风景名胜;风景名胜;风景名胜",
    "city": "贵阳"
  },
  {
    "name": "花溪十里河滩旅游度假区",
    "category": "outdoor",
    "duration_minutes": 120,
    "rating": 4.0,
    "lat": 26.463553,
    "lon": 106.675453,
    "description": "电话: 0851-82412301 | 地址: 花溪大道花溪国家城市湿地公园(北区北门)附近 | 类别: 风景名胜;公园广场;公园",
    "city": "贵阳"
  },
  {
    "name": "雨巷",
    "category": "sightseeing",
    "duration_minutes": 120,
    "rating": 4.0,
    "lat": 26.612618,
    "lon": 106.605335,
    "description": "地址: 云潭南路与石林东路交叉口北100米 | 类别: 风景名胜;风景名胜相关;旅游景点",
    "city": "贵阳"
  },
  {
    "name": "观山湖生态温泉水上乐园",
    "category": "outdoor",
    "duration_minutes": 120,
    "rating": 4.0,
    "lat": 26.612573,
    "lon": 106.569882,
    "description": "地址: 金阳西南商贸城6号楼过六砂桥800米 | 类别: 体育休闲服务;休闲场所;水上活动中心",
    "city": "贵阳"
  },
  {
    "name": "三江口星月湾公园",
    "category": "outdoor",
    "duration_minutes": 120,
    "rating": 4.0,
    "lat": 26.505828,
    "lon": 106.705107,
    "description": "地址: 小河三江口航天桥 | 类别: 风景名胜;公园广场;公园",
    "city": "贵阳"
  },
  {
    "name": "长滩河童话小镇",
    "category": "sightseeing",
    "duration_minutes": 120,
    "rating": 4.0,
    "lat": 26.708618,
    "lon": 106.569287,
    "description": "电话: 0851-84866811;19985917609 | 地址: 长青路 | 类别: 风景名胜;风景名胜;风景名胜",
    "city": "贵阳"
  },
  {
    "name": "花溪湖公园",
    "category": "outdoor",
    "duration_minutes": 120,
    "rating": 4.0,
    "lat": 26.416424,
    "lon": 106.666883,
    "description": "地址: 花溪公园南侧,迎宾馆东侧,毗邻花溪区行政中心 | 类别: 风景名胜;公园广场;公园",
    "city": "贵阳"
  },
  {
    "name": "蓬莱仙界·蘑力小镇(装修中)",
    "category": "sightseeing",
    "duration_minutes": 120,
    "rating": 4.0,
    "lat": 26.745957,
    "lon": 106.731241,
    "description": "电话: 17385596734 | 地址: 神农广场(西北角) | 类别: 体育休闲服务;休闲场所;游乐场",
    "city": "贵阳"
  },
  {
    "name": "中共贵州省工委旧址",
    "category": "sightseeing",
    "duration_minutes": 120,
    "rating": 4.0,
    "lat": 26.580778,
    "lon": 106.717378,
    "description": "电话: 0851-85830331 | 地址: 文笔街11号 | 类别: 风景名胜;风景名胜;风景名胜",
    "city": "贵阳"
  },
  {
    "name": "贵阳基督教堂",
    "category": "sightseeing",
    "duration_minutes": 120,
    "rating": 4.0,
    "lat": 26.586858,
    "lon": 106.710119,
    "description": "地址: 黔灵西路19号 | 类别: 风景名胜;风景名胜;教堂",
    "city": "贵阳"
  },
  {
    "name": "贵阳市体育文化公园",
    "category": "outdoor",
    "duration_minutes": 120,
    "rating": 4.0,
    "lat": 26.569295,
    "lon": 106.51619,
    "description": "地址: 栗山路299号 | 类别: 风景名胜;公园广场;公园",
    "city": "贵阳"
  },
  {
    "name": "贵阳东山寺日出日落观景点",
    "category": "outdoor",
    "duration_minutes": 120,
    "rating": 4.0,
    "lat": 26.577063,
    "lon": 106.72736,
    "description": "地址: 东山寺三省亭旁 | 类别: 风景名胜;风景名胜;风景名胜",
    "city": "贵阳"
  },
  {
    "name": "云贵山山头公园",
    "category": "outdoor",
    "duration_minutes": 120,
    "rating": 4.0,
    "lat": 26.573942,
    "lon": 106.685875,
    "description": "地址: 头桥社区服务中心 | 类别: 风景名胜;公园广场;公园",
    "city": "贵阳"
  },
  {
    "name": "清镇小三亚",
    "category": "sightseeing",
    "duration_minutes": 120,
    "rating": 4.0,
    "lat": 26.552418,
    "lon": 106.413327,
    "description": "地址: 红枫湖S湾南侧 | 类别: 风景名胜;风景名胜;风景名胜",
    "city": "贵阳"
  },
  {
    "name": "皂角井",
    "category": "sightseeing",
    "duration_minutes": 120,
    "rating": 4.0,
    "lat": 26.538622,
    "lon": 106.690861,
    "description": "地址: 四方河村岩脚村民组46号旁(南明河边皂角井绿谷超市旁) | 类别: 风景名胜;风景名胜;风景名胜",
    "city": "贵阳"
  },
  {
    "name": "迎宾广场",
    "category": "outdoor",
    "duration_minutes": 120,
    "rating": 4.0,
    "lat": 26.643445,
    "lon": 106.628315,
    "description": "电话: 0851-84584005 | 地址: 君侠路观山湖公园内(西侧) | 类别: 风景名胜;公园广场;城市广场",
    "city": "贵阳"
  },
  {
    "name": "万象温泉旅游度假区",
    "category": "sightseeing",
    "duration_minutes": 120,
    "rating": 4.0,
    "lat": 26.649994,
    "lon": 106.782866,
    "description": "地址: 贵阳万象温泉度假酒店南门西北60米 | 类别: 体育休闲服务;度假疗养场所;度假村",
    "city": "贵阳"
  },
  {
    "name": "绿地海格体育公园",
    "category": "outdoor",
    "duration_minutes": 120,
    "rating": 4.0,
    "lat": 26.688532,
    "lon": 106.642699,
    "description": "电话: 13595154855 | 地址: 铝兴路海格营销中心旁 | 类别: 风景名胜;公园广场;公园",
    "city": "贵阳"
  },
  {
    "name": "花果园中央公园",
    "category": "outdoor",
    "duration_minutes": 120,
    "rating": 4.0,
    "lat": 26.565247,
    "lon": 106.675091,
    "description": "地址: 遵义中路与小车河路交叉口东北120米 | 类别: 风景名胜;公园广场;公园",
    "city": "贵阳"
  },
  {
    "name": "大龙滩生态湿地公园",
    "category": "outdoor",
    "duration_minutes": 120,
    "rating": 4.0,
    "lat": 26.651528,
    "lon": 106.769778,
    "description": "地址: 新光路街道航天路与龙广路交叉口西100米 | 类别: 风景名胜;风景名胜相关;旅游景点",
    "city": "贵阳"
  },
  {
    "name": "饮马湖公园",
    "category": "outdoor",
    "duration_minutes": 120,
    "rating": 4.0,
    "lat": 26.533692,
    "lon": 106.673197,
    "description": "地址: 车水路156号 | 类别: 风景名胜;公园广场;公园",
    "city": "贵阳"
  },
  {
    "name": "百花湖森林公园",
    "category": "outdoor",
    "duration_minutes": 120,
    "rating": 4.0,
    "lat": 26.648529,
    "lon": 106.546457,
    "description": "地址: 化高路附近 | 类别: 风景名胜;公园广场;公园",
    "city": "贵阳"
  },
  {
    "name": "麦翁布依古寨",
    "category": "sightseeing",
    "duration_minutes": 120,
    "rating": 4.0,
    "lat": 26.451327,
    "lon": 106.679001,
    "description": "地址: 花溪大道南段2609花溪国家城市湿地公园 | 类别: 风景名胜;风景名胜相关;旅游景点",
    "city": "贵阳"
  },
  {
    "name": "袋鼠童乐世界",
    "category": "sightseeing",
    "duration_minutes": 120,
    "rating": 4.0,
    "lat": 26.530804,
    "lon": 106.671443,
    "description": "电话: 18096021950;18096028090 | 地址: 国际时尚发布中心旁 | 类别: 体育休闲服务;休闲场所;游乐场",
    "city": "贵阳"
  },
  {
    "name": "解放贵州革命烈士纪念碑",
    "category": "history",
    "duration_minutes": 120,
    "rating": 4.0,
    "lat": 26.598224,
    "lon": 106.690673,
    "description": "电话: 0851-86823039 | 地址: 枣山路187号黔灵山公园内 | 类别: 风景名胜;风景名胜;纪念馆",
    "city": "贵阳"
  },
  {
    "name": "多彩贵州欢乐谷",
    "category": "sightseeing",
    "duration_minutes": 120,
    "rating": 4.0,
    "lat": 26.531049,
    "lon": 106.785739,
    "description": "地址: 见龙社区服务中心机场路60号 | 类别: 体育休闲服务;休闲场所;游乐场",
    "city": "贵阳"
  },
  {
    "name": "凭水临风",
    "category": "sightseeing",
    "duration_minutes": 120,
    "rating": 4.0,
    "lat": 26.63609,
    "lon": 106.63186,
    "description": "电话: 0851-84584005 | 地址: 观山湖公园(西南角) | 类别: 风景名胜;风景名胜相关;旅游景点",
    "city": "贵阳"
  },
  {
    "name": "阳关小龙井",
    "category": "sightseeing",
    "duration_minutes": 120,
    "rating": 4.0,
    "lat": 26.622656,
    "lon": 106.662078,
    "description": "地址: 阳关村小龙井组凯里路(白鹭湖地铁站C口步行440米) | 类别: 风景名胜;风景名胜;风景名胜",
    "city": "贵阳"
  },
  {
    "name": "開元禅寺",
    "category": "sightseeing",
    "duration_minutes": 120,
    "rating": 4.0,
    "lat": 26.610685,
    "lon": 106.581903,
    "description": "地址: 温州路与商城东路交叉口西300米,温州路公交站路北 | 类别: 风景名胜;风景名胜;风景名胜",
    "city": "贵阳"
  },
  {
    "name": "沧浪亭(观山湖公园店)",
    "category": "outdoor",
    "duration_minutes": 120,
    "rating": 4.0,
    "lat": 26.631447,
    "lon": 106.632776,
    "description": "地址: 观山湖公园(西南角) | 类别: 风景名胜;风景名胜相关;旅游景点",
    "city": "贵阳"
  },
  {
    "name": "九龙山-观景台",
    "category": "outdoor",
    "duration_minutes": 120,
    "rating": 4.0,
    "lat": 26.670177,
    "lon": 106.48774,
    "description": "地址: 仙鹅抱蛋北侧340米 | 类别: 风景名胜;风景名胜;风景名胜",
    "city": "贵阳"
  },
  {
    "name": "圣泉",
    "category": "sightseeing",
    "duration_minutes": 120,
    "rating": 4.0,
    "lat": 26.591669,
    "lon": 106.677554,
    "description": "地址: 圣泉路231A | 类别: 风景名胜;风景名胜;风景名胜",
    "city": "贵阳"
  },
  {
    "name": "车田问仙谷",
    "category": "sightseeing",
    "duration_minutes": 120,
    "rating": 4.0,
    "lat": 26.437181,
    "lon": 106.552768,
    "description": "地址: 贵安大道k15号 | 类别: 风景名胜;风景名胜;风景名胜",
    "city": "贵阳"
  },
  {
    "name": "阳明洞",
    "category": "sightseeing",
    "duration_minutes": 120,
    "rating": 4.0,
    "lat": 26.845875,
    "lon": 106.610825,
    "description": "电话: 0851-82320777 | 地址: 栖霞山 | 类别: 风景名胜;风景名胜;风景名胜",
    "city": "贵阳"
  },
  {
    "name": "二层岩森林公园",
    "category": "outdoor",
    "duration_minutes": 120,
    "rating": 4.0,
    "lat": 26.570094,
    "lon": 106.673165,
    "description": "地址: 遵义中路贝地领航东南侧约130米 | 类别: 风景名胜;公园广场;植物园|风景名胜;公园广场;公园|风景名胜;公园广场;动物园",
    "city": "贵阳"
  },
  {
    "name": "白虎山山体公园",
    "category": "outdoor",
    "duration_minutes": 120,
    "rating": 4.0,
    "lat": 26.830341,
    "lon": 106.604629,
    "description": "地址: 白修线 | 类别: 风景名胜;风景名胜;风景名胜",
    "city": "贵阳"
  },
  {
    "name": "空中怪车遗址",
    "category": "history",
    "duration_minutes": 120,
    "rating": 4.0,
    "lat": 26.668583,
    "lon": 106.680532,
    "description": "地址: 信邦大道124号 | 类别: 风景名胜;风景名胜;风景名胜",
    "city": "贵阳"
  },
  {
    "name": "达德学校旧址",
    "category": "sightseeing",
    "duration_minutes": 120,
    "rating": 4.0,
    "lat": 26.575907,
    "lon": 106.712921,
    "description": "电话: 0851-85812938 | 地址: 中华南路14号 | 类别: 风景名胜;风景名胜;风景名胜",
    "city": "贵阳"
  },
  {
    "name": "观景平台",
    "category": "sightseeing",
    "duration_minutes": 120,
    "rating": 4.0,
    "lat": 26.642652,
    "lon": 106.633978,
    "description": "地址: 林城东路41号(观山湖公园地铁站D口步行470米) | 类别: 风景名胜;风景名胜相关;旅游景点",
    "city": "贵阳"
  },
  {
    "name": "亚马逊热带雨林",
    "category": "sightseeing",
    "duration_minutes": 120,
    "rating": 4.0,
    "lat": 26.529071,
    "lon": 106.790399,
    "description": "电话: 0851-85511850 | 地址: 龙洞堡多彩贵州城贵州极地海洋世界内(西南角) | 类别: 风景名胜;风景名胜相关;旅游景点",
    "city": "贵阳"
  },
  {
    "name": "车田文化广场",
    "category": "outdoor",
    "duration_minutes": 120,
    "rating": 4.0,
    "lat": 26.43334,
    "lon": 106.552332,
    "description": "类别: 风景名胜;公园广场;城市广场",
    "city": "贵阳"
  },
  {
    "name": "观音洞",
    "category": "history",
    "duration_minutes": 120,
    "rating": 4.0,
    "lat": 26.564914,
    "lon": 106.736964,
    "description": "电话: 0851-85524133 | 地址: 青年路148号 | 类别: 风景名胜;风景名胜;寺庙道观",
    "city": "贵阳"
  },
  {
    "name": "贵州民族民俗博物馆",
    "category": "museum",
    "duration_minutes": 120,
    "rating": 4.0,
    "lat": 26.67314,
    "lon": 106.638516,
    "description": "地址: 白云南路483号贵阳欢乐世界 | 类别: 科教文化服务;博物馆;博物馆",
    "city": "贵阳"
  },
  {
    "name": "小黄侗寨",
    "category": "sightseeing",
    "duration_minutes": 120,
    "rating": 4.0,
    "lat": 26.667529,
    "lon": 106.622484,
    "description": "地址: 龙井路1号梵华里奥特莱斯F3层 | 类别: 餐饮服务;中餐厅;中餐厅",
    "city": "贵阳"
  },
  {
    "name": "狮子岩山体公园",
    "category": "outdoor",
    "duration_minutes": 120,
    "rating": 4.0,
    "lat": 26.557848,
    "lon": 106.676222,
    "description": "地址: 延安南路103号Q区4栋136正东方向130米 | 类别: 风景名胜;风景名胜相关;旅游景点",
    "city": "贵阳"
  },
  {
    "name": "合朋中心广场",
    "category": "sightseeing",
    "duration_minutes": 120,
    "rating": 4.0,
    "lat": 26.481107,
    "lon": 106.633887,
    "description": "类别: 商务住宅;商务住宅相关;商务住宅相关",
    "city": "贵阳"
  },
  {
    "name": "青岩古镇",
    "category": "sightseeing",
    "duration_minutes": 120,
    "rating": 4.0,
    "lat": 26.331095,
    "lon": 106.686834,
    "description": "地址: 青岩镇 | 类别: 风景名胜;风景名胜;国家级景点",
    "city": "贵阳"
  },
  {
    "name": "贵阳虎峰别墅(不对外开放)",
    "category": "sightseeing",
    "duration_minutes": 120,
    "rating": 4.0,
    "lat": 26.578587,
    "lon": 106.71796,
    "description": "地址: 中山东路107号 | 类别: 风景名胜;风景名胜;风景名胜",
    "city": "贵阳"
  },
  {
    "name": "中国红十字会救护总队贵阳图云关抗战纪念馆",
    "category": "history",
    "duration_minutes": 120,
    "rating": 4.0,
    "lat": 26.553524,
    "lon": 106.755164,
    "description": "电话: 0851-88626333 | 地址: 贵阳市森林公园内(东北角) | 类别: 风景名胜;风景名胜;纪念馆",
    "city": "贵阳"
  }
]