[
  {
    "name": "中山桥",
    "category": "outdoor",
    "duration_minutes": 120,
    "rating": 4.0,
    "lat": 36.06514,
    "lon": 103.816868,
    "description": "地址: 南滨河路与中山路交叉口 | 类别: 风景名胜;风景名胜;风景名胜",
    "city": "兰州"
  },
  {
    "name": "东方红广场",
    "category": "sightseeing",
    "duration_minutes": 120,
    "rating": 4.0,
    "lat": 36.05227,
    "lon": 103.841893,
    "description": "地址: 广场南路4-6号(东方红广场地铁站C口步行330米) | 类别: 风景名胜;风景名胜相关;旅游景点",
    "city": "兰州"
  },
  {
    "name": "水车博览园",
    "category": "sightseeing",
    "duration_minutes": 120,
    "rating": 4.0,
    "lat": 36.063249,
    "lon": 103.84353,
    "description": "电话: 0931-8587111;0931-8580722;12301 | 地址: 南滨河东路524号 | 类别: 风景名胜;风景名胜;国家级景点",
    "city": "兰州"
  },
  {
    "name": "雁滩公园",
    "category": "outdoor",
    "duration_minutes": 120,
    "rating": 4.0,
    "lat": 36.060886,
    "lon": 103.855436,
    "description": "电话: 0931-8583713 | 地址: 天水北路23号 | 类别: 风景名胜;公园广场;公园",
    "city": "兰州"
  },
  {
    "name": "五泉山公园",
    "category": "outdoor",
    "duration_minutes": 120,
    "rating": 4.0,
    "lat": 36.036748,
    "lon": 103.824194,
    "description": "电话: 0931-8243247 | 地址: 五泉南路103号 | 类别: 风景名胜;风景名胜;风景名胜",
    "city": "兰州"
  },
  {
    "name": "白塔山公园",
    "category": "outdoor",
    "duration_minutes": 120,
    "rating": 4.0,
    "lat": 36.069439,
    "lon": 103.811769,
    "description": "电话: 0931-8360800;0931-8366114 | 地址: 北滨河中路白塔山1号 | 类别: 风景名胜;公园广场;公园",
    "city": "兰州"
  },
  {
    "name": "兰州市博物馆",
    "category": "museum",
    "duration_minutes": 120,
    "rating": 4.0,
    "lat": 36.055326,
    "lon": 103.834043,
    "description": "电话: 0931-8828555 | 地址: 庆阳路240号(东方红广场地铁站X1口步行410米) | 类别: 科教文化服务;博物馆;博物馆",
    "city": "兰州"
  },
  {
    "name": "小西湖",
    "category": "outdoor",
    "duration_minutes": 120,
    "rating": 4.0,
    "lat": 36.064698,
    "lon": 103.798381,
    "description": "电话: 0931-2613789 | 地址: 西津东路229号(小西湖地铁站A口步行240米) | 类别: 风景名胜;公园广场;公园",
    "city": "兰州"
  },
  {
    "name": "兰山公园",
    "category": "outdoor",
    "duration_minutes": 120,
    "rating": 4.0,
    "lat": 36.028396,
    "lon": 103.839928,
    "description": "电话: 0931-8242892 | 地址: 头营村X127县道南山路 | 类别: 风景名胜;公园广场;公园",
    "city": "兰州"
  },
  {
    "name": "甘肃省博物馆",
    "category": "museum",
    "duration_minutes": 120,
    "rating": 4.0,
    "lat": 36.066606,
    "lon": 103.774625,
    "description": "电话: 0931-2339131 | 地址: 西津西路3号(西站什字地铁站A口步行400米) | 类别: 科教文化服务;博物馆;博物馆",
    "city": "兰州"
  },
  {
    "name": "白云观",
    "category": "history",
    "duration_minutes": 120,
    "rating": 4.0,
    "lat": 36.062124,
    "lon": 103.810502,
    "description": "地址: 南滨河东路987号 | 类别: 风景名胜;风景名胜;寺庙道观",
    "city": "兰州"
  },
  {
    "name": "黄河第一桥石碑",
    "category": "history",
    "duration_minutes": 120,
    "rating": 4.0,
    "lat": 36.063424,
    "lon": 103.81678,
    "description": "地址: 靖远路街道南滨河路与中山路交叉口 | 类别: 风景名胜;风景名胜相关;旅游景点",
    "city": "兰州"
  },
  {
    "name": "兰州水车园",
    "category": "sightseeing",
    "duration_minutes": 120,
    "rating": 4.0,
    "lat": 36.064402,
    "lon": 103.802605,
    "description": "电话: 0931-2612861 | 地址: 南滨河中路4号 | 类别: 风景名胜;风景名胜;国家级景点",
    "city": "兰州"
  },
  {
    "name": "花田巷",
    "category": "sightseeing",
    "duration_minutes": 120,
    "rating": 4.0,
    "lat": 36.051159,
    "lon": 103.822628,
    "description": "电话: 13993112223 | 地址: 正宁路117号 | 类别: 购物服务;特色商业街;特色商业街",
    "city": "兰州"
  },
  {
    "name": "清·兰山书院旧址",
    "category": "outdoor",
    "duration_minutes": 120,
    "rating": 4.0,
    "lat": 36.059398,
    "lon": 103.835449,
    "description": "地址: 广武门兰州市第三中学(秦安路) | 类别: 风景名胜;风景名胜相关;旅游景点",
    "city": "兰州"
  },
  {
    "name": "八路军驻兰办事处纪念馆",
    "category": "museum",
    "duration_minutes": 120,
    "rating": 4.0,
    "lat": 36.050351,
    "lon": 103.826472,
    "description": "电话: 0931-4659783 | 地址: 酒泉路314号 | 类别: 风景名胜;风景名胜;红色景区",
    "city": "兰州"
  },
  {
    "name": "府城隍庙",
    "category": "history",
    "duration_minutes": 120,
    "rating": 4.0,
    "lat": 36.060695,
    "lon": 103.822563,
    "description": "电话: 0931-8465966 | 地址: 张掖路街道张掖路202号(近陇西路) | 类别: 风景名胜;风景名胜;风景名胜",
    "city": "兰州"
  },
  {
    "name": "兰哈顿(网红打卡点)",
    "category": "sightseeing",
    "duration_minutes": 120,
    "rating": 4.0,
    "lat": 36.045334,
    "lon": 103.815293,
    "description": "地址: 伏龙坪后街293号 | 类别: 风景名胜;风景名胜;风景名胜",
    "city": "兰州"
  },
  {
    "name": "马拉松文化主题公园",
    "category": "outdoor",
    "duration_minutes": 120,
    "rating": 4.0,
    "lat": 36.069731,
    "lon": 103.854431,
    "description": "地址: 盐场路街道盐场路街道人民路 | 类别: 风景名胜;公园广场;公园",
    "city": "兰州"
  },
  {
    "name": "元通黄河桥",
    "category": "outdoor",
    "duration_minutes": 120,
    "rating": 4.0,
    "lat": 36.065589,
    "lon": 103.825393,
    "description": "地址: 元通大桥与北滨河中路交叉口南100米 | 类别: 风景名胜;公园广场;水族馆|风景名胜;风景名胜;风景名胜",
    "city": "兰州"
  },
  {
    "name": "甘肃地质博物馆",
    "category": "museum",
    "duration_minutes": 120,
    "rating": 4.0,
    "lat": 36.06899,
    "lon": 103.86095,
    "description": "电话: 0931-8178210 | 地址: 雁南街道团结路6号 | 类别: 科教文化服务;博物馆;博物馆",
    "city": "兰州"
  },
  {
    "name": "金轮广场",
    "category": "outdoor",
    "duration_minutes": 120,
    "rating": 4.0,
    "lat": 36.040486,
    "lon": 103.841354,
    "description": "地址: 和政东街77号 | 类别: 风景名胜;公园广场;城市广场",
    "city": "兰州"
  },
  {
    "name": "兰山公园半山门牌坊",
    "category": "outdoor",
    "duration_minutes": 120,
    "rating": 4.0,
    "lat": 36.045343,
    "lon": 103.815273,
    "description": "电话: 0931-8242892 | 地址: 伏龙坪后街293号 | 类别: 风景名胜;风景名胜相关;旅游景点",
    "city": "兰州"
  },
  {
    "name": "金城关文化博览园",
    "category": "sightseeing",
    "duration_minutes": 120,
    "rating": 4.0,
    "lat": 36.066143,
    "lon": 103.815643,
    "description": "电话: 0931-8559236 | 地址: 北滨河中路450号 | 类别: 风景名胜;风景名胜;风景名胜",
    "city": "兰州"
  },
  {
    "name": "兰山公园二台阁",
    "category": "outdoor",
    "duration_minutes": 120,
    "rating": 4.0,
    "lat": 36.029731,
    "lon": 103.826763,
    "description": "类别: 风景名胜;风景名胜相关;旅游景点",
    "city": "兰州"
  },
  {
    "name": "兰州碑林",
    "category": "sightseeing",
    "duration_minutes": 120,
    "rating": 4.0,
    "lat": 36.070394,
    "lon": 103.809439,
    "description": "电话: 0931-8373727 | 地址: 靖远路街道北滨河中路与金城路交叉口东北460米 | 类别: 风景名胜;风景名胜相关;旅游景点",
    "city": "兰州"
  },
  {
    "name": "望河亭",
    "category": "sightseeing",
    "duration_minutes": 120,
    "rating": 4.0,
    "lat": 36.065459,
    "lon": 103.853586,
    "description": "地址: 南滨河东路(兰州市体育公园东北侧约50米) | 类别: 风景名胜;风景名胜;风景名胜",
    "city": "兰州"
  },
  {
    "name": "兰州老街",
    "category": "sightseeing",
    "duration_minutes": 120,
    "rating": 4.0,
    "lat": 36.076479,
    "lon": 103.726152,
    "description": "电话: 0931-2189999;0931-6159999 | 地址: 西津西路606号 | 类别: 购物服务;特色商业街;特色商业街|风景名胜;风景名胜相关;旅游景点",
    "city": "兰州"
  },
  {
    "name": "兰州极地海洋世界",
    "category": "outdoor",
    "duration_minutes": 120,
    "rating": 4.0,
    "lat": 36.061722,
    "lon": 103.770696,
    "description": "电话: 0931-2885892;18119353276 | 地址: 建西东路303号 | 类别: 风景名胜;公园广场;水族馆",
    "city": "兰州"
  },
  {
    "name": "文殊院",
    "category": "sightseeing",
    "duration_minutes": 120,
    "rating": 4.0,
    "lat": 36.060656,
    "lon": 103.828926,
    "description": "地址: 山字石街12(省政府地铁站A口步行340米) | 类别: 风景名胜;风景名胜;风景名胜",
    "city": "兰州"
  },
  {
    "name": "兰州市基督教山字石礼拜堂",
    "category": "outdoor",
    "duration_minutes": 120,
    "rating": 4.0,
    "lat": 36.059381,
    "lon": 103.827707,
    "description": "电话: 0931-8460539 | 地址: 张掖路92号 | 类别: 风景名胜;风景名胜;教堂",
    "city": "兰州"
  },
  {
    "name": "兰州市烈士陵园",
    "category": "sightseeing",
    "duration_minutes": 120,
    "rating": 4.0,
    "lat": 36.038756,
    "lon": 103.798296,
    "description": "电话: 0931-2211491 | 地址: 八里镇华林路529号 | 类别: 生活服务;丧葬设施;陵园|风景名胜;风景名胜;风景名胜",
    "city": "兰州"
  },
  {
    "name": "兰州创意文化产业园",
    "category": "sightseeing",
    "duration_minutes": 120,
    "rating": 4.0,
    "lat": 36.047784,
    "lon": 103.88217,
    "description": "地址: 段家滩路704号 | 类别: 商务住宅;产业园区;产业园区",
    "city": "兰州"
  },
  {
    "name": "金城盆景园",
    "category": "outdoor",
    "duration_minutes": 120,
    "rating": 4.0,
    "lat": 36.05655,
    "lon": 103.841431,
    "description": "电话: 0931-8825736 | 地址: 南昌路797号 | 类别: 风景名胜;公园广场;公园",
    "city": "兰州"
  },
  {
    "name": "闵家桥清真寺",
    "category": "history",
    "duration_minutes": 120,
    "rating": 4.0,
    "lat": 36.043234,
    "lon": 103.831473,
    "description": "地址: 金昌南路136号 | 类别: 风景名胜;风景名胜;回教寺",
    "city": "兰州"
  },
  {
    "name": "三台阁牌坊",
    "category": "sightseeing",
    "duration_minutes": 120,
    "rating": 4.0,
    "lat": 36.024556,
    "lon": 103.837163,
    "description": "地址: 伏龙坪街道 | 类别: 风景名胜;风景名胜;风景名胜",
    "city": "兰州"
  },
  {
    "name": "黄河音乐喷泉",
    "category": "sightseeing",
    "duration_minutes": 120,
    "rating": 4.0,
    "lat": 36.065759,
    "lon": 103.829715,
    "description": "地址: 北滨河中路(富星家居广场对面) | 类别: 风景名胜;风景名胜相关;旅游景点",
    "city": "兰州"
  },
  {
    "name": "彩陶博览园",
    "category": "sightseeing",
    "duration_minutes": 120,
    "rating": 4.0,
    "lat": 36.076267,
    "lon": 103.810794,
    "description": "地址: 罗九公路东侧 | 类别: 风景名胜;风景名胜;风景名胜",
    "city": "兰州"
  },
  {
    "name": "兰州黄河游轮",
    "category": "sightseeing",
    "duration_minutes": 120,
    "rating": 4.0,
    "lat": 36.063237,
    "lon": 103.827894,
    "description": "地址: 北滨河中路406号 | 类别: 风景名胜;风景名胜相关;旅游景点",
    "city": "兰州"
  },
  {
    "name": "中山铁桥百年纪念碑",
    "category": "history",
    "duration_minutes": 120,
    "rating": 4.0,
    "lat": 36.063484,
    "lon": 103.817316,
    "description": "地址: 南滨河东路与中山路交叉口北40米 | 类别: 风景名胜;风景名胜;纪念馆",
    "city": "兰州"
  },
  {
    "name": "天主堂",
    "category": "sightseeing",
    "duration_minutes": 120,
    "rating": 4.0,
    "lat": 36.050121,
    "lon": 103.837388,
    "description": "地址: 金昌南路328号(东方红广场地铁站X1口步行490米) | 类别: 风景名胜;风景名胜;教堂",
    "city": "兰州"
  },
  {
    "name": "工林路清真大寺",
    "category": "sightseeing",
    "duration_minutes": 120,
    "rating": 4.0,
    "lat": 36.054358,
    "lon": 103.794249,
    "description": "地址: 工林路360号 | 类别: 风景名胜;风景名胜;回教寺",
    "city": "兰州"
  },
  {
    "name": "黄河楼",
    "category": "sightseeing",
    "duration_minutes": 120,
    "rating": 4.0,
    "lat": 36.080472,
    "lon": 103.711204,
    "description": "电话: 0931-2115666 | 地址: 南滨河中路1501号 | 类别: 风景名胜;风景名胜;风景名胜",
    "city": "兰州"
  },
  {
    "name": "兰州植物园",
    "category": "outdoor",
    "duration_minutes": 120,
    "rating": 4.0,
    "lat": 36.118934,
    "lon": 103.705172,
    "description": "电话: 0931-7666798 | 地址: 建安西路 | 类别: 风景名胜;公园广场;植物园",
    "city": "兰州"
  },
  {
    "name": "绣河沿清真古寺",
    "category": "sightseeing",
    "duration_minutes": 120,
    "rating": 4.0,
    "lat": 36.05568,
    "lon": 103.819207,
    "description": "地址: 绣河沿3号 | 类别: 风景名胜;风景名胜;回教寺",
    "city": "兰州"
  },
  {
    "name": "龙源公园",
    "category": "outdoor",
    "duration_minutes": 120,
    "rating": 4.0,
    "lat": 36.06849,
    "lon": 103.801111,
    "description": "地址: 北滨河中路 | 类别: 风景名胜;公园广场;公园",
    "city": "兰州"
  },
  {
    "name": "滩尖子原生态湿地公园",
    "category": "outdoor",
    "duration_minutes": 120,
    "rating": 4.0,
    "lat": 36.079854,
    "lon": 103.870958,
    "description": "地址: 雁滩黄河大桥桥下 | 类别: 风景名胜;风景名胜;风景名胜",
    "city": "兰州"
  },
  {
    "name": "金城公园",
    "category": "outdoor",
    "duration_minutes": 120,
    "rating": 4.0,
    "lat": 36.08105,
    "lon": 103.623119,
    "description": "电话: 0931-7557339 | 地址: 四季青街道公园路1号 | 类别: 风景名胜;公园广场;公园",
    "city": "兰州"
  },
  {
    "name": "平沙落雁",
    "category": "sightseeing",
    "duration_minutes": 120,
    "rating": 4.0,
    "lat": 36.062246,
    "lon": 103.845889,
    "description": "地址: 南河东路 | 类别: 风景名胜;风景名胜相关;旅游景点",
    "city": "兰州"
  },
  {
    "name": "龙王庙",
    "category": "history",
    "duration_minutes": 120,
    "rating": 4.0,
    "lat": 36.067292,
    "lon": 103.856649,
    "description": "地址: 南滨河东路 | 类别: 风景名胜;风景名胜;寺庙道观",
    "city": "兰州"
  },
  {
    "name": "兰州黄河风情线大景区",
    "category": "sightseeing",
    "duration_minutes": 120,
    "rating": 4.0,
    "lat": 36.066271,
    "lon": 103.798237,
    "description": "地址: 西园街道南滨河东路与小西湖东街交叉口东320米 | 类别: 风景名胜;风景名胜相关;旅游景点",
    "city": "兰州"
  },
  {
    "name": "银滩湿地公园",
    "category": "outdoor",
    "duration_minutes": 120,
    "rating": 4.0,
    "lat": 36.087289,
    "lon": 103.713016,
    "description": "地址: 银滩路街道北滨河路银滩大桥北(近甘肃农业大学) | 类别: 风景名胜;公园广场;公园",
    "city": "兰州"
  },
  {
    "name": "兰州市南关清真大寺",
    "category": "sightseeing",
    "duration_minutes": 120,
    "rating": 4.0,
    "lat": 36.05147,
    "lon": 103.826572,
    "description": "地址: 酒泉路256号 | 类别: 风景名胜;风景名胜;回教寺",
    "city": "兰州"
  },
  {
    "name": "颐园",
    "category": "outdoor",
    "duration_minutes": 120,
    "rating": 4.0,
    "lat": 36.062777,
    "lon": 103.829557,
    "description": "地址: 南滨河东路老年公园 | 类别: 风景名胜;公园广场;公园",
    "city": "兰州"
  },
  {
    "name": "中山铁桥-明·镇远浮桥旧址",
    "category": "outdoor",
    "duration_minutes": 120,
    "rating": 4.0,
    "lat": 36.063456,
    "lon": 103.817553,
    "description": "地址: 中山桥 | 类别: 风景名胜;风景名胜;风景名胜",
    "city": "兰州"
  },
  {
    "name": "霍去病主题公园",
    "category": "outdoor",
    "duration_minutes": 120,
    "rating": 4.0,
    "lat": 36.074391,
    "lon": 103.863881,
    "description": "地址: 雁北路 | 类别: 风景名胜;公园广场;公园",
    "city": "兰州"
  },
  {
    "name": "仁寿山文化旅游景区",
    "category": "outdoor",
    "duration_minutes": 120,
    "rating": 4.0,
    "lat": 36.127628,
    "lon": 103.688473,
    "description": "地址: 安宁堡 | 类别: 风景名胜;风景名胜相关;旅游景点",
    "city": "兰州"
  },
  {
    "name": "西游记雕塑",
    "category": "sightseeing",
    "duration_minutes": 120,
    "rating": 4.0,
    "lat": 36.063111,
    "lon": 103.810897,
    "description": "电话: 0931-8837108 | 地址: 南滨河路与萃英门交叉口北20米 | 类别: 风景名胜;风景名胜相关;旅游景点",
    "city": "兰州"
  },
  {
    "name": "解放门",
    "category": "sightseeing",
    "duration_minutes": 120,
    "rating": 4.0,
    "lat": 36.059666,
    "lon": 103.809608,
    "description": "地址: 白银路与西津东路交叉口东140米 | 类别: 风景名胜;风景名胜;风景名胜",
    "city": "兰州"
  },
  {
    "name": "太清宫",
    "category": "history",
    "duration_minutes": 120,
    "rating": 4.0,
    "lat": 36.059443,
    "lon": 103.809368,
    "description": "地址: 临夏路街道临夏路323号 | 类别: 风景名胜;风景名胜;寺庙道观",
    "city": "兰州"
  },
  {
    "name": "旅兰清真寺",
    "category": "sightseeing",
    "duration_minutes": 120,
    "rating": 4.0,
    "lat": 36.075101,
    "lon": 103.826715,
    "description": "地址: 九州大道与元通北路交叉口东北100米 | 类别: 风景名胜;风景名胜;回教寺",
    "city": "兰州"
  },
  {
    "name": "百合公园",
    "category": "outdoor",
    "duration_minutes": 120,
    "rating": 4.0,
    "lat": 36.083458,
    "lon": 103.74871,
    "description": "地址: 敦煌路街道南滨河西路117号 | 类别: 风景名胜;公园广场;公园",
    "city": "兰州"
  },
  {
    "name": "十八层地狱",
    "category": "sightseeing",
    "duration_minutes": 120,
    "rating": 4.0,
    "lat": 36.022872,
    "lon": 103.836496,
    "description": "地址: 兰山公园大门南侧伏龙坪街道头营村1-2号 | 类别: 风景名胜;风景名胜;风景名胜",
    "city": "兰州"
  },
  {
    "name": "兰山玻璃栈道",
    "category": "outdoor",
    "duration_minutes": 120,
    "rating": 4.0,
    "lat": 36.033867,
    "lon": 103.820305,
    "description": "地址: 伏直公路与127县道交叉口东50米 | 类别: 风景名胜;风景名胜相关;旅游景点",
    "city": "兰州"
  },
  {
    "name": "兰州什川梨园",
    "category": "sightseeing",
    "duration_minutes": 120,
    "rating": 4.0,
    "lat": 36.153868,
    "lon": 104.003491,
    "description": "地址: 什川镇教场路1号 | 类别: 风景名胜;风景名胜相关;旅游景点",
    "city": "兰州"
  },
  {
    "name": "兰州龙山国际滑雪场",
    "category": "outdoor",
    "duration_minutes": 120,
    "rating": 4.0,
    "lat": 36.127199,
    "lon": 103.98346,
    "description": "电话: 0931-5135555 | 地址: 什川镇大奔头山开发区 | 类别: 体育休闲服务;运动场馆;滑雪场",
    "city": "兰州"
  },
  {
    "name": "兰州野生动物园",
    "category": "outdoor",
    "duration_minutes": 120,
    "rating": 4.0,
    "lat": 36.252968,
    "lon": 103.773812,
    "description": "电话: 0931-5110095 | 地址: 忠和镇崖川村8号 | 类别: 风景名胜;公园广场;动物园",
    "city": "兰州"
  },
  {
    "name": "金天观",
    "category": "history",
    "duration_minutes": 120,
    "rating": 4.0,
    "lat": 36.060264,
    "lon": 103.805598,
    "description": "地址: 华林路606号(西津东路口) | 类别: 风景名胜;风景名胜;寺庙道观",
    "city": "兰州"
  },
  {
    "name": "兰州新关清真古寺",
    "category": "sightseeing",
    "duration_minutes": 120,
    "rating": 4.0,
    "lat": 36.057542,
    "lon": 103.836219,
    "description": "地址: 华亭街93号 | 类别: 风景名胜;风景名胜;风景名胜",
    "city": "兰州"
  },
  {
    "name": "兰州安宁滑雪场",
    "category": "sightseeing",
    "duration_minutes": 120,
    "rating": 4.0,
    "lat": 36.12768,
    "lon": 103.724191,
    "description": "电话: 0931-7669888 | 地址: 大青山北 | 类别: 体育休闲服务;运动场馆;滑雪场|风景名胜;风景名胜相关;旅游景点",
    "city": "兰州"
  },
  {
    "name": "八路军兰州办事处纪念馆甘南路旧址",
    "category": "history",
    "duration_minutes": 120,
    "rating": 4.0,
    "lat": 36.052358,
    "lon": 103.827469,
    "description": "电话: 0931-4505158 | 地址: 甘南路700号 | 类别: 风景名胜;风景名胜;纪念馆",
    "city": "兰州"
  },
  {
    "name": "兰州市城关区中共甘肃工委纪念馆",
    "category": "history",
    "duration_minutes": 120,
    "rating": 4.0,
    "lat": 36.066829,
    "lon": 103.81692,
    "description": "电话: 0931-8636158 | 地址: 北滨河中路中山桥北侧白塔山公园1号(白塔山公园内) | 类别: 风景名胜;风景名胜;纪念馆",
    "city": "兰州"
  },
  {
    "name": "甘肃天庆博物馆",
    "category": "museum",
    "duration_minutes": 120,
    "rating": 4.0,
    "lat": 36.066745,
    "lon": 103.88992,
    "description": "地址: 雁北路1599号 | 类别: 科教文化服务;博物馆;博物馆",
    "city": "兰州"
  },
  {
    "name": "柏树巷清真大寺",
    "category": "sightseeing",
    "duration_minutes": 120,
    "rating": 4.0,
    "lat": 36.060756,
    "lon": 103.796705,
    "description": "地址: 拱北沟59号(小西湖地铁站D口步行160米) | 类别: 风景名胜;风景名胜;回教寺",
    "city": "兰州"
  },
  {
    "name": "广武门十字",
    "category": "sightseeing",
    "duration_minutes": 120,
    "rating": 4.0,
    "lat": 36.058302,
    "lon": 103.837686,
    "description": "地址: 秦安路与金昌北路交叉口西南140米 | 类别: 风景名胜;风景名胜;风景名胜",
    "city": "兰州"
  },
  {
    "name": "兰州北山凤凰台森林公园",
    "category": "outdoor",
    "duration_minutes": 120,
    "rating": 4.0,
    "lat": 36.105963,
    "lon": 103.817005,
    "description": "地址: 北环路九州段西侧北山林场上山 | 类别: 风景名胜;公园广场;公园",
    "city": "兰州"
  },
  {
    "name": "小西湖公园透绿文化长廊",
    "category": "outdoor",
    "duration_minutes": 120,
    "rating": 4.0,
    "lat": 36.062912,
    "lon": 103.7996,
    "description": "电话: 0931-2613789 | 地址: 西津东路253号小西湖公园 | 类别: 公共设施;公共厕所;公共厕所|风景名胜;风景名胜相关;旅游景点",
    "city": "兰州"
  },
  {
    "name": "金城关拱北",
    "category": "sightseeing",
    "duration_minutes": 120,
    "rating": 4.0,
    "lat": 36.069536,
    "lon": 103.803401,
    "description": "地址: 金城路 | 类别: 风景名胜;风景名胜;回教寺",
    "city": "兰州"
  },
  {
    "name": "金城老码头",
    "category": "sightseeing",
    "duration_minutes": 120,
    "rating": 4.0,
    "lat": 36.063739,
    "lon": 103.818954,
    "description": "电话: 13919949505 | 地址: 南滨河东路中山桥向东180米 | 类别: 风景名胜;风景名胜;风景名胜",
    "city": "兰州"
  },
  {
    "name": "读者博物馆",
    "category": "museum",
    "duration_minutes": 120,
    "rating": 4.0,
    "lat": 36.061302,
    "lon": 103.849321,
    "description": "地址: 读者出版集团有限公司 | 类别: 科教文化服务;博物馆;博物馆",
    "city": "兰州"
  },
  {
    "name": "黄河母亲雕塑(装修中)",
    "category": "sightseeing",
    "duration_minutes": 120,
    "rating": 4.0,
    "lat": 36.066413,
    "lon": 103.79867,
    "description": "地址: 西园街道滨河路中段(小西湖公园北侧) | 类别: 风景名胜;风景名胜;风景名胜",
    "city": "兰州"
  },
  {
    "name": "五一山省级森林生态旅游区(暂停开放)",
    "category": "outdoor",
    "duration_minutes": 120,
    "rating": 4.0,
    "lat": 36.084296,
    "lon": 103.822614,
    "description": "地址: 五一山 | 类别: 风景名胜;风景名胜;省级景点",
    "city": "兰州"
  },
  {
    "name": "玉佛寺",
    "category": "history",
    "duration_minutes": 120,
    "rating": 4.0,
    "lat": 36.053409,
    "lon": 103.831044,
    "description": "地址: 静宁南路181附近(庆阳路口) | 类别: 风景名胜;风景名胜;寺庙道观",
    "city": "兰州"
  },
  {
    "name": "邓园",
    "category": "sightseeing",
    "duration_minutes": 120,
    "rating": 4.0,
    "lat": 36.059893,
    "lon": 103.843691,
    "description": "电话: 0931-8828078 | 地址: 南滨河东路绿色公园对面 | 类别: 风景名胜;风景名胜;风景名胜",
    "city": "兰州"
  },
  {
    "name": "体育公园",
    "category": "outdoor",
    "duration_minutes": 120,
    "rating": 4.0,
    "lat": 36.06387,
    "lon": 103.850329,
    "description": "地址: 雁宁路395号森地国际1417号 | 类别: 体育休闲服务;运动场馆;运动场所",
    "city": "兰州"
  },
  {
    "name": "黄河索道",
    "category": "sightseeing",
    "duration_minutes": 120,
    "rating": 4.0,
    "lat": 36.063417,
    "lon": 103.813114,
    "description": "电话: 0931-8482097 | 地址: 南滨河东路328号(中山桥向西400米处) | 类别: 风景名胜;风景名胜相关;旅游景点",
    "city": "兰州"
  },
  {
    "name": "白塔寺",
    "category": "history",
    "duration_minutes": 120,
    "rating": 4.0,
    "lat": 36.068197,
    "lon": 103.81688,
    "description": "地址: 北滨河中路白塔山1号白塔山公园内(东侧) | 类别: 风景名胜;风景名胜;寺庙道观",
    "city": "兰州"
  },
  {
    "name": "兰州西关清真大寺",
    "category": "sightseeing",
    "duration_minutes": 120,
    "rating": 4.0,
    "lat": 36.059655,
    "lon": 103.811824,
    "description": "地址: 萃英门(西关地铁站C1口步行340米) | 类别: 风景名胜;风景名胜;回教寺",
    "city": "兰州"
  },
  {
    "name": "兰州市民广场",
    "category": "outdoor",
    "duration_minutes": 120,
    "rating": 4.0,
    "lat": 36.062332,
    "lon": 103.835338,
    "description": "电话: 0931-8461416 | 地址: 南滨河东路526号 | 类别: 风景名胜;公园广场;城市广场",
    "city": "兰州"
  },
  {
    "name": "徐家山国家森林公园(暂停开放)",
    "category": "outdoor",
    "duration_minutes": 120,
    "rating": 4.0,
    "lat": 36.089994,
    "lon": 103.849892,
    "description": "电话: 0931-8341482 | 地址: 盐场路枣树沟18号 | 类别: 风景名胜;风景名胜;国家级景点",
    "city": "兰州"
  },
  {
    "name": "东川清真寺",
    "category": "sightseeing",
    "duration_minutes": 120,
    "rating": 4.0,
    "lat": 36.053037,
    "lon": 103.852476,
    "description": "地址: 农民巷55号 | 类别: 风景名胜;风景名胜;回教寺",
    "city": "兰州"
  },
  {
    "name": "兰州石佛沟国家森林公园(暂停开放)",
    "category": "outdoor",
    "duration_minutes": 120,
    "rating": 4.0,
    "lat": 35.91287,
    "lon": 103.890028,
    "description": "电话: 0931-2772566;0931-5361666 | 地址: 岘口子山石佛沟5号 | 类别: 风景名胜;风景名胜;风景名胜",
    "city": "兰州"
  },
  {
    "name": "甘肃简牍博物馆",
    "category": "museum",
    "duration_minutes": 120,
    "rating": 4.0,
    "lat": 36.077631,
    "lon": 103.731653,
    "description": "地址: 银滩南路12号 | 类别: 科教文化服务;博物馆;博物馆",
    "city": "兰州"
  },
  {
    "name": "甘肃三木自行车博物馆",
    "category": "museum",
    "duration_minutes": 120,
    "rating": 4.0,
    "lat": 36.078704,
    "lon": 103.869786,
    "description": "电话: 0931-8260085 | 地址: 雁北街道南滨河东路1号 | 类别: 科教文化服务;博物馆;博物馆",
    "city": "兰州"
  },
  {
    "name": "风起大汉·沉浸式演艺街区",
    "category": "sightseeing",
    "duration_minutes": 120,
    "rating": 4.0,
    "lat": 36.069344,
    "lon": 103.772859,
    "description": "地址: 兰州中心东百道西入口 | 类别: 风景名胜;风景名胜相关;旅游景点",
    "city": "兰州"
  },
  {
    "name": "兰州和平台清真大寺",
    "category": "sightseeing",
    "duration_minutes": 120,
    "rating": 4.0,
    "lat": 36.072837,
    "lon": 103.793593,
    "description": "地址: 上徐家湾208号 | 类别: 风景名胜;风景名胜;回教寺",
    "city": "兰州"
  },
  {
    "name": "兰州石源景区",
    "category": "sightseeing",
    "duration_minutes": 120,
    "rating": 4.0,
    "lat": 35.996943,
    "lon": 103.988421,
    "description": "地址: 和平镇和定大道6号 | 类别: 风景名胜;风景名胜;风景名胜",
    "city": "兰州"
  },
  {
    "name": "八路军兰州办事处纪念馆(暂停开放)",
    "category": "history",
    "duration_minutes": 120,
    "rating": 4.0,
    "lat": 36.050333,
    "lon": 103.826358,
    "description": "电话: 0931-4659713;0931-4659783 | 地址: 酒泉路街道酒泉路314号 | 类别: 风景名胜;风景名胜;纪念馆",
    "city": "兰州"
  },
  {
    "name": "兰州战役纪念馆",
    "category": "museum",
    "duration_minutes": 120,
    "rating": 4.0,
    "lat": 36.038726,
    "lon": 103.798168,
    "description": "电话: 0931-4546826 | 地址: 八里镇华林路529号兰州市烈士陵园 | 类别: 风景名胜;风景名胜相关;旅游景点",
    "city": "兰州"
  },
  {
    "name": "云顶山风景区",
    "category": "outdoor",
    "duration_minutes": 120,
    "rating": 4.0,
    "lat": 35.899291,
    "lon": 103.885095,
    "description": "地址: 阿干镇岘口子山石佛沟5号兰州石佛沟国家森林公园内(南侧) | 类别: 风景名胜;风景名胜;风景名胜",
    "city": "兰州"
  },
  {
    "name": "西津广场",
    "category": "outdoor",
    "duration_minutes": 120,
    "rating": 4.0,
    "lat": 36.06542,
    "lon": 103.781902,
    "description": "地址: 建工中街72-1号(七里河地铁站D口旁) | 类别: 风景名胜;公园广场;城市广场",
    "city": "兰州"
  },
  {
    "name": "锦江园",
    "category": "outdoor",
    "duration_minutes": 120,
    "rating": 4.0,
    "lat": 36.094311,
    "lon": 103.806154,
    "description": "地址: 903号路1131号 | 类别: 风景名胜;风景名胜相关;旅游景点",
    "city": "兰州"
  },
  {
    "name": "五里铺清真寺",
    "category": "sightseeing",
    "duration_minutes": 120,
    "rating": 4.0,
    "lat": 36.036579,
    "lon": 103.867602,
    "description": "地址: 排洪路与飞天西路交叉口西北80米 | 类别: 风景名胜;风景名胜;回教寺",
    "city": "兰州"
  },
  {
    "name": "兰州桥门清真寺",
    "category": "history",
    "duration_minutes": 120,
    "rating": 4.0,
    "lat": 36.062083,
    "lon": 103.816525,
    "description": "地址: 中山路275号桥门大厦(中山桥南50米) | 类别: 风景名胜;风景名胜;回教寺",
    "city": "兰州"
  },
  {
    "name": "兰州东关清真大寺",
    "category": "sightseeing",
    "duration_minutes": 120,
    "rating": 4.0,
    "lat": 36.047462,
    "lon": 103.835475,
    "description": "地址: 颜家沟47号 | 类别: 风景名胜;风景名胜;回教寺",
    "city": "兰州"
  },
  {
    "name": "西北大环线(罗九公路站)",
    "category": "sightseeing",
    "duration_minutes": 120,
    "rating": 4.0,
    "lat": 36.079444,
    "lon": 103.806917,
    "description": "地址: 罗九公路金城驿(彩陶博览园向北300米西域罗兰机车营地) | 类别: 风景名胜;风景名胜;风景名胜",
    "city": "兰州"
  },
  {
    "name": "文庙",
    "category": "history",
    "duration_minutes": 120,
    "rating": 4.0,
    "lat": 36.084851,
    "lon": 103.783777,
    "description": "地址: 北滨河路九州台 | 类别: 风景名胜;风景名胜;寺庙道观",
    "city": "兰州"
  },
  {
    "name": "兰州水上清真寺",
    "category": "sightseeing",
    "duration_minutes": 120,
    "rating": 4.0,
    "lat": 36.065339,
    "lon": 103.813262,
    "description": "地址: 靖远路街道北滨河路中路450号 | 类别: 风景名胜;风景名胜;回教寺",
    "city": "兰州"
  },
  {
    "name": "森和源生态园",
    "category": "sightseeing",
    "duration_minutes": 120,
    "rating": 4.0,
    "lat": 36.057712,
    "lon": 103.821179,
    "description": "电话: 0931-8482525;0931-8487869 | 地址: 大众市场15号5楼 | 类别: 住宿服务;宾馆酒店;宾馆酒店",
    "city": "兰州"
  },
  {
    "name": "牵福人文主题园(兰山公园三台阁)",
    "category": "outdoor",
    "duration_minutes": 120,
    "rating": 4.0,
    "lat": 36.022822,
    "lon": 103.836548,
    "description": "电话: 18919880790 | 地址: 三台阁牌坊南侧200米 | 类别: 餐饮服务;中餐厅;中餐厅",
    "city": "兰州"
  },
  {
    "name": "兰州海洋公园",
    "category": "outdoor",
    "duration_minutes": 120,
    "rating": 4.0,
    "lat": 35.939962,
    "lon": 104.025655,
    "description": "电话: 0931-5256666 | 地址: 高新区定远镇西平路和龙海街交汇处 | 类别: 风景名胜;公园广场;水族馆",
    "city": "兰州"
  },
  {
    "name": "甘肃青峰城市运动公园",
    "category": "outdoor",
    "duration_minutes": 120,
    "rating": 4.0,
    "lat": 36.042872,
    "lon": 103.812968,
    "description": "电话: 13919428377 | 地址: 伏龙坪后街153号 | 类别: 体育休闲服务;体育休闲服务场所;体育休闲服务场所",
    "city": "兰州"
  },
  {
    "name": "烧盐沟",
    "category": "sightseeing",
    "duration_minutes": 120,
    "rating": 4.0,
    "lat": 36.070673,
    "lon": 103.81546,
    "description": "地址: 罗九公路 | 类别: 风景名胜;风景名胜相关;旅游景点",
    "city": "兰州"
  },
  {
    "name": "黄河索道(上站)",
    "category": "sightseeing",
    "duration_minutes": 120,
    "rating": 4.0,
    "lat": 36.073007,
    "lon": 103.811793,
    "description": "地址: 北滨河中路白塔山1号白塔山公园内(北侧) | 类别: 风景名胜;风景名胜;风景名胜",
    "city": "兰州"
  },
  {
    "name": "关山森林公园",
    "category": "outdoor",
    "duration_minutes": 120,
    "rating": 4.0,
    "lat": 35.997413,
    "lon": 103.626856,
    "description": "类别: 风景名胜;风景名胜;省级景点",
    "city": "兰州"
  },
  {
    "name": "铁桥碑记",
    "category": "history",
    "duration_minutes": 120,
    "rating": 4.0,
    "lat": 36.065556,
    "lon": 103.816638,
    "description": "地址: 南滨河东路与中山路交叉口北260米 | 类别: 风景名胜;风景名胜相关;旅游景点",
    "city": "兰州"
  },
  {
    "name": "羊皮筏子",
    "category": "sightseeing",
    "duration_minutes": 120,
    "rating": 4.0,
    "lat": 36.063281,
    "lon": 103.828186,
    "description": "电话: 13679455488 | 地址: 南滨河东路532号 | 类别: 体育休闲服务;休闲场所;休闲场所|体育休闲服务;娱乐场所;娱乐场所",
    "city": "兰州"
  },
  {
    "name": "黄河第一阁",
    "category": "sightseeing",
    "duration_minutes": 120,
    "rating": 4.0,
    "lat": 36.069585,
    "lon": 103.809406,
    "description": "电话: 0931-8360800 | 地址: 北滨河中路白塔山1号白塔山公园 | 类别: 风景名胜;风景名胜相关;旅游景点",
    "city": "兰州"
  },
  {
    "name": "柏树巷清真中寺",
    "category": "sightseeing",
    "duration_minutes": 120,
    "rating": 4.0,
    "lat": 36.062547,
    "lon": 103.79606,
    "description": "地址: 柏树巷22号(小西湖地铁站D口步行140米) | 类别: 风景名胜;风景名胜;回教寺",
    "city": "兰州"
  },
  {
    "name": "中国伊斯兰教文泉堂",
    "category": "sightseeing",
    "duration_minutes": 120,
    "rating": 4.0,
    "lat": 36.048038,
    "lon": 103.844933,
    "description": "地址: 耿家庄61号 | 类别: 风景名胜;风景名胜;教堂",
    "city": "兰州"
  },
  {
    "name": "甘肃省博物馆艺术生活馆",
    "category": "museum",
    "duration_minutes": 120,
    "rating": 4.0,
    "lat": 36.067141,
    "lon": 103.775862,
    "description": "地址: 西津西路3号(甘肃省博物馆东侧临街商铺) | 类别: 科教文化服务;博物馆;博物馆",
    "city": "兰州"
  },
  {
    "name": "金城盆景园-芳草园公园",
    "category": "outdoor",
    "duration_minutes": 120,
    "rating": 4.0,
    "lat": 36.057251,
    "lon": 103.840772,
    "description": "电话: 0931-8825736 | 地址: 南昌路1808号 | 类别: 风景名胜;公园广场;公园",
    "city": "兰州"
  },
  {
    "name": "马滩湿地公园",
    "category": "outdoor",
    "duration_minutes": 120,
    "rating": 4.0,
    "lat": 36.086407,
    "lon": 103.735255,
    "description": "地址: 南滨河中路银滩大桥东 | 类别: 风景名胜;风景名胜;风景名胜",
    "city": "兰州"
  },
  {
    "name": "霍去病雕像",
    "category": "sightseeing",
    "duration_minutes": 120,
    "rating": 4.0,
    "lat": 36.037648,
    "lon": 103.826203,
    "description": "电话: 0931-8243247 | 地址: 五泉南路103号(近市园林局)五泉山公园内(东北角) | 类别: 风景名胜;风景名胜相关;旅游景点",
    "city": "兰州"
  },
  {
    "name": "白塔山白塔",
    "category": "outdoor",
    "duration_minutes": 120,
    "rating": 4.0,
    "lat": 36.068224,
    "lon": 103.816932,
    "description": "电话: 0931-8360800 | 地址: 北滨河中路424号 | 类别: 风景名胜;公园广场;公园|风景名胜;风景名胜;风景名胜",
    "city": "兰州"
  },
  {
    "name": "兰州黄河羊皮筏子漂流中心",
    "category": "sightseeing",
    "duration_minutes": 120,
    "rating": 4.0,
    "lat": 36.063647,
    "lon": 103.803634,
    "description": "电话: 13679405880 | 地址: 兰州水车园南门旁 | 类别: 体育休闲服务;休闲场所;水上活动中心",
    "city": "兰州"
  },
  {
    "name": "兰州兴隆山风景区(暂停开放)",
    "category": "outdoor",
    "duration_minutes": 120,
    "rating": 4.0,
    "lat": 35.839645,
    "lon": 103.968259,
    "description": "电话: 0931-5251081 | 地址: 城关镇兴隆山村1号 | 类别: 风景名胜;风景名胜;国家级景点",
    "city": "兰州"
  },
  {
    "name": "318此生必驾(罗九公路站)",
    "category": "sightseeing",
    "duration_minutes": 120,
    "rating": 4.0,
    "lat": 36.079613,
    "lon": 103.806307,
    "description": "地址: 罗九公路丝路金城(左边西域罗兰机车营地) | 类别: 风景名胜;风景名胜;风景名胜",
    "city": "兰州"
  },
  {
    "name": "兰州水车博览园-水磨坊",
    "category": "sightseeing",
    "duration_minutes": 120,
    "rating": 4.0,
    "lat": 36.063717,
    "lon": 103.845209,
    "description": "电话: 0931-8587111 | 地址: 南滨河东路524号水车博览园内(东侧) | 类别: 风景名胜;风景名胜相关;旅游景点",
    "city": "兰州"
  },
  {
    "name": "空中花园摩天轮",
    "category": "sightseeing",
    "duration_minutes": 120,
    "rating": 4.0,
    "lat": 36.089327,
    "lon": 103.683469,
    "description": "地址: 万达茂 | 类别: 风景名胜;风景名胜相关;旅游景点",
    "city": "兰州"
  },
  {
    "name": "兰州平凉路清真寺",
    "category": "sightseeing",
    "duration_minutes": 120,
    "rating": 4.0,
    "lat": 36.040299,
    "lon": 103.849169,
    "description": "地址: 平凉路301号 | 类别: 风景名胜;风景名胜;回教寺",
    "city": "兰州"
  },
  {
    "name": "水车博览园-绿色公园",
    "category": "outdoor",
    "duration_minutes": 120,
    "rating": 4.0,
    "lat": 36.063021,
    "lon": 103.842437,
    "description": "电话: 0931-8587111 | 地址: 南滨河东路524号水车博览园内(西侧) | 类别: 风景名胜;公园广场;公园",
    "city": "兰州"
  },
  {
    "name": "天斧砂宫",
    "category": "history",
    "duration_minutes": 120,
    "rating": 4.0,
    "lat": 36.135847,
    "lon": 103.696842,
    "description": "地址: 安宁堡街道高安公路与北环路交叉路口往东南约50米 | 类别: 风景名胜;风景名胜;风景名胜",
    "city": "兰州"
  },
  {
    "name": "兰州石佛沟灵岩禅寺",
    "category": "history",
    "duration_minutes": 120,
    "rating": 4.0,
    "lat": 35.927543,
    "lon": 103.884281,
    "description": "地址: 岘口子山石佛沟5号兰州石佛沟国家森林公园内(北侧) | 类别: 风景名胜;风景名胜;寺庙道观",
    "city": "兰州"
  },
  {
    "name": "兰州战役沈家岭战场遗址纪念广场",
    "category": "outdoor",
    "duration_minutes": 120,
    "rating": 4.0,
    "lat": 35.99036,
    "lon": 103.805477,
    "description": "地址: 魏岭乡沈家岭村 | 类别: 风景名胜;公园广场;城市广场",
    "city": "兰州"
  },
  {
    "name": "兰山索道",
    "category": "outdoor",
    "duration_minutes": 120,
    "rating": 4.0,
    "lat": 36.025477,
    "lon": 103.834582,
    "description": "电话: 0931-8242892 | 地址: 127县道附近 | 类别: 风景名胜;风景名胜;风景名胜",
    "city": "兰州"
  },
  {
    "name": "红山根清真寺",
    "category": "outdoor",
    "duration_minutes": 120,
    "rating": 4.0,
    "lat": 36.028788,
    "lon": 103.854974,
    "description": "地址: 红山西路 | 类别: 风景名胜;风景名胜;回教寺",
    "city": "兰州"
  },
  {
    "name": "金花道观",
    "category": "history",
    "duration_minutes": 120,
    "rating": 4.0,
    "lat": 36.049191,
    "lon": 103.880476,
    "description": "地址: 段家滩450号 | 类别: 风景名胜;风景名胜;寺庙道观",
    "city": "兰州"
  },
  {
    "name": "甘肃省钱币博物馆",
    "category": "museum",
    "duration_minutes": 120,
    "rating": 4.0,
    "lat": 36.052265,
    "lon": 103.847896,
    "description": "电话: 0931-8800570;0931-8800688 | 地址: 东岗西路698号 | 类别: 科教文化服务;博物馆;博物馆",
    "city": "兰州"
  },
  {
    "name": "彭家坪都市文化休闲公园",
    "category": "outdoor",
    "duration_minutes": 120,
    "rating": 4.0,
    "lat": 36.057304,
    "lon": 103.723122,
    "description": "地址: 西坪街路东 | 类别: 风景名胜;公园广场;公园",
    "city": "兰州"
  },
  {
    "name": "彭家坪都市文化休闲公园",
    "category": "outdoor",
    "duration_minutes": 120,
    "rating": 4.0,
    "lat": 36.057304,
    "lon": 103.723122,
    "description": "地址: 西坪街路东 | 类别: 风景名胜;公园广场;公园",
    "city": "兰州"
  },
  {
    "name": "兰州中心海底世界",
    "category": "outdoor",
    "duration_minutes": 120,
    "rating": 4.0,
    "lat": 36.069067,
    "lon": 103.774562,
    "description": "地址: 西津西路16号兰州中心M层 | 类别: 风景名胜;公园广场;水族馆",
    "city": "兰州"
  },
  {
    "name": "白塔山公园-法雨寺",
    "category": "history",
    "duration_minutes": 120,
    "rating": 4.0,
    "lat": 36.067574,
    "lon": 103.81738,
    "description": "电话: 0931-8360800 | 地址: 南滨河东路865号 | 类别: 风景名胜;风景名胜;寺庙道观",
    "city": "兰州"
  },
  {
    "name": "白塔戏楼",
    "category": "history",
    "duration_minutes": 120,
    "rating": 4.0,
    "lat": 36.065989,
    "lon": 103.817772,
    "description": "地址: 北滨河中路448-5附近 | 类别: 风景名胜;风景名胜相关;旅游景点",
    "city": "兰州"
  },
  {
    "name": "王保保城",
    "category": "sightseeing",
    "duration_minutes": 120,
    "rating": 4.0,
    "lat": 36.069655,
    "lon": 103.822061,
    "description": "地址: 北滨河中路与靖远路交叉口北340米 | 类别: 商务住宅;住宅区;住宅小区",
    "city": "兰州"
  },
  {
    "name": "西湖清真大寺",
    "category": "outdoor",
    "duration_minutes": 120,
    "rating": 4.0,
    "lat": 36.062467,
    "lon": 103.790807,
    "description": "地址: 硷沟沿242号 | 类别: 风景名胜;风景名胜;回教寺",
    "city": "兰州"
  },
  {
    "name": "秦腔博物馆(暂停开放)",
    "category": "museum",
    "duration_minutes": 120,
    "rating": 4.0,
    "lat": 36.066314,
    "lon": 103.815878,
    "description": "地址: 北滨河中路450号金城关文化博览园(东北角) | 类别: 科教文化服务;博物馆;博物馆",
    "city": "兰州"
  },
  {
    "name": "兰州黄河桥梁博物馆",
    "category": "museum",
    "duration_minutes": 120,
    "rating": 4.0,
    "lat": 36.065923,
    "lon": 103.816182,
    "description": "电话: 0931-8559236 | 地址: 北滨河中路450号金城关文化博览园 | 类别: 科教文化服务;博物馆;博物馆",
    "city": "兰州"
  },
  {
    "name": "报恩寺",
    "category": "history",
    "duration_minutes": 120,
    "rating": 4.0,
    "lat": 36.151185,
    "lon": 103.625999,
    "description": "地址: 兰州西机务段 | 类别: 风景名胜;风景名胜;寺庙道观",
    "city": "兰州"
  },
  {
    "name": "兰州市七里河工林路下清真大寺",
    "category": "sightseeing",
    "duration_minutes": 120,
    "rating": 4.0,
    "lat": 36.055114,
    "lon": 103.788633,
    "description": "地址: 工林路下 | 类别: 风景名胜;风景名胜;回教寺",
    "city": "兰州"
  },
  {
    "name": "儿童公园",
    "category": "outdoor",
    "duration_minutes": 120,
    "rating": 4.0,
    "lat": 36.094697,
    "lon": 103.824051,
    "description": "地址: 北环路 | 类别: 风景名胜;公园广场;公园",
    "city": "兰州"
  },
  {
    "name": "清真大寺",
    "category": "sightseeing",
    "duration_minutes": 120,
    "rating": 4.0,
    "lat": 36.062579,
    "lon": 103.798776,
    "description": "地址: 西津东路295号(小西湖地铁站D口步行160米) | 类别: 风景名胜;风景名胜;回教寺",
    "city": "兰州"
  },
  {
    "name": "兰州欢乐园",
    "category": "sightseeing",
    "duration_minutes": 120,
    "rating": 4.0,
    "lat": 36.121359,
    "lon": 103.655066,
    "description": "地址: 南滨河路 | 类别: 体育休闲服务;休闲场所;游乐场",
    "city": "兰州"
  },
  {
    "name": "兰州近水广场",
    "category": "outdoor",
    "duration_minutes": 120,
    "rating": 4.0,
    "lat": 36.063319,
    "lon": 103.812122,
    "description": "地址: 临夏路街道南滨河东路198号 | 类别: 风景名胜;公园广场;城市广场",
    "city": "兰州"
  },
  {
    "name": "徐家湾拱北清真寺",
    "category": "sightseeing",
    "duration_minutes": 120,
    "rating": 4.0,
    "lat": 36.071222,
    "lon": 103.80336,
    "description": "地址: 金城关 | 类别: 风景名胜;风景名胜;回教寺",
    "city": "兰州"
  },
  {
    "name": "兰州广场",
    "category": "outdoor",
    "duration_minutes": 120,
    "rating": 4.0,
    "lat": 36.052952,
    "lon": 103.83169,
    "description": "地址: 静宁南路昌运大厦 | 类别: 风景名胜;公园广场;城市广场",
    "city": "兰州"
  },
  {
    "name": "白塔山后山",
    "category": "outdoor",
    "duration_minutes": 120,
    "rating": 4.0,
    "lat": 36.08348,
    "lon": 103.804105,
    "description": "地址: 兰州半山马术俱乐部北侧150米 | 类别: 风景名胜;风景名胜相关;旅游景点",
    "city": "兰州"
  },
  {
    "name": "兰州市雁滩清真寺",
    "category": "sightseeing",
    "duration_minutes": 120,
    "rating": 4.0,
    "lat": 36.067987,
    "lon": 103.876432,
    "description": "地址: 雁西路1294号 | 类别: 风景名胜;风景名胜;回教寺",
    "city": "兰州"
  },
  {
    "name": "李家湾清真寺",
    "category": "sightseeing",
    "duration_minutes": 120,
    "rating": 4.0,
    "lat": 36.071675,
    "lon": 103.828809,
    "description": "地址: 东李家湾25号 | 类别: 风景名胜;风景名胜;回教寺",
    "city": "兰州"
  },
  {
    "name": "誌公道观",
    "category": "history",
    "duration_minutes": 120,
    "rating": 4.0,
    "lat": 36.034327,
    "lon": 103.827804,
    "description": "地址: 红泥沟65号 | 类别: 风景名胜;风景名胜;寺庙道观",
    "city": "兰州"
  },
  {
    "name": "黄河外滩",
    "category": "sightseeing",
    "duration_minutes": 120,
    "rating": 4.0,
    "lat": 36.065663,
    "lon": 103.81155,
    "description": "地址: 南滨河东路与萃英门交叉口北320米 | 类别: 商务住宅;商务住宅相关;商务住宅相关",
    "city": "兰州"
  },
  {
    "name": "颐园-老年公园",
    "category": "outdoor",
    "duration_minutes": 120,
    "rating": 4.0,
    "lat": 36.062709,
    "lon": 103.829493,
    "description": "地址: 颐园 | 类别: 风景名胜;公园广场;公园",
    "city": "兰州"
  },
  {
    "name": "兰州空战纪念亭",
    "category": "history",
    "duration_minutes": 120,
    "rating": 4.0,
    "lat": 36.069263,
    "lon": 103.820496,
    "description": "地址: 北滨河中路与靖远路交叉口西北320米 | 类别: 风景名胜;风景名胜;纪念馆",
    "city": "兰州"
  },
  {
    "name": "曼哈顿欢乐谷",
    "category": "sightseeing",
    "duration_minutes": 120,
    "rating": 4.0,
    "lat": 36.075755,
    "lon": 103.690394,
    "description": "地址: 西津西路3003号天畅汽车城西侧 | 类别: 体育休闲服务;体育休闲服务场所;体育休闲服务场所",
    "city": "兰州"
  },
  {
    "name": "兰州市地震博物馆(暂停开放)",
    "category": "museum",
    "duration_minutes": 120,
    "rating": 4.0,
    "lat": 36.11503,
    "lon": 103.730512,
    "description": "电话: 0931-7670878;0931-7677551 | 地址: 安宁西路348号 | 类别: 科教文化服务;博物馆;博物馆",
    "city": "兰州"
  },
  {
    "name": "东岗小游园",
    "category": "outdoor",
    "duration_minutes": 120,
    "rating": 4.0,
    "lat": 36.037201,
    "lon": 103.882772,
    "description": "电话: 13993163593 | 地址: 嘉峪关北路1号(德祥楼对面) | 类别: 风景名胜;公园广场;公园",
    "city": "兰州"
  },
  {
    "name": "长风公园",
    "category": "outdoor",
    "duration_minutes": 120,
    "rating": 4.0,
    "lat": 36.107323,
    "lon": 103.707679,
    "description": "地址: 安宁西路714号 | 类别: 风景名胜;公园广场;公园",
    "city": "兰州"
  },
  {
    "name": "灵明堂",
    "category": "sightseeing",
    "duration_minutes": 120,
    "rating": 4.0,
    "lat": 36.04424,
    "lon": 103.791867,
    "description": "类别: 风景名胜;风景名胜;教堂",
    "city": "兰州"
  },
  {
    "name": "天奇文旅园",
    "category": "sightseeing",
    "duration_minutes": 120,
    "rating": 4.0,
    "lat": 36.080455,
    "lon": 103.697058,
    "description": "地址: 西津西路1168号 | 类别: 风景名胜;风景名胜;风景名胜",
    "city": "兰州"
  },
  {
    "name": "南关小游园",
    "category": "outdoor",
    "duration_minutes": 120,
    "rating": 4.0,
    "lat": 36.054969,
    "lon": 103.825703,
    "description": "地址: 南关什字西北角 | 类别: 风景名胜;公园广场;公园",
    "city": "兰州"
  },
  {
    "name": "牡丹园",
    "category": "sightseeing",
    "duration_minutes": 120,
    "rating": 4.0,
    "lat": 35.981979,
    "lon": 103.981993,
    "description": "地址: 和平镇牡丹路甘肃陇大国际学校小学部 | 类别: 生活服务;丧葬设施;公墓",
    "city": "兰州"
  },
  {
    "name": "兰州老街牌坊",
    "category": "sightseeing",
    "duration_minutes": 120,
    "rating": 4.0,
    "lat": 36.077164,
    "lon": 103.725712,
    "description": "电话: 0931-6129999 | 地址: 西津西路606号兰州老街 | 类别: 风景名胜;风景名胜相关;旅游景点",
    "city": "兰州"
  },
  {
    "name": "中车·拾光公园",
    "category": "outdoor",
    "duration_minutes": 120,
    "rating": 4.0,
    "lat": 36.052131,
    "lon": 103.770496,
    "description": "电话: 0931-2883666 | 地址: 兰工坪路与晏家坪北路交叉口东北20米 | 类别: 风景名胜;公园广场;公园",
    "city": "兰州"
  },
  {
    "name": "常山寺",
    "category": "history",
    "duration_minutes": 120,
    "rating": 4.0,
    "lat": 36.059325,
    "lon": 103.898396,
    "description": "地址: 刘家滩新村220号 | 类别: 风景名胜;风景名胜;寺庙道观",
    "city": "兰州"
  },
  {
    "name": "寓言故事园",
    "category": "outdoor",
    "duration_minutes": 120,
    "rating": 4.0,
    "lat": 36.086308,
    "lon": 103.74253,
    "description": "地址: 省党校家属院向东345米 | 类别: 风景名胜;公园广场;公园",
    "city": "兰州"
  },
  {
    "name": "兰州土门墩清真寺",
    "category": "sightseeing",
    "duration_minutes": 120,
    "rating": 4.0,
    "lat": 36.080489,
    "lon": 103.738954,
    "description": "地址: 马淮中街926号 | 类别: 风景名胜;风景名胜;回教寺",
    "city": "兰州"
  },
  {
    "name": "五泉山公园-卧佛寺",
    "category": "history",
    "duration_minutes": 120,
    "rating": 4.0,
    "lat": 36.034169,
    "lon": 103.82453,
    "description": "电话: 0931-8243247 | 地址: 五泉南路103号五泉山公园内(南侧) | 类别: 风景名胜;风景名胜;寺庙道观",
    "city": "兰州"
  },
  {
    "name": "省博物馆",
    "category": "museum",
    "duration_minutes": 120,
    "rating": 4.0,
    "lat": 36.101975,
    "lon": 103.741775,
    "description": "地址: 安宁东路与梧桐路交叉口北260米 | 类别: 科教文化服务;博物馆;博物馆",
    "city": "兰州"
  },
  {
    "name": "水车博览园-水车广场",
    "category": "outdoor",
    "duration_minutes": 120,
    "rating": 4.0,
    "lat": 36.063201,
    "lon": 103.844951,
    "description": "电话: 0931-8587111 | 地址: 南滨河东路水车博览园水车广场 | 类别: 风景名胜;公园广场;城市广场",
    "city": "兰州"
  },
  {
    "name": "摸子泉",
    "category": "sightseeing",
    "duration_minutes": 120,
    "rating": 4.0,
    "lat": 36.034545,
    "lon": 103.824604,
    "description": "电话: 0931-8243247 | 地址: 五泉山公园内(南侧) | 类别: 风景名胜;风景名胜相关;旅游景点",
    "city": "兰州"
  },
  {
    "name": "兰州药王洞",
    "category": "sightseeing",
    "duration_minutes": 120,
    "rating": 4.0,
    "lat": 36.045186,
    "lon": 103.807295,
    "description": "电话: 13893303026 | 地址: 伏龙坪中街与伏龙坪后街交叉口西南420米 | 类别: 风景名胜;风景名胜;风景名胜",
    "city": "兰州"
  },
  {
    "name": "白塔山飞翔滑索",
    "category": "outdoor",
    "duration_minutes": 120,
    "rating": 4.0,
    "lat": 36.068299,
    "lon": 103.816231,
    "description": "电话: 0931-8360800 | 地址: 白塔山公园1号 | 类别: 风景名胜;风景名胜相关;旅游景点",
    "city": "兰州"
  },
  {
    "name": "兰州水墨丹霞旅游景区",
    "category": "sightseeing",
    "duration_minutes": 120,
    "rating": 4.0,
    "lat": 36.273544,
    "lon": 103.542644,
    "description": "电话: 0931-2123999 | 地址: 树屏镇杏花村 | 类别: 风景名胜;风景名胜;国家级景点",
    "city": "兰州"
  },
  {
    "name": "武侯祠",
    "category": "sightseeing",
    "duration_minutes": 120,
    "rating": 4.0,
    "lat": 36.035563,
    "lon": 103.824327,
    "description": "电话: 0931-8243247 | 地址: 五泉南路103号五泉山公园内(南侧) | 类别: 风景名胜;风景名胜相关;旅游景点",
    "city": "兰州"
  },
  {
    "name": "马踏飞燕",
    "category": "sightseeing",
    "duration_minutes": 120,
    "rating": 4.0,
    "lat": 36.035639,
    "lon": 103.851561,
    "description": "地址: 兰州站站前广场(兰州火车站地铁站C口步行180米) | 类别: 风景名胜;风景名胜相关;旅游景点",
    "city": "兰州"
  },
  {
    "name": "十八层地狱(五泉山公园店)",
    "category": "outdoor",
    "duration_minutes": 120,
    "rating": 4.0,
    "lat": 36.036818,
    "lon": 103.822924,
    "description": "电话: 0931-8243247 | 地址: 五泉南路103号五泉山公园内(西侧) | 类别: 体育休闲服务;体育休闲服务场所;体育休闲服务场所",
    "city": "兰州"
  },
  {
    "name": "浚源寺",
    "category": "history",
    "duration_minutes": 120,
    "rating": 4.0,
    "lat": 36.036681,
    "lon": 103.825262,
    "description": "电话: 0931-8243247 | 地址: 五泉山公园内 | 类别: 风景名胜;风景名胜;寺庙道观",
    "city": "兰州"
  },
  {
    "name": "观景台",
    "category": "sightseeing",
    "duration_minutes": 120,
    "rating": 4.0,
    "lat": 36.090207,
    "lon": 103.860321,
    "description": "地址: G30连霍高速与G22青兰高速出口交叉口西北440米 | 类别: 风景名胜;风景名胜;风景名胜",
    "city": "兰州"
  },
  {
    "name": "普照寺",
    "category": "history",
    "duration_minutes": 120,
    "rating": 4.0,
    "lat": 36.019722,
    "lon": 103.840332,
    "description": "地址: 伏龙坪街道兰山公园头营村 | 类别: 风景名胜;风景名胜;寺庙道观",
    "city": "兰州"
  },
  {
    "name": "玉川银杏林",
    "category": "sightseeing",
    "duration_minutes": 120,
    "rating": 4.0,
    "lat": 36.058304,
    "lon": 103.734467,
    "description": "地址: 龚家坪北路211号 | 类别: 风景名胜;风景名胜;风景名胜",
    "city": "兰州"
  },
  {
    "name": "四方博物馆",
    "category": "museum",
    "duration_minutes": 120,
    "rating": 4.0,
    "lat": 36.063817,
    "lon": 103.84785,
    "description": "地址: 黄河水车博览园524号 | 类别: 科教文化服务;博物馆;博物馆",
    "city": "兰州"
  },
  {
    "name": "百亩凤园",
    "category": "sightseeing",
    "duration_minutes": 120,
    "rating": 4.0,
    "lat": 36.092748,
    "lon": 103.903886,
    "description": "地址: 碧桂园 | 类别: 风景名胜;风景名胜相关;旅游景点",
    "city": "兰州"
  },
  {
    "name": "文泉清真寺",
    "category": "sightseeing",
    "duration_minutes": 120,
    "rating": 4.0,
    "lat": 36.047322,
    "lon": 103.845254,
    "description": "地址: 耿家庄社区 | 类别: 风景名胜;风景名胜;回教寺",
    "city": "兰州"
  },
  {
    "name": "欣欣茗园广场",
    "category": "outdoor",
    "duration_minutes": 120,
    "rating": 4.0,
    "lat": 36.049644,
    "lon": 103.890464,
    "description": "地址: 段家滩458号 | 类别: 风景名胜;公园广场;城市广场",
    "city": "兰州"
  },
  {
    "name": "五泉山公园-文昌宫",
    "category": "history",
    "duration_minutes": 120,
    "rating": 4.0,
    "lat": 36.03506,
    "lon": 103.824249,
    "description": "电话: 0931-8243247 | 地址: 五泉南路103号五泉山公园内(南侧) | 类别: 风景名胜;风景名胜;寺庙道观",
    "city": "兰州"
  },
  {
    "name": "360度全景黄河风情-观景台",
    "category": "sightseeing",
    "duration_minutes": 120,
    "rating": 4.0,
    "lat": 36.062823,
    "lon": 103.850673,
    "description": "地址: 南滨河东路与雁宁路交叉口西南120米 | 类别: 风景名胜;风景名胜;观景点",
    "city": "兰州"
  },
  {
    "name": "西沙公园",
    "category": "outdoor",
    "duration_minutes": 120,
    "rating": 4.0,
    "lat": 36.135902,
    "lon": 103.613026,
    "description": "地址: 环行中路与109国道交叉口东北40米 | 类别: 风景名胜;公园广场;公园",
    "city": "兰州"
  },
  {
    "name": "耿家庄清真寺",
    "category": "sightseeing",
    "duration_minutes": 120,
    "rating": 4.0,
    "lat": 36.046681,
    "lon": 103.845843,
    "description": "地址: 平凉路与麦积山路交叉口西北180米 | 类别: 风景名胜;风景名胜;回教寺",
    "city": "兰州"
  },
  {
    "name": "兰州彩陶馆",
    "category": "museum",
    "duration_minutes": 120,
    "rating": 4.0,
    "lat": 36.066451,
    "lon": 103.815335,
    "description": "电话: 0931-8559236 | 地址: 靖远路街道靖远路街道北滨河路450号 | 类别: 科教文化服务;博物馆;博物馆",
    "city": "兰州"
  },
  {
    "name": "牡丹亭",
    "category": "sightseeing",
    "duration_minutes": 120,
    "rating": 4.0,
    "lat": 36.07202,
    "lon": 103.812503,
    "description": "地址: 青藤缘农家乐东南侧100米 | 类别: 风景名胜;风景名胜;风景名胜",
    "city": "兰州"
  },
  {
    "name": "兰州官滩沟风景区",
    "category": "sightseeing",
    "duration_minutes": 120,
    "rating": 4.0,
    "lat": 35.846236,
    "lon": 103.987219,
    "description": "电话: 0931-4190188;0931-4190189 | 地址: 和平镇金川大道 | 类别: 风景名胜;风景名胜;国家级景点",
    "city": "兰州"
  },
  {
    "name": "金城公园2期",
    "category": "outdoor",
    "duration_minutes": 120,
    "rating": 4.0,
    "lat": 36.075998,
    "lon": 103.622827,
    "description": "电话: 0931-7556148 | 地址: 四季青街道公园路1号金城公园内(南侧) | 类别: 风景名胜;风景名胜;风景名胜",
    "city": "兰州"
  },
  {
    "name": "龚家湾清真寺",
    "category": "sightseeing",
    "duration_minutes": 120,
    "rating": 4.0,
    "lat": 36.056881,
    "lon": 103.76115,
    "description": "地址: 武山路55号 | 类别: 风景名胜;风景名胜;回教寺",
    "city": "兰州"
  },
  {
    "name": "佛光寺",
    "category": "history",
    "duration_minutes": 120,
    "rating": 4.0,
    "lat": 36.050371,
    "lon": 103.809563,
    "description": "地址: 伏龙坪中街5号 | 类别: 风景名胜;风景名胜;寺庙道观",
    "city": "兰州"
  },
  {
    "name": "安西路清真寺",
    "category": "sightseeing",
    "duration_minutes": 120,
    "rating": 4.0,
    "lat": 36.068122,
    "lon": 103.782929,
    "description": "地址: 体育街94号 | 类别: 风景名胜;风景名胜;回教寺",
    "city": "兰州"
  },
  {
    "name": "南山森林公园",
    "category": "outdoor",
    "duration_minutes": 120,
    "rating": 4.0,
    "lat": 36.073597,
    "lon": 103.621785,
    "description": "地址: 南绕城高速 | 类别: 风景名胜;公园广场;公园",
    "city": "兰州"
  },
  {
    "name": "祖师殿",
    "category": "sightseeing",
    "duration_minutes": 120,
    "rating": 4.0,
    "lat": 36.066371,
    "lon": 103.87467,
    "description": "地址: 雁中路附近 | 类别: 风景名胜;风景名胜相关;旅游景点",
    "city": "兰州"
  },
  {
    "name": "五星坪清真下寺",
    "category": "sightseeing",
    "duration_minutes": 120,
    "rating": 4.0,
    "lat": 36.057421,
    "lon": 103.787598,
    "description": "地址: 硷沟沿附近 | 类别: 风景名胜;风景名胜;回教寺",
    "city": "兰州"
  },
  {
    "name": "庄严寺",
    "category": "history",
    "duration_minutes": 120,
    "rating": 4.0,
    "lat": 36.03832,
    "lon": 103.822823,
    "description": "电话: 0931-8243247 | 地址: 五泉南路103号兰州市动物园内 | 类别: 风景名胜;风景名胜;寺庙道观",
    "city": "兰州"
  },
  {
    "name": "蛟龙寺",
    "category": "history",
    "duration_minutes": 120,
    "rating": 4.0,
    "lat": 35.946227,
    "lon": 103.764631,
    "description": "地址: 西果园镇 | 类别: 风景名胜;风景名胜;寺庙道观",
    "city": "兰州"
  },
  {
    "name": "五泉山公园-蒙泉",
    "category": "outdoor",
    "duration_minutes": 120,
    "rating": 4.0,
    "lat": 36.034636,
    "lon": 103.825715,
    "description": "电话: 0931-8243247 | 地址: 五泉山公园内(东南角) | 类别: 风景名胜;风景名胜相关;旅游景点",
    "city": "兰州"
  },
  {
    "name": "兴远寺",
    "category": "history",
    "duration_minutes": 120,
    "rating": 4.0,
    "lat": 36.05616,
    "lon": 103.807205,
    "description": "地址: 伏龙坪路与伏龙坪中街交叉口西北300米 | 类别: 风景名胜;风景名胜;寺庙道观",
    "city": "兰州"
  },
  {
    "name": "香源堂",
    "category": "sightseeing",
    "duration_minutes": 120,
    "rating": 4.0,
    "lat": 36.053485,
    "lon": 103.7852,
    "description": "地址: 五星坪后街83号 | 类别: 风景名胜;风景名胜;教堂",
    "city": "兰州"
  },
  {
    "name": "城关雁滩",
    "category": "sightseeing",
    "duration_minutes": 120,
    "rating": 4.0,
    "lat": 36.06532,
    "lon": 103.858945,
    "description": "地址: 雁滩路与滩尖子路交叉口东南40米 | 类别: 风景名胜;风景名胜;风景名胜",
    "city": "兰州"
  },
  {
    "name": "廉政文化公园",
    "category": "outdoor",
    "duration_minutes": 120,
    "rating": 4.0,
    "lat": 36.087741,
    "lon": 103.738432,
    "description": "地址: 北滨河路黄河风情线省委党校斜对面 | 类别: 风景名胜;公园广场;公园",
    "city": "兰州"
  },
  {
    "name": "文化广场",
    "category": "outdoor",
    "duration_minutes": 120,
    "rating": 4.0,
    "lat": 36.0639,
    "lon": 103.84702,
    "description": "电话: 0931-8587111 | 地址: 南滨河东路524号金雁大桥 | 类别: 风景名胜;公园广场;城市广场",
    "city": "兰州"
  },
  {
    "name": "白塔山公园-隋唐·金城关旧址",
    "category": "outdoor",
    "duration_minutes": 120,
    "rating": 4.0,
    "lat": 36.066053,
    "lon": 103.809385,
    "description": "电话: 0931-8360800 | 地址: 北滨河中路452号白塔山公园黄河第1楼附近 | 类别: 风景名胜;风景名胜相关;旅游景点",
    "city": "兰州"
  },
  {
    "name": "陕西清真大寺",
    "category": "sightseeing",
    "duration_minutes": 120,
    "rating": 4.0,
    "lat": 36.061968,
    "lon": 103.809202,
    "description": "地址: 北园58号(文化宫地铁站D口步行450米) | 类别: 风景名胜;风景名胜;回教寺",
    "city": "兰州"
  },
  {
    "name": "西固城隍庙",
    "category": "history",
    "duration_minutes": 120,
    "rating": 4.0,
    "lat": 36.093223,
    "lon": 103.609384,
    "description": "地址: 环城南路甘肃宝石花医院-西区西南侧约170米 | 类别: 风景名胜;风景名胜;寺庙道观",
    "city": "兰州"
  },
  {
    "name": "碧桂园梦幻雪乡戏雪乐园",
    "category": "sightseeing",
    "duration_minutes": 120,
    "rating": 4.0,
    "lat": 36.117386,
    "lon": 103.908561,
    "description": "电话: 13008786383 | 地址: 青石路1320号 | 类别: 体育休闲服务;休闲场所;游乐场",
    "city": "兰州"
  }
]