[
  {
    "name": "西安城市运动公园",
    "category": "outdoor",
    "duration_minutes": 120,
    "rating": 4.0,
    "lat": 34.344373,
    "lon": 108.943445,
    "description": "电话: 029-86402399 | 地址: 未央路168号(行政中心地铁站B5口旁) | 类别: 风景名胜;公园广场;公园",
    "city": "西安"
  },
  {
    "name": "大明宫国家遗址公园",
    "category": "outdoor",
    "duration_minutes": 120,
    "rating": 4.0,
    "lat": 34.292586,
    "lon": 108.96353,
    "description": "电话: 4000096635 | 地址: 自强东路585号 | 类别: 风景名胜;风景名胜;世界遗产",
    "city": "西安"
  },
  {
    "name": "宣平里景区",
    "category": "sightseeing",
    "duration_minutes": 120,
    "rating": 4.0,
    "lat": 34.341671,
    "lon": 108.911016,
    "description": "电话: 17391912136 | 地址: 汉城街道丰产路稳江仓储正对面 | 类别: 风景名胜;风景名胜;风景名胜|摩托车服务;摩托车销售;摩托车销售",
    "city": "西安"
  },
  {
    "name": "西安城墙",
    "category": "sightseeing",
    "duration_minutes": 120,
    "rating": 4.0,
    "lat": 34.2759,
    "lon": 108.948183,
    "description": "电话: 029-87272792 | 地址: 南大街2号 | 类别: 风景名胜;风景名胜;国家级景点",
    "city": "西安"
  },
  {
    "name": "汉城湖旅游风景区",
    "category": "outdoor",
    "duration_minutes": 120,
    "rating": 4.0,
    "lat": 34.298276,
    "lon": 108.918796,
    "description": "电话: 029-86483430 | 地址: 北二环与朱宏路交汇处西北角 | 类别: 风景名胜;风景名胜;国家级景点",
    "city": "西安"
  },
  {
    "name": "清水湾都市温泉度假中心",
    "category": "sightseeing",
    "duration_minutes": 120,
    "rating": 4.0,
    "lat": 34.312807,
    "lon": 108.930196,
    "description": "电话: 029-62217777 | 地址: 凤城一路与明光路交汇处东南角 | 类别: 生活服务;洗浴推拿场所;洗浴推拿场所",
    "city": "西安"
  },
  {
    "name": "广仁寺",
    "category": "history",
    "duration_minutes": 120,
    "rating": 4.0,
    "lat": 34.274555,
    "lon": 108.925865,
    "description": "电话: 029-87341676;18302969999 | 地址: 城墙西北角西北一路152号 | 类别: 风景名胜;风景名胜;寺庙道观",
    "city": "西安"
  },
  {
    "name": "西安钟楼",
    "category": "sightseeing",
    "duration_minutes": 120,
    "rating": 4.0,
    "lat": 34.25943,
    "lon": 108.94703,
    "description": "电话: 029-87276420 | 地址: 西安地铁2号线钟楼站C出口正对面 | 类别: 风景名胜;风景名胜;风景名胜",
    "city": "西安"
  },
  {
    "name": "回民街",
    "category": "sightseeing",
    "duration_minutes": 120,
    "rating": 4.0,
    "lat": 34.26226,
    "lon": 108.943607,
    "description": "地址: 北院门125号1-51(钟楼地铁站出入口步行430米) | 类别: 购物服务;特色商业街;步行街",
    "city": "西安"
  },
  {
    "name": "文景公园",
    "category": "outdoor",
    "duration_minutes": 120,
    "rating": 4.0,
    "lat": 34.321528,
    "lon": 108.935711,
    "description": "电话: 029-83660596 | 地址: 张家堡街道凤城三路与文景路交汇处向南100米 | 类别: 风景名胜;公园广场;公园",
    "city": "西安"
  },
  {
    "name": "大唐不夜城",
    "category": "sightseeing",
    "duration_minutes": 120,
    "rating": 4.0,
    "lat": 34.213992,
    "lon": 108.964195,
    "description": "地址: 雁塔南路428号 | 类别: 风景名胜;风景名胜相关;旅游景点|购物服务;特色商业街;特色商业街",
    "city": "西安"
  },
  {
    "name": "红旗铁路公园",
    "category": "outdoor",
    "duration_minutes": 120,
    "rating": 4.0,
    "lat": 34.3182,
    "lon": 108.980217,
    "description": "地址: 新兴路与八府庄园商业街交叉口西北20米 | 类别: 风景名胜;公园广场;公园",
    "city": "西安"
  },
  {
    "name": "西安后海",
    "category": "outdoor",
    "duration_minutes": 120,
    "rating": 4.0,
    "lat": 34.342591,
    "lon": 109.019227,
    "description": "地址: 华文路与锦堤六路交叉口西南420米 | 类别: 风景名胜;风景名胜;风景名胜",
    "city": "西安"
  },
  {
    "name": "文景山公园",
    "category": "outdoor",
    "duration_minutes": 120,
    "rating": 4.0,
    "lat": 34.384763,
    "lon": 108.943884,
    "description": "地址: 西安北站北广场东北侧 | 类别: 风景名胜;公园广场;公园",
    "city": "西安"
  },
  {
    "name": "汉长安城未央宫国家考古遗址公园",
    "category": "outdoor",
    "duration_minutes": 120,
    "rating": 4.0,
    "lat": 34.302854,
    "lon": 108.862168,
    "description": "电话: 029-86380088 | 地址: 大兴西路 | 类别: 风景名胜;风景名胜;风景名胜",
    "city": "西安"
  },
  {
    "name": "华夏文旅西安度假区",
    "category": "sightseeing",
    "duration_minutes": 120,
    "rating": 4.0,
    "lat": 34.351471,
    "lon": 109.018961,
    "description": "电话: 029-86729999 | 地址: 浐灞国际港华文路1518号 | 类别: 风景名胜;风景名胜;风景名胜",
    "city": "西安"
  },
  {
    "name": "西安城墙·碑林历史文化景区",
    "category": "sightseeing",
    "duration_minutes": 120,
    "rating": 4.0,
    "lat": 34.263783,
    "lon": 108.948296,
    "description": "地址: 顺城巷27号(钟楼地铁站D口步行270米) | 类别: 风景名胜;风景名胜;风景名胜",
    "city": "西安"
  },
  {
    "name": "永兴坊",
    "category": "sightseeing",
    "duration_minutes": 120,
    "rating": 4.0,
    "lat": 34.2649,
    "lon": 108.970162,
    "description": "地址: 东乐巷15号 | 类别: 风景名胜;风景名胜;风景名胜",
    "city": "西安"
  },
  {
    "name": "康乐园",
    "category": "sightseeing",
    "duration_minutes": 120,
    "rating": 4.0,
    "lat": 34.342311,
    "lon": 108.942101,
    "description": "地址: 未央路168号西安城市运动公园(西南角) | 类别: 风景名胜;风景名胜相关;旅游景点",
    "city": "西安"
  },
  {
    "name": "大慈恩寺",
    "category": "history",
    "duration_minutes": 120,
    "rating": 4.0,
    "lat": 34.217954,
    "lon": 108.96418,
    "description": "电话: 029-85518039;029-85527958;029-89554298 | 地址: 慈恩路1号 | 类别: 风景名胜;风景名胜;寺庙道观",
    "city": "西安"
  },
  {
    "name": "西安湖",
    "category": "outdoor",
    "duration_minutes": 120,
    "rating": 4.0,
    "lat": 34.393063,
    "lon": 108.898534,
    "description": "地址: 机场专用高速西侧 | 类别: 风景名胜;风景名胜;风景名胜",
    "city": "西安"
  },
  {
    "name": "大雁塔",
    "category": "history",
    "duration_minutes": 120,
    "rating": 4.0,
    "lat": 34.218229,
    "lon": 108.964176,
    "description": "电话: 029-85521890 | 地址: 慈恩路1号大慈恩寺内 | 类别: 风景名胜;风景名胜;风景名胜",
    "city": "西安"
  },
  {
    "name": "西安鼓楼",
    "category": "sightseeing",
    "duration_minutes": 120,
    "rating": 4.0,
    "lat": 34.260206,
    "lon": 108.943512,
    "description": "电话: 029-87278797 | 地址: 北院门74号(广济街地铁站D1口步行370米) | 类别: 风景名胜;风景名胜;风景名胜",
    "city": "西安"
  },
  {
    "name": "华夏文旅海洋公园",
    "category": "outdoor",
    "duration_minutes": 120,
    "rating": 4.0,
    "lat": 34.351688,
    "lon": 109.019024,
    "description": "电话: 029-86729999 | 地址: 浐灞国际港华文路1518号 | 类别: 风景名胜;公园广场;水族馆",
    "city": "西安"
  },
  {
    "name": "西仓市集文创公园",
    "category": "outdoor",
    "duration_minutes": 120,
    "rating": 4.0,
    "lat": 34.265579,
    "lon": 108.934458,
    "description": "电话: 029-87318958 | 地址: 西仓南巷146号 | 类别: 风景名胜;公园广场;公园",
    "city": "西安"
  },
  {
    "name": "西安城墙永宁门城楼",
    "category": "sightseeing",
    "duration_minutes": 120,
    "rating": 4.0,
    "lat": 34.251573,
    "lon": 108.94701,
    "description": "电话: 029-87272792 | 地址: 南大街2号西安城墙内(南侧) | 类别: 风景名胜;风景名胜相关;旅游景点",
    "city": "西安"
  },
  {
    "name": "西安世博园",
    "category": "sightseeing",
    "duration_minutes": 120,
    "rating": 4.0,
    "lat": 34.322669,
    "lon": 109.06116,
    "description": "地址: 世博大道1号 | 类别: 风景名胜;风景名胜;国家级景点",
    "city": "西安"
  },
  {
    "name": "汉城湖景区封禅天下广场",
    "category": "outdoor",
    "duration_minutes": 120,
    "rating": 4.0,
    "lat": 34.320743,
    "lon": 108.919425,
    "description": "电话: 029-86119717 | 地址: 汉城湖旅游风景区内(北侧) | 类别: 风景名胜;风景名胜;风景名胜",
    "city": "西安"
  },
  {
    "name": "革命公园",
    "category": "outdoor",
    "duration_minutes": 120,
    "rating": 4.0,
    "lat": 34.271471,
    "lon": 108.958367,
    "description": "电话: 029-87429497;029-87444591;15802912952 | 地址: 西五路53号 | 类别: 风景名胜;公园广场;公园",
    "city": "西安"
  },
  {
    "name": "西安浐灞国家湿地公园",
    "category": "outdoor",
    "duration_minutes": 120,
    "rating": 4.0,
    "lat": 34.419974,
    "lon": 109.005477,
    "description": "电话: 029-62815566;029-62815588 | 地址: 启源三路1号 | 类别: 风景名胜;公园广场;公园",
    "city": "西安"
  },
  {
    "name": "大明宫国家遗址公园丹凤门",
    "category": "outdoor",
    "duration_minutes": 120,
    "rating": 4.0,
    "lat": 34.281314,
    "lon": 108.964202,
    "description": "电话: 029-81618201 | 地址: 自强东路585号大明宫国家遗址公园内(南侧) | 类别: 风景名胜;风景名胜;风景名胜",
    "city": "西安"
  },
  {
    "name": "桃花潭",
    "category": "outdoor",
    "duration_minutes": 120,
    "rating": 4.0,
    "lat": 34.304089,
    "lon": 109.032947,
    "description": "电话: 029-83597580 | 地址: 十里铺街道浐河东路 | 类别: 风景名胜;公园广场;公园",
    "city": "西安"
  },
  {
    "name": "大唐西市",
    "category": "sightseeing",
    "duration_minutes": 120,
    "rating": 4.0,
    "lat": 34.246363,
    "lon": 108.907984,
    "description": "电话: 029-84357777;029-88361111 | 地址: 劳动南路118号 | 类别: 风景名胜;风景名胜;国家级景点",
    "city": "西安"
  },
  {
    "name": "西安博物院",
    "category": "museum",
    "duration_minutes": 120,
    "rating": 4.0,
    "lat": 34.238526,
    "lon": 108.94171,
    "description": "地址: 朱雀大街37号 | 类别: 科教文化服务;博物馆;博物馆|风景名胜;风景名胜相关;旅游景点",
    "city": "西安"
  },
  {
    "name": "高家大院",
    "category": "sightseeing",
    "duration_minutes": 120,
    "rating": 4.0,
    "lat": 34.26283,
    "lon": 108.943273,
    "description": "电话: 029-87401029 | 地址: 北院门144号(鼓楼向北200米、回民街内) | 类别: 风景名胜;风景名胜;风景名胜",
    "city": "西安"
  },
  {
    "name": "莲湖公园",
    "category": "outdoor",
    "duration_minutes": 120,
    "rating": 4.0,
    "lat": 34.268806,
    "lon": 108.940372,
    "description": "电话: 029-87256341;13698851283 | 地址: 莲湖路58号(近莲花池街) | 类别: 风景名胜;公园广场;公园",
    "city": "西安"
  },
  {
    "name": "陕西历史博物馆",
    "category": "museum",
    "duration_minutes": 120,
    "rating": 4.0,
    "lat": 34.224199,
    "lon": 108.955044,
    "description": "电话: 4000293806;029-85253806 | 地址: 小寨东路91号 | 类别: 科教文化服务;博物馆;博物馆",
    "city": "西安"
  },
  {
    "name": "紫薇湖",
    "category": "outdoor",
    "duration_minutes": 120,
    "rating": 4.0,
    "lat": 34.390899,
    "lon": 108.900766,
    "description": "地址: 六村堡街道咸阳湖景区 | 类别: 风景名胜;风景名胜;风景名胜",
    "city": "西安"
  },
  {
    "name": "未央湖动物园",
    "category": "outdoor",
    "duration_minutes": 120,
    "rating": 4.0,
    "lat": 34.402289,
    "lon": 108.986652,
    "description": "电话: 18992836608 | 地址: 未央湖游乐园 | 类别: 风景名胜;公园广场;动物园",
    "city": "西安"
  },
  {
    "name": "汉城湖旅游风景区大风阁",
    "category": "outdoor",
    "duration_minutes": 120,
    "rating": 4.0,
    "lat": 34.29883,
    "lon": 108.918932,
    "description": "电话: 029-89605893 | 地址: 二环北路西段入口(北向)附近 | 类别: 风景名胜;风景名胜;风景名胜",
    "city": "西安"
  },
  {
    "name": "大兴善寺",
    "category": "history",
    "duration_minutes": 120,
    "rating": 4.0,
    "lat": 34.227081,
    "lon": 108.943506,
    "description": "电话: 029-85227071 | 地址: 小寨兴善寺西街55号 | 类别: 风景名胜;风景名胜;寺庙道观",
    "city": "西安"
  },
  {
    "name": "八路军西安办事处纪念馆",
    "category": "history",
    "duration_minutes": 120,
    "rating": 4.0,
    "lat": 34.273134,
    "lon": 108.955197,
    "description": "电话: 029-87214661;029-87410095 | 地址: 北新街七贤庄1号 | 类别: 风景名胜;风景名胜;红色景区|风景名胜;风景名胜;纪念馆",
    "city": "西安"
  },
  {
    "name": "大雁塔文化休闲景区",
    "category": "history",
    "duration_minutes": 120,
    "rating": 4.0,
    "lat": 34.219335,
    "lon": 108.964706,
    "description": "电话: 029-85521890 | 地址: 和平门外雁塔路123号 | 类别: 风景名胜;风景名胜;国家级景点",
    "city": "西安"
  },
  {
    "name": "西安碑林博物馆",
    "category": "museum",
    "duration_minutes": 120,
    "rating": 4.0,
    "lat": 34.254497,
    "lon": 108.95286,
    "description": "电话: 029-87253331 | 地址: 三学街15号 | 类别: 科教文化服务;博物馆;博物馆",
    "city": "西安"
  },
  {
    "name": "大唐芙蓉园",
    "category": "sightseeing",
    "duration_minutes": 120,
    "rating": 4.0,
    "lat": 34.212717,
    "lon": 108.97436,
    "description": "电话: 029-85511888 | 地址: 曲江新区芙蓉西路99号 | 类别: 风景名胜;风景名胜;国家级景点",
    "city": "西安"
  },
  {
    "name": "西安千古情",
    "category": "sightseeing",
    "duration_minutes": 120,
    "rating": 4.0,
    "lat": 34.319449,
    "lon": 109.067581,
    "description": "电话: 4008888518 | 地址: 世博大道世博园得宝门内 | 类别: 风景名胜;风景名胜相关;旅游景点",
    "city": "西安"
  },
  {
    "name": "丰庆公园",
    "category": "outdoor",
    "duration_minutes": 120,
    "rating": 4.0,
    "lat": 34.247838,
    "lon": 108.898447,
    "description": "地址: 桃园南路6号(丰庆公园地铁站D口步行60米) | 类别: 风景名胜;公园广场;公园",
    "city": "西安"
  },
  {
    "name": "敕建万寿八仙宫",
    "category": "history",
    "duration_minutes": 120,
    "rating": 4.0,
    "lat": 34.265098,
    "lon": 108.980009,
    "description": "电话: 029-82488214 | 地址: 长乐坊189号 | 类别: 风景名胜;风景名胜;寺庙道观",
    "city": "西安"
  },
  {
    "name": "碑林书画一条街",
    "category": "sightseeing",
    "duration_minutes": 120,
    "rating": 4.0,
    "lat": 34.252467,
    "lon": 108.952163,
    "description": "地址: 三学街与府学巷交叉口北50米 | 类别: 购物服务;特色商业街;特色商业街",
    "city": "西安"
  },
  {
    "name": "汉邦欢乐世界",
    "category": "sightseeing",
    "duration_minutes": 120,
    "rating": 4.0,
    "lat": 34.305088,
    "lon": 108.887557,
    "description": "电话: 17629060875 | 地址: 未央宫街道讲武殿南村讲西路东汉歌长安生态园 | 类别: 体育休闲服务;休闲场所;游乐场",
    "city": "西安"
  },
  {
    "name": "大明宫国家遗址公园-玄武门遗址",
    "category": "outdoor",
    "duration_minutes": 120,
    "rating": 4.0,
    "lat": 34.303013,
    "lon": 108.962315,
    "description": "电话: 029-81618201 | 地址: 自强东路大明宫国家遗址公园内(北侧) | 类别: 风景名胜;风景名胜;风景名胜",
    "city": "西安"
  },
  {
    "name": "红旗广场",
    "category": "outdoor",
    "duration_minutes": 120,
    "rating": 4.0,
    "lat": 34.354721,
    "lon": 108.965575,
    "description": "地址: 徐家湾街道红旗路与渭滨路交叉路口东北侧 | 类别: 风景名胜;公园广场;城市广场",
    "city": "西安"
  },
  {
    "name": "勑赐荐福寺",
    "category": "history",
    "duration_minutes": 120,
    "rating": 4.0,
    "lat": 34.236784,
    "lon": 108.942015,
    "description": "电话: 029-87803591 | 地址: 友谊西路72号西安博物院内 | 类别: 风景名胜;风景名胜;寺庙道观",
    "city": "西安"
  },
  {
    "name": "赳赳大秦",
    "category": "sightseeing",
    "duration_minutes": 120,
    "rating": 4.0,
    "lat": 34.261176,
    "lon": 108.830064,
    "description": "电话: 029-86677888 | 地址: 天台路与沣东大道十字东北角 | 类别: 体育休闲服务;影剧院;剧场",
    "city": "西安"
  },
  {
    "name": "西羊市",
    "category": "sightseeing",
    "duration_minutes": 120,
    "rating": 4.0,
    "lat": 34.263114,
    "lon": 108.94357,
    "description": "地址: 北院门208号(钟楼地铁站A口步行480米) | 类别: 购物服务;特色商业街;特色商业街|餐饮服务;餐饮相关场所;餐饮相关",
    "city": "西安"
  },
  {
    "name": "汉城湖旅游风景区-汉武大帝雕像",
    "category": "outdoor",
    "duration_minutes": 120,
    "rating": 4.0,
    "lat": 34.320312,
    "lon": 108.918805,
    "description": "地址: 朱宏路190号 | 类别: 风景名胜;风景名胜;风景名胜",
    "city": "西安"
  },
  {
    "name": "曲江海洋极地公园",
    "category": "outdoor",
    "duration_minutes": 120,
    "rating": 4.0,
    "lat": 34.21524,
    "lon": 108.980537,
    "description": "电话: 029-85517317;029-85533555 | 地址: 曲江二路1号(北池头一路与芙蓉东路交叉口) | 类别: 风景名胜;公园广场;水族馆",
    "city": "西安"
  },
  {
    "name": "大雁塔北广场",
    "category": "outdoor",
    "duration_minutes": 120,
    "rating": 4.0,
    "lat": 34.221003,
    "lon": 108.964364,
    "description": "地址: 芙蓉东路3号 | 类别: 风景名胜;公园广场;公园广场",
    "city": "西安"
  },
  {
    "name": "西安渭河城市运动公园",
    "category": "outdoor",
    "duration_minutes": 120,
    "rating": 4.0,
    "lat": 34.383692,
    "lon": 108.872194,
    "description": "地址: 草滩七路(渭水园度假村北) | 类别: 风景名胜;公园广场;公园",
    "city": "西安"
  },
  {
    "name": "曲江池遗址公园",
    "category": "outdoor",
    "duration_minutes": 120,
    "rating": 4.0,
    "lat": 34.20216,
    "lon": 108.984261,
    "description": "电话: 029-85562540;029-85563398 | 地址: 曲江池西路与曲江池北路交叉口东南角 | 类别: 风景名胜;公园广场;公园",
    "city": "西安"
  },
  {
    "name": "长乐公园",
    "category": "outdoor",
    "duration_minutes": 120,
    "rating": 4.0,
    "lat": 34.261831,
    "lon": 108.999848,
    "description": "电话: 029-83283430 | 地址: 金花北路35号(近互助立交) | 类别: 风景名胜;公园广场;公园",
    "city": "西安"
  },
  {
    "name": "小黄鸭欢乐世界游乐场",
    "category": "sightseeing",
    "duration_minutes": 120,
    "rating": 4.0,
    "lat": 34.34844,
    "lon": 108.976559,
    "description": "电话: 15389420810 | 地址: 渭清路甲字1号 | 类别: 体育休闲服务;休闲场所;游乐场",
    "city": "西安"
  },
  {
    "name": "汉清明门广场",
    "category": "outdoor",
    "duration_minutes": 120,
    "rating": 4.0,
    "lat": 34.32871,
    "lon": 108.919364,
    "description": "地址: 朱宏路324号 | 类别: 风景名胜;公园广场;城市广场",
    "city": "西安"
  },
  {
    "name": "都城隍庙",
    "category": "history",
    "duration_minutes": 120,
    "rating": 4.0,
    "lat": 34.261045,
    "lon": 108.937359,
    "description": "电话: 029-87278333 | 地址: 西大街129号 | 类别: 风景名胜;风景名胜;寺庙道观",
    "city": "西安"
  },
  {
    "name": "香湖湾",
    "category": "outdoor",
    "duration_minutes": 120,
    "rating": 4.0,
    "lat": 34.302851,
    "lon": 109.030482,
    "description": "地址: 十里铺街道浐河东路桃花潭(西南角) | 类别: 风景名胜;风景名胜相关;旅游景点",
    "city": "西安"
  },
  {
    "name": "雁南公园",
    "category": "outdoor",
    "duration_minutes": 120,
    "rating": 4.0,
    "lat": 34.182173,
    "lon": 108.899795,
    "description": "地址: 子午大道15号 | 类别: 风景名胜;公园广场;公园",
    "city": "西安"
  },
  {
    "name": "长安十二时辰主题街区",
    "category": "sightseeing",
    "duration_minutes": 120,
    "rating": 4.0,
    "lat": 34.21198,
    "lon": 108.966004,
    "description": "电话: 4001806888 | 地址: 大唐不夜城东侧曼蒂广场南门 | 类别: 购物服务;特色商业街;特色商业街",
    "city": "西安"
  },
  {
    "name": "卧龙禅寺",
    "category": "history",
    "duration_minutes": 120,
    "rating": 4.0,
    "lat": 34.254706,
    "lon": 108.95482,
    "description": "电话: 029-87517573 | 地址: 柏树林街道开通西巷5号 | 类别: 风景名胜;风景名胜;寺庙道观",
    "city": "西安"
  },
  {
    "name": "新城广场",
    "category": "outdoor",
    "duration_minutes": 120,
    "rating": 4.0,
    "lat": 34.263938,
    "lon": 108.954198,
    "description": "地址: 东新街256号(近省政府) | 类别: 风景名胜;公园广场;城市广场",
    "city": "西安"
  },
  {
    "name": "西安环城公园(顺城北路西段)",
    "category": "outdoor",
    "duration_minutes": 120,
    "rating": 4.0,
    "lat": 34.275971,
    "lon": 108.928699,
    "description": "地址: 青年路街道西安城墙东门至建国门这段护城河 | 类别: 风景名胜;公园广场;公园",
    "city": "西安"
  },
  {
    "name": "钟鼓楼广场",
    "category": "outdoor",
    "duration_minutes": 120,
    "rating": 4.0,
    "lat": 34.25982,
    "lon": 108.944165,
    "description": "电话: 029-87276420 | 地址: 北院门与西大街交叉口西北100米 | 类别: 风景名胜;公园广场;城市广场",
    "city": "西安"
  },
  {
    "name": "曲江秦二世陵遗址公园",
    "category": "outdoor",
    "duration_minutes": 120,
    "rating": 4.0,
    "lat": 34.192728,
    "lon": 108.984616,
    "description": "电话: 029-85428866 | 地址: 曲江池南路252号(近曲江池遗址公园) | 类别: 风景名胜;公园广场;公园",
    "city": "西安"
  },
  {
    "name": "御道广场",
    "category": "outdoor",
    "duration_minutes": 120,
    "rating": 4.0,
    "lat": 34.28396,
    "lon": 108.964123,
    "description": "电话: 029-81618201 | 地址: 自强东路大明宫遗址·御道遗址附近 | 类别: 风景名胜;公园广场;城市广场",
    "city": "西安"
  },
  {
    "name": "昆明池·七夕公园",
    "category": "outdoor",
    "duration_minutes": 120,
    "rating": 4.0,
    "lat": 34.209154,
    "lon": 108.775124,
    "description": "电话: 029-89500981 | 地址: 昆明池七夕公园内 | 类别: 风景名胜;公园广场;公园",
    "city": "西安"
  },
  {
    "name": "河堤路梅园",
    "category": "sightseeing",
    "duration_minutes": 120,
    "rating": 4.0,
    "lat": 34.401362,
    "lon": 108.943532,
    "description": "地址: 正阳大道西南侧 | 类别: 风景名胜;风景名胜;风景名胜",
    "city": "西安"
  },
  {
    "name": "广运潭公园",
    "category": "outdoor",
    "duration_minutes": 120,
    "rating": 4.0,
    "lat": 34.354275,
    "lon": 109.009993,
    "description": "地址: 灞河西路附近 | 类别: 风景名胜;公园广场;公园",
    "city": "西安"
  },
  {
    "name": "薛家寨汉墓群",
    "category": "sightseeing",
    "duration_minutes": 120,
    "rating": 4.0,
    "lat": 34.349646,
    "lon": 108.956055,
    "description": "地址: 开元公园 | 类别: 风景名胜;风景名胜;风景名胜",
    "city": "西安"
  },
  {
    "name": "西安城墙(含光门)",
    "category": "sightseeing",
    "duration_minutes": 120,
    "rating": 4.0,
    "lat": 34.251693,
    "lon": 108.932269,
    "description": "电话: 029-87272792 | 地址: 环城南路西段136号 | 类别: 风景名胜;风景名胜相关;旅游景点",
    "city": "西安"
  },
  {
    "name": "西安事变纪念馆(青年路)",
    "category": "history",
    "duration_minutes": 120,
    "rating": 4.0,
    "lat": 34.271536,
    "lon": 108.939817,
    "description": "电话: 029-87330513;029-87333971 | 地址: 青年路街道青年路117号 | 类别: 风景名胜;风景名胜;红色景区|风景名胜;风景名胜;纪念馆",
    "city": "西安"
  },
  {
    "name": "杜邑遗址公园",
    "category": "outdoor",
    "duration_minutes": 120,
    "rating": 4.0,
    "lat": 34.196938,
    "lon": 109.029488,
    "description": "电话: 029-89318666 | 地址: 曲江街道踏青路与登高路口 | 类别: 风景名胜;公园广场;公园",
    "city": "西安"
  },
  {
    "name": "西安幻太奇海洋馆",
    "category": "outdoor",
    "duration_minutes": 120,
    "rating": 4.0,
    "lat": 34.282319,
    "lon": 108.895592,
    "description": "电话: 029-85506788 | 地址: 丰禾路275号太奥广场B1层 | 类别: 风景名胜;公园广场;水族馆",
    "city": "西安"
  },
  {
    "name": "榴园",
    "category": "outdoor",
    "duration_minutes": 120,
    "rating": 4.0,
    "lat": 34.25062,
    "lon": 108.949053,
    "description": "地址: 环城南路东段335号 | 类别: 风景名胜;公园广场;公园",
    "city": "西安"
  },
  {
    "name": "天主教西安总教区五星街圣方济各主教座堂南堂",
    "category": "sightseeing",
    "duration_minutes": 120,
    "rating": 4.0,
    "lat": 34.256358,
    "lon": 108.933829,
    "description": "电话: 029-87620948 | 地址: 五星街17号 | 类别: 风景名胜;风景名胜;教堂",
    "city": "西安"
  },
  {
    "name": "陕不列颠公园",
    "category": "outdoor",
    "duration_minutes": 120,
    "rating": 4.0,
    "lat": 34.3124,
    "lon": 108.865381,
    "description": "地址: 北宫门街与丰景路交叉口北140米 | 类别: 风景名胜;风景名胜;风景名胜",
    "city": "西安"
  },
  {
    "name": "乐游原青龙寺",
    "category": "history",
    "duration_minutes": 120,
    "rating": 4.0,
    "lat": 34.233238,
    "lon": 108.989243,
    "description": "电话: 029-85521498;029-85531096 | 地址: 西影路与雁翔路十字向北355米 | 类别: 风景名胜;风景名胜;寺庙道观",
    "city": "西安"
  },
  {
    "name": "雷寨梦广场",
    "category": "outdoor",
    "duration_minutes": 120,
    "rating": 4.0,
    "lat": 34.319474,
    "lon": 108.907449,
    "description": "地址: 石化大道雷寨村 | 类别: 风景名胜;公园广场;城市广场",
    "city": "西安"
  },
  {
    "name": "开元公园",
    "category": "outdoor",
    "duration_minutes": 120,
    "rating": 4.0,
    "lat": 34.349642,
    "lon": 108.956057,
    "description": "地址: 开元路与渭清路交叉口东150米 | 类别: 风景名胜;公园广场;公园",
    "city": "西安"
  },
  {
    "name": "AR浐灞后海观景平台",
    "category": "outdoor",
    "duration_minutes": 120,
    "rating": 4.0,
    "lat": 34.338791,
    "lon": 109.024629,
    "description": "地址: 灞桥街道灞河东路 | 类别: 风景名胜;风景名胜相关;旅游景点",
    "city": "西安"
  },
  {
    "name": "西安未央湖游乐园",
    "category": "outdoor",
    "duration_minutes": 120,
    "rating": 4.0,
    "lat": 34.405563,
    "lon": 108.987964,
    "description": "电话: 029-86671532 | 地址: 未央湖街道办环湖南路1号 | 类别: 风景名胜;公园广场;公园",
    "city": "西安"
  },
  {
    "name": "兴庆宫公园",
    "category": "outdoor",
    "duration_minutes": 120,
    "rating": 4.0,
    "lat": 34.253821,
    "lon": 108.983538,
    "description": "地址: 咸宁西路55号 | 类别: 风景名胜;公园广场;公园",
    "city": "西安"
  },
  {
    "name": "小雁塔",
    "category": "history",
    "duration_minutes": 120,
    "rating": 4.0,
    "lat": 34.239195,
    "lon": 108.942011,
    "description": "电话: 029-87803591 | 地址: 友谊西路74号 | 类别: 风景名胜;风景名胜;国家级景点",
    "city": "西安"
  },
  {
    "name": "西安城墙安远门",
    "category": "sightseeing",
    "duration_minutes": 120,
    "rating": 4.0,
    "lat": 34.275821,
    "lon": 108.947345,
    "description": "电话: 029-87272792 | 地址: 北关街道南大街2号西安城墙内(西侧) | 类别: 风景名胜;风景名胜;国家级景点",
    "city": "西安"
  },
  {
    "name": "湘子庙",
    "category": "history",
    "duration_minutes": 120,
    "rating": 4.0,
    "lat": 34.252795,
    "lon": 108.944333,
    "description": "地址: 南院门街道湘子街18号 | 类别: 风景名胜;风景名胜;寺庙道观",
    "city": "西安"
  },
  {
    "name": "宣平里亲子乐园",
    "category": "sightseeing",
    "duration_minutes": 120,
    "rating": 4.0,
    "lat": 34.340635,
    "lon": 108.909805,
    "description": "电话: 15398038831 | 地址: 汉城街道朱宏路与丰产路交叉口西南600米 | 类别: 体育休闲服务;休闲场所;游乐场",
    "city": "西安"
  },
  {
    "name": "西安幸福林带",
    "category": "sightseeing",
    "duration_minutes": 120,
    "rating": 4.0,
    "lat": 34.263989,
    "lon": 109.015219,
    "description": "地址: 万寿北路58号 | 类别: 风景名胜;风景名胜;风景名胜",
    "city": "西安"
  },
  {
    "name": "西安事变纪念馆(暂停开放)",
    "category": "history",
    "duration_minutes": 120,
    "rating": 4.0,
    "lat": 34.257313,
    "lon": 108.967721,
    "description": "电话: 029-87418247 | 地址: 建国路69号(大差市地铁站C东南口步行450米) | 类别: 风景名胜;风景名胜;纪念馆",
    "city": "西安"
  },
  {
    "name": "中亚公园",
    "category": "outdoor",
    "duration_minutes": 120,
    "rating": 4.0,
    "lat": 34.339329,
    "lon": 109.029192,
    "description": "地址: 欧亚大桥和会展一路交叉口东南角 | 类别: 风景名胜;公园广场;公园",
    "city": "西安"
  },
  {
    "name": "西五台云居寺",
    "category": "history",
    "duration_minutes": 120,
    "rating": 4.0,
    "lat": 34.268235,
    "lon": 108.930934,
    "description": "地址: 北院门街道北院门街道莲湖路洒金桥162号 | 类别: 风景名胜;风景名胜;寺庙道观",
    "city": "西安"
  },
  {
    "name": "西安半坡博物馆",
    "category": "museum",
    "duration_minutes": 120,
    "rating": 4.0,
    "lat": 34.272958,
    "lon": 109.053345,
    "description": "电话: 029-83325858 | 地址: 半坡路155号 | 类别: 科教文化服务;博物馆;博物馆",
    "city": "西安"
  },
  {
    "name": "西安化觉巷清真大寺",
    "category": "sightseeing",
    "duration_minutes": 120,
    "rating": 4.0,
    "lat": 34.261806,
    "lon": 108.941211,
    "description": "电话: 029-87272541 | 地址: 北院门化觉巷30号 | 类别: 风景名胜;风景名胜;回教寺",
    "city": "西安"
  },
  {
    "name": "西安化觉巷清真大寺",
    "category": "sightseeing",
    "duration_minutes": 120,
    "rating": 4.0,
    "lat": 34.261806,
    "lon": 108.941211,
    "description": "电话: 029-87272541 | 地址: 北院门化觉巷30号 | 类别: 风景名胜;风景名胜;回教寺",
    "city": "西安"
  },
  {
    "name": "白鹿原·白鹿仓",
    "category": "sightseeing",
    "duration_minutes": 120,
    "rating": 4.0,
    "lat": 34.217922,
    "lon": 109.114852,
    "description": "电话: 029-83559999 | 地址: 狄寨北路368号 | 类别: 风景名胜;风景名胜;风景名胜|体育休闲服务;休闲场所;休闲场所",
    "city": "西安"
  },
  {
    "name": "大雁塔文化休闲景区-音乐喷泉",
    "category": "history",
    "duration_minutes": 120,
    "rating": 4.0,
    "lat": 34.220858,
    "lon": 108.964139,
    "description": "电话: 029-85521890 | 地址: 和平门外雁塔北路南端(大雁塔景区内) | 类别: 风景名胜;风景名胜相关;旅游景点",
    "city": "西安"
  },
  {
    "name": "世园罗曼小镇",
    "category": "sightseeing",
    "duration_minutes": 120,
    "rating": 4.0,
    "lat": 34.319779,
    "lon": 109.07015,
    "description": "地址: 浐灞生态区浐灞大道1号世园村 | 类别: 生活服务;生活服务场所;生活服务场所",
    "city": "西安"
  },
  {
    "name": "唐大慈恩寺遗址公园",
    "category": "outdoor",
    "duration_minutes": 120,
    "rating": 4.0,
    "lat": 34.217678,
    "lon": 108.966388,
    "description": "电话: 029-85551419 | 地址: 太平堡新1排1号 | 类别: 风景名胜;公园广场;公园",
    "city": "西安"
  },
  {
    "name": "时光文化公园",
    "category": "outdoor",
    "duration_minutes": 120,
    "rating": 4.0,
    "lat": 34.199415,
    "lon": 108.910869,
    "description": "地址: 电子城街道丈八东路103号 | 类别: 商务住宅;产业园区;产业园区",
    "city": "西安"
  },
  {
    "name": "劳动公园",
    "category": "outdoor",
    "duration_minutes": 120,
    "rating": 4.0,
    "lat": 34.264949,
    "lon": 108.904161,
    "description": "电话: 029-88614105 | 地址: 团结东路196号 | 类别: 风景名胜;公园广场;公园",
    "city": "西安"
  },
  {
    "name": "青龙寺遗址博物馆",
    "category": "museum",
    "duration_minutes": 120,
    "rating": 4.0,
    "lat": 34.233511,
    "lon": 108.989169,
    "description": "电话: 029-85521498;029-89121895 | 地址: 西影路铁炉庙村北1号 | 类别: 科教文化服务;博物馆;博物馆",
    "city": "西安"
  },
  {
    "name": "雁鸣湖休闲公园",
    "category": "outdoor",
    "duration_minutes": 120,
    "rating": 4.0,
    "lat": 34.222103,
    "lon": 109.047119,
    "description": "电话: 029-83226572 | 地址: 浐河西路与东月路交汇处 | 类别: 风景名胜;公园广场;公园",
    "city": "西安"
  },
  {
    "name": "西安植物园",
    "category": "outdoor",
    "duration_minutes": 120,
    "rating": 4.0,
    "lat": 34.209403,
    "lon": 109.0297,
    "description": "电话: 029-61109924 | 地址: 翔悦路与宁安路交叉口曲江第十二小学对面 | 类别: 风景名胜;公园广场;植物园",
    "city": "西安"
  },
  {
    "name": "西安城墙朱雀门",
    "category": "sightseeing",
    "duration_minutes": 120,
    "rating": 4.0,
    "lat": 34.251812,
    "lon": 108.939131,
    "description": "电话: 029-87272792 | 地址: 南大街2号西安城墙内(南侧) | 类别: 风景名胜;风景名胜;风景名胜",
    "city": "西安"
  },
  {
    "name": "老钢厂设计创意产业园",
    "category": "sightseeing",
    "duration_minutes": 120,
    "rating": 4.0,
    "lat": 34.247004,
    "lon": 109.021375,
    "description": "电话: 029-82292000 | 地址: 幸福路109号华清学院校内 | 类别: 商务住宅;产业园区;产业园区",
    "city": "西安"
  },
  {
    "name": "大雁塔南广场",
    "category": "outdoor",
    "duration_minutes": 120,
    "rating": 4.0,
    "lat": 34.215872,
    "lon": 108.964202,
    "description": "地址: 慈恩路大悦城旁边 | 类别: 风景名胜;公园广场;公园广场",
    "city": "西安"
  },
  {
    "name": "西安海洋馆",
    "category": "outdoor",
    "duration_minutes": 120,
    "rating": 4.0,
    "lat": 34.28165,
    "lon": 108.895668,
    "description": "地址: 丰禾路373号 | 类别: 风景名胜;公园广场;水族馆",
    "city": "西安"
  },
  {
    "name": "巧克巧蔻·巧克力博物馆(西安大唐不夜城馆)",
    "category": "museum",
    "duration_minutes": 120,
    "rating": 4.0,
    "lat": 34.213053,
    "lon": 108.963764,
    "description": "电话: 17782579454 | 地址: 曲江新区雁塔南路458号大唐不夜城潮空间A06室 | 类别: 科教文化服务;科教文化场所;科教文化场所",
    "city": "西安"
  },
  {
    "name": "三圣母庙",
    "category": "history",
    "duration_minutes": 120,
    "rating": 4.0,
    "lat": 34.335557,
    "lon": 108.991804,
    "description": "地址: 永信路北50米 | 类别: 风景名胜;风景名胜;寺庙道观",
    "city": "西安"
  },
  {
    "name": "留园",
    "category": "sightseeing",
    "duration_minutes": 120,
    "rating": 4.0,
    "lat": 34.39507,
    "lon": 108.983963,
    "description": "地址: 环湖西路南段 | 类别: 商务住宅;住宅区;别墅",
    "city": "西安"
  },
  {
    "name": "曲江寒窑遗址公园(暂停开放)",
    "category": "outdoor",
    "duration_minutes": 120,
    "rating": 4.0,
    "lat": 34.198734,
    "lon": 108.991629,
    "description": "电话: 029-81543705 | 地址: 寒窑路18号 | 类别: 风景名胜;风景名胜;风景名胜",
    "city": "西安"
  },
  {
    "name": "泾渭分明观景台",
    "category": "sightseeing",
    "duration_minutes": 120,
    "rating": 4.0,
    "lat": 34.469579,
    "lon": 109.073121,
    "description": "地址: 河堤路附近 | 类别: 风景名胜;风景名胜;观景点",
    "city": "西安"
  },
  {
    "name": "开元广场",
    "category": "outdoor",
    "duration_minutes": 120,
    "rating": 4.0,
    "lat": 34.204818,
    "lon": 108.964156,
    "description": "地址: 雁塔南路428号大唐不夜城内(南侧) | 类别: 风景名胜;公园广场;城市广场",
    "city": "西安"
  },
  {
    "name": "诗经里",
    "category": "sightseeing",
    "duration_minutes": 120,
    "rating": 4.0,
    "lat": 34.228207,
    "lon": 108.738763,
    "description": "电话: 029-89555666 | 地址: 沣东新城沣河东路818号 | 类别: 体育休闲服务;体育休闲服务场所;体育休闲服务场所",
    "city": "西安"
  },
  {
    "name": "西安事变纪念馆张学良公馆(暂停开放)",
    "category": "museum",
    "duration_minutes": 120,
    "rating": 4.0,
    "lat": 34.257319,
    "lon": 108.967204,
    "description": "电话: 029-87418247;029-87418265 | 地址: 建国路甲字69号(建国路与建国三巷交叉口) | 类别: 风景名胜;风景名胜;红色景区|风景名胜;风景名胜;风景名胜",
    "city": "西安"
  },
  {
    "name": "生命之树",
    "category": "sightseeing",
    "duration_minutes": 120,
    "rating": 4.0,
    "lat": 34.195961,
    "lon": 108.950061,
    "description": "地址: 曲江新区长安南路2899号和雁展路交叉口东南侧西安万象城L1层 | 类别: 风景名胜;风景名胜;风景名胜",
    "city": "西安"
  },
  {
    "name": "南湖",
    "category": "outdoor",
    "duration_minutes": 120,
    "rating": 4.0,
    "lat": 34.268668,
    "lon": 108.94056,
    "description": "地址: 莲湖路58号莲湖公园 | 类别: 风景名胜;风景名胜;风景名胜",
    "city": "西安"
  },
  {
    "name": "西安热雪奇迹",
    "category": "sightseeing",
    "duration_minutes": 120,
    "rating": 4.0,
    "lat": 34.370921,
    "lon": 109.066456,
    "description": "电话: 4008959888 | 地址: 国际港务区港务大道与绿茵路交汇处西南角 | 类别: 体育休闲服务;运动场馆;滑雪场",
    "city": "西安"
  },
  {
    "name": "城市中央公园",
    "category": "outdoor",
    "duration_minutes": 120,
    "rating": 4.0,
    "lat": 34.369759,
    "lon": 108.940821,
    "description": "地址: 元光路与元朔路交叉路口往南约180米 | 类别: 风景名胜;公园广场;公园",
    "city": "西安"
  },
  {
    "name": "浐灞生态区汽车主题公园",
    "category": "outdoor",
    "duration_minutes": 120,
    "rating": 4.0,
    "lat": 34.300213,
    "lon": 109.050545,
    "description": "地址: 东三环辅路 | 类别: 风景名胜;公园广场;公园广场",
    "city": "西安"
  },
  {
    "name": "灞桥生态湿地公园",
    "category": "outdoor",
    "duration_minutes": 120,
    "rating": 4.0,
    "lat": 34.282107,
    "lon": 109.099055,
    "description": "地址: 灞柳一路 | 类别: 风景名胜;公园广场;公园",
    "city": "西安"
  },
  {
    "name": "清凉山森林公园",
    "category": "outdoor",
    "duration_minutes": 120,
    "rating": 4.0,
    "lat": 34.174858,
    "lon": 108.931821,
    "description": "地址: 西部大道与东仪路交叉口东500米路北 | 类别: 风景名胜;公园广场;公园",
    "city": "西安"
  },
  {
    "name": "长安公园",
    "category": "outdoor",
    "duration_minutes": 120,
    "rating": 4.0,
    "lat": 34.142549,
    "lon": 108.912884,
    "description": "电话: 18092371720;4008990369 | 地址: 城南大道 | 类别: 风景名胜;公园广场;公园",
    "city": "西安"
  },
  {
    "name": "永兴坊-非遗民俗街",
    "category": "sightseeing",
    "duration_minutes": 120,
    "rating": 4.0,
    "lat": 34.264666,
    "lon": 108.970024,
    "description": "电话: 029-87457788 | 地址: 东新街永兴坊里 | 类别: 购物服务;特色商业街;特色商业街",
    "city": "西安"
  },
  {
    "name": "红光公园",
    "category": "outdoor",
    "duration_minutes": 120,
    "rating": 4.0,
    "lat": 34.263114,
    "lon": 108.842403,
    "description": "地址: 西三环东侧 | 类别: 风景名胜;公园广场;公园",
    "city": "西安"
  },
  {
    "name": "张家堡广场(装修中)",
    "category": "outdoor",
    "duration_minutes": 120,
    "rating": 4.0,
    "lat": 34.340996,
    "lon": 108.947278,
    "description": "地址: 张家堡环岛赛高城市广场东北侧约190米 | 类别: 风景名胜;公园广场;城市广场",
    "city": "西安"
  },
  {
    "name": "西安市纺织公园",
    "category": "outdoor",
    "duration_minutes": 120,
    "rating": 4.0,
    "lat": 34.265578,
    "lon": 109.062168,
    "description": "电话: 029-83519727 | 地址: 纺织城西街191号 | 类别: 风景名胜;公园广场;公园",
    "city": "西安"
  },
  {
    "name": "大唐感业禅寺(暂停开放)",
    "category": "history",
    "duration_minutes": 120,
    "rating": 4.0,
    "lat": 34.342645,
    "lon": 108.888827,
    "description": "地址: 丰产路 | 类别: 风景名胜;风景名胜;寺庙道观",
    "city": "西安"
  },
  {
    "name": "大明宫国家遗址公园-九仙门",
    "category": "outdoor",
    "duration_minutes": 120,
    "rating": 4.0,
    "lat": 34.299989,
    "lon": 108.956362,
    "description": "电话: 029-87631111 | 地址: 自强东路585号大明宫国家遗址公园内(西北角) | 类别: 风景名胜;风景名胜相关;旅游景点",
    "city": "西安"
  },
  {
    "name": "世博园萌宠馆",
    "category": "sightseeing",
    "duration_minutes": 120,
    "rating": 4.0,
    "lat": 34.320352,
    "lon": 109.058717,
    "description": "电话: 029-83596013 | 地址: 西安世博园内(西南角) | 类别: 风景名胜;风景名胜相关;旅游景点",
    "city": "西安"
  },
  {
    "name": "浐灞滋水公园",
    "category": "outdoor",
    "duration_minutes": 120,
    "rating": 4.0,
    "lat": 34.335611,
    "lon": 109.009295,
    "description": "电话: 029-81708659 | 地址: 谭家街道浐河西岸向北欧亚一路的交汇处 | 类别: 风景名胜;公园广场;公园",
    "city": "西安"
  },
  {
    "name": "丹凤门广场",
    "category": "outdoor",
    "duration_minutes": 120,
    "rating": 4.0,
    "lat": 34.280796,
    "lon": 108.964317,
    "description": "地址: 望仙一路与翔鸾街交叉口西南180米 | 类别: 风景名胜;公园广场;公园广场",
    "city": "西安"
  },
  {
    "name": "西安奥体中央公园",
    "category": "outdoor",
    "duration_minutes": 120,
    "rating": 4.0,
    "lat": 34.374056,
    "lon": 109.046408,
    "description": "地址: 奥体大道 | 类别: 风景名胜;公园广场;公园",
    "city": "西安"
  },
  {
    "name": "西安奥体中央公园",
    "category": "outdoor",
    "duration_minutes": 120,
    "rating": 4.0,
    "lat": 34.374056,
    "lon": 109.046408,
    "description": "地址: 奥体大道 | 类别: 风景名胜;公园广场;公园",
    "city": "西安"
  },
  {
    "name": "杨虎城别墅",
    "category": "sightseeing",
    "duration_minutes": 120,
    "rating": 4.0,
    "lat": 34.271258,
    "lon": 108.939762,
    "description": "电话: 029-87330513 | 地址: 青年路街道青年路117号西安事变纪念馆 | 类别: 风景名胜;风景名胜;红色景区|风景名胜;风景名胜;风景名胜",
    "city": "西安"
  },
  {
    "name": "复兴坊",
    "category": "sightseeing",
    "duration_minutes": 120,
    "rating": 4.0,
    "lat": 34.270145,
    "lon": 108.917682,
    "description": "地址: 潘家村北路9号(玉祥门地铁站A西北口步行240米) | 类别: 购物服务;特色商业街;特色商业街",
    "city": "西安"
  },
  {
    "name": "陕西自然博物馆",
    "category": "museum",
    "duration_minutes": 120,
    "rating": 4.0,
    "lat": 34.195866,
    "lon": 108.946597,
    "description": "电话: 029-85331352;029-85331289 | 地址: 长安南路88号电视塔1层(电视塔地铁站B西南口旁) | 类别: 科教文化服务;博物馆;博物馆",
    "city": "西安"
  },
  {
    "name": "红旗铁路公园-团结里",
    "category": "outdoor",
    "duration_minutes": 120,
    "rating": 4.0,
    "lat": 34.343473,
    "lon": 108.979192,
    "description": "地址: 行舍路与仁宇路交叉口西260米 | 类别: 风景名胜;风景名胜相关;旅游景点",
    "city": "西安"
  },
  {
    "name": "沣东·沣河生态景区",
    "category": "sightseeing",
    "duration_minutes": 120,
    "rating": 4.0,
    "lat": 34.230163,
    "lon": 108.737505,
    "description": "电话: 029-89056222 | 地址: 沣东新城斗门街办富裕路沣河大桥以南 | 类别: 风景名胜;风景名胜;省级景点",
    "city": "西安"
  },
  {
    "name": "灞渭生态滩区",
    "category": "sightseeing",
    "duration_minutes": 120,
    "rating": 4.0,
    "lat": 34.441917,
    "lon": 109.051915,
    "description": "地址: 贾家滩村 | 类别: 风景名胜;风景名胜;风景名胜",
    "city": "西安"
  },
  {
    "name": "西钞广场",
    "category": "outdoor",
    "duration_minutes": 120,
    "rating": 4.0,
    "lat": 34.262872,
    "lon": 108.871418,
    "description": "地址: 汉城南路153号 | 类别: 风景名胜;公园广场;城市广场",
    "city": "西安"
  },
  {
    "name": "木塔寺公园",
    "category": "outdoor",
    "duration_minutes": 120,
    "rating": 4.0,
    "lat": 34.208451,
    "lon": 108.896374,
    "description": "地址: 科技六路6号(木塔寺地铁站E口步行220米) | 类别: 风景名胜;公园广场;公园",
    "city": "西安"
  },
  {
    "name": "阿房宫遗址公园",
    "category": "outdoor",
    "duration_minutes": 120,
    "rating": 4.0,
    "lat": 34.262786,
    "lon": 108.813047,
    "description": "地址: 三桥天台路A15号西部车城向南1000米 | 类别: 风景名胜;风景名胜;世界遗产",
    "city": "西安"
  },
  {
    "name": "金光门",
    "category": "sightseeing",
    "duration_minutes": 120,
    "rating": 4.0,
    "lat": 34.252771,
    "lon": 108.889195,
    "description": "地址: 沣惠南路辅路与昆明路辅路交叉口西北20米 | 类别: 风景名胜;风景名胜相关;旅游景点",
    "city": "西安"
  },
  {
    "name": "钟楼夜景观景平台",
    "category": "sightseeing",
    "duration_minutes": 120,
    "rating": 4.0,
    "lat": 34.259085,
    "lon": 108.948213,
    "description": "地址: 开元广场五层(钟楼地铁站E口步行190米) | 类别: 风景名胜;风景名胜;风景名胜",
    "city": "西安"
  },
  {
    "name": "陕西省美术博物馆",
    "category": "museum",
    "duration_minutes": 120,
    "rating": 4.0,
    "lat": 34.230996,
    "lon": 108.944213,
    "description": "电话: 029-87279282;029-85268292 | 地址: 长安北路14号(体育场地铁站B西南口步行360米) | 类别: 科教文化服务;博物馆;博物馆",
    "city": "西安"
  },
  {
    "name": "判官庙",
    "category": "history",
    "duration_minutes": 120,
    "rating": 4.0,
    "lat": 34.323963,
    "lon": 109.01657,
    "description": "地址: 广大门村后街2号 | 类别: 风景名胜;风景名胜;寺庙道观",
    "city": "西安"
  },
  {
    "name": "乐游原",
    "category": "sightseeing",
    "duration_minutes": 120,
    "rating": 4.0,
    "lat": 34.233372,
    "lon": 108.989265,
    "description": "地址: 雁翔路附18号东南侧(青龙寺地铁站G口步行290米) | 类别: 风景名胜;风景名胜;风景名胜",
    "city": "西安"
  },
  {
    "name": "曲江文化运动公园",
    "category": "outdoor",
    "duration_minutes": 120,
    "rating": 4.0,
    "lat": 34.18227,
    "lon": 108.989859,
    "description": "电话: 18762420857 | 地址: 公田三路与春临三路交汇处东南角 | 类别: 风景名胜;公园广场;公园",
    "city": "西安"
  },
  {
    "name": "华清宫",
    "category": "history",
    "duration_minutes": 120,
    "rating": 4.0,
    "lat": 34.356728,
    "lon": 109.215759,
    "description": "电话: 029-83812003 | 地址: 华清路38号 | 类别: 风景名胜;风景名胜;世界遗产",
    "city": "西安"
  },
  {
    "name": "中国唐苑",
    "category": "sightseeing",
    "duration_minutes": 120,
    "rating": 4.0,
    "lat": 34.196931,
    "lon": 109.037225,
    "description": "电话: 029-63361300 | 地址: 唐苑北路 | 类别: 风景名胜;风景名胜;风景名胜",
    "city": "西安"
  },
  {
    "name": "反重力瀑布",
    "category": "sightseeing",
    "duration_minutes": 120,
    "rating": 4.0,
    "lat": 34.316701,
    "lon": 108.981886,
    "description": "地址: 永顺东路与行舍路交叉口东160米(井上村地铁站B口旁) | 类别: 风景名胜;风景名胜;风景名胜",
    "city": "西安"
  },
  {
    "name": "白鹿原滑雪场",
    "category": "sightseeing",
    "duration_minutes": 120,
    "rating": 4.0,
    "lat": 34.216452,
    "lon": 109.094588,
    "description": "电话: 4000297878 | 地址: 狄寨街办水安路86号 | 类别: 体育休闲服务;运动场馆;滑雪场",
    "city": "西安"
  },
  {
    "name": "白鹿原滑雪场",
    "category": "sightseeing",
    "duration_minutes": 120,
    "rating": 4.0,
    "lat": 34.216452,
    "lon": 109.094588,
    "description": "电话: 4000297878 | 地址: 狄寨街办水安路86号 | 类别: 体育休闲服务;运动场馆;滑雪场",
    "city": "西安"
  },
  {
    "name": "凤城广场",
    "category": "outdoor",
    "duration_minutes": 120,
    "rating": 4.0,
    "lat": 34.352285,
    "lon": 108.919914,
    "description": "地址: 十路与朱宏路十字东北角 | 类别: 风景名胜;公园广场;城市广场",
    "city": "西安"
  },
  {
    "name": "铁路公园1期机车公园",
    "category": "outdoor",
    "duration_minutes": 120,
    "rating": 4.0,
    "lat": 34.272454,
    "lon": 109.056044,
    "description": "地址: 半坡地铁站A口东南侧30米大白棚子 | 类别: 风景名胜;公园广场;公园",
    "city": "西安"
  },
  {
    "name": "陕西广播电视塔",
    "category": "history",
    "duration_minutes": 120,
    "rating": 4.0,
    "lat": 34.196006,
    "lon": 108.946634,
    "description": "电话: 029-89133722 | 地址: 长安南路88号(曲江国际会展中心) | 类别: 风景名胜;风景名胜;风景名胜",
    "city": "西安"
  },
  {
    "name": "天玑湖",
    "category": "outdoor",
    "duration_minutes": 120,
    "rating": 4.0,
    "lat": 34.415167,
    "lon": 108.968663,
    "description": "地址: 西铜快速路入口与西铜快速路交叉口西400米 | 类别: 风景名胜;风景名胜;风景名胜",
    "city": "西安"
  },
  {
    "name": "樱花广场",
    "category": "outdoor",
    "duration_minutes": 120,
    "rating": 4.0,
    "lat": 34.160579,
    "lon": 108.878538,
    "description": "地址: 文苑北路与樱花一路交叉口 | 类别: 风景名胜;公园广场;公园",
    "city": "西安"
  },
  {
    "name": "曲江海洋极地公园海洋馆",
    "category": "outdoor",
    "duration_minutes": 120,
    "rating": 4.0,
    "lat": 34.215697,
    "lon": 108.980578,
    "description": "电话: 029-85517311;029-85533555 | 地址: 曲江二路1号曲江海洋极地公园 | 类别: 风景名胜;公园广场;水族馆",
    "city": "西安"
  },
  {
    "name": "西安环城西苑",
    "category": "outdoor",
    "duration_minutes": 120,
    "rating": 4.0,
    "lat": 34.254694,
    "lon": 108.923965,
    "description": "地址: 西门盘道城墙西侧护城河两岸环城西苑(环城西路南段) | 类别: 风景名胜;公园广场;公园",
    "city": "西安"
  },
  {
    "name": "玉女门",
    "category": "sightseeing",
    "duration_minutes": 120,
    "rating": 4.0,
    "lat": 34.320241,
    "lon": 108.914406,
    "description": "地址: 朱宏路(南玉丰村居民楼东南侧约100米) | 类别: 风景名胜;风景名胜相关;旅游景点",
    "city": "西安"
  },
  {
    "name": "韦曲老街",
    "category": "sightseeing",
    "duration_minutes": 120,
    "rating": 4.0,
    "lat": 34.160344,
    "lon": 108.945612,
    "description": "电话: 15291989627 | 地址: 航天中路新长百商厦(航天城地铁站A西北口步行270米) | 类别: 风景名胜;风景名胜相关;旅游景点",
    "city": "西安"
  },
  {
    "name": "土门小树林公园",
    "category": "outdoor",
    "duration_minutes": 120,
    "rating": 4.0,
    "lat": 34.264537,
    "lon": 108.882137,
    "description": "地址: 土门街道土门 | 类别: 风景名胜;公园广场;公园",
    "city": "西安"
  },
  {
    "name": "乐米自然界运动拓展",
    "category": "sightseeing",
    "duration_minutes": 120,
    "rating": 4.0,
    "lat": 34.417279,
    "lon": 109.000309,
    "description": "电话: 18091080757 | 地址: 浐灞生态区广运潭大道西安浐灞国家湿地公园西门(草滩门)内100米 | 类别: 体育休闲服务;休闲场所;游乐场",
    "city": "西安"
  },
  {
    "name": "西安银基冰雪世界",
    "category": "sightseeing",
    "duration_minutes": 120,
    "rating": 4.0,
    "lat": 34.278971,
    "lon": 109.015426,
    "description": "电话: 19991208857 | 地址: 幸福北路与长缨东路交汇处路北 | 类别: 风景名胜;风景名胜相关;旅游景点",
    "city": "西安"
  },
  {
    "name": "关中书院(西安书院门步行街店)",
    "category": "sightseeing",
    "duration_minutes": 120,
    "rating": 4.0,
    "lat": 34.253205,
    "lon": 108.949674,
    "description": "电话: 029-87266155 | 地址: 书院门63号 | 类别: 风景名胜;风景名胜相关;旅游景点",
    "city": "西安"
  },
  {
    "name": "安仁坊遗址展示馆",
    "category": "history",
    "duration_minutes": 120,
    "rating": 4.0,
    "lat": 34.236171,
    "lon": 108.941122,
    "description": "电话: 029-85411969 | 地址: 长安路街道荐福寺古建筑南侧 | 类别: 科教文化服务;展览馆;展览馆",
    "city": "西安"
  },
  {
    "name": "永宁坝草坪",
    "category": "sightseeing",
    "duration_minutes": 120,
    "rating": 4.0,
    "lat": 34.33535,
    "lon": 109.031631,
    "description": "地址: 会展一路辅路与展兴路交叉口西南260米 | 类别: 风景名胜;风景名胜;风景名胜",
    "city": "西安"
  },
  {
    "name": "日本飞机轰炸西安遗址",
    "category": "history",
    "duration_minutes": 120,
    "rating": 4.0,
    "lat": 34.26511,
    "lon": 108.93836,
    "description": "地址: 光明巷43号 | 类别: 风景名胜;风景名胜;风景名胜",
    "city": "西安"
  },
  {
    "name": "咸宁广场",
    "category": "sightseeing",
    "duration_minutes": 120,
    "rating": 4.0,
    "lat": 34.251352,
    "lon": 108.976006,
    "description": "地址: 咸宁西路29号(东关南街与咸宁西路交汇处东北角) | 类别: 商务住宅;楼宇;商务写字楼",
    "city": "西安"
  },
  {
    "name": "西安奥体中心-东广场",
    "category": "outdoor",
    "duration_minutes": 120,
    "rating": 4.0,
    "lat": 34.375612,
    "lon": 109.030578,
    "description": "电话: 029-68328886 | 地址: 杏渭路西安奥体中心 | 类别: 风景名胜;公园广场;城市广场",
    "city": "西安"
  },
  {
    "name": "环城西苑儿童乐园",
    "category": "sightseeing",
    "duration_minutes": 120,
    "rating": 4.0,
    "lat": 34.263923,
    "lon": 108.923346,
    "description": "地址: 环城西路北段西安城墙 | 类别: 体育休闲服务;休闲场所;游乐场",
    "city": "西安"
  },
  {
    "name": "香积寺",
    "category": "history",
    "duration_minutes": 120,
    "rating": 4.0,
    "lat": 34.122739,
    "lon": 108.892492,
    "description": "电话: 029-85973209 | 地址: 香积寺村 | 类别: 风景名胜;风景名胜;寺庙道观",
    "city": "西安"
  },
  {
    "name": "大汉上林苑(杜陵)文化生态景区",
    "category": "sightseeing",
    "duration_minutes": 120,
    "rating": 4.0,
    "lat": 34.181624,
    "lon": 109.026838,
    "description": "电话: 029-85591300 | 地址: 雁翔路南段1号 | 类别: 风景名胜;风景名胜;省级景点",
    "city": "西安"
  },
  {
    "name": "罔极寺",
    "category": "history",
    "duration_minutes": 120,
    "rating": 4.0,
    "lat": 34.261872,
    "lon": 108.976083,
    "description": "电话: 029-83651571 | 地址: 东关炮房街49号 | 类别: 风景名胜;风景名胜;寺庙道观",
    "city": "西安"
  },
  {
    "name": "大车家巷",
    "category": "sightseeing",
    "duration_minutes": 120,
    "rating": 4.0,
    "lat": 34.253406,
    "lon": 108.942076,
    "description": "地址: 碑林区 | 类别: 地名地址信息;交通地名;道路名",
    "city": "西安"
  },
  {
    "name": "洪庆山国家森林公园",
    "category": "outdoor",
    "duration_minutes": 120,
    "rating": 4.0,
    "lat": 34.292614,
    "lon": 109.157425,
    "description": "地址: 灞临路 | 类别: 风景名胜;风景名胜;国家级景点",
    "city": "西安"
  },
  {
    "name": "唐城墙遗址公园",
    "category": "outdoor",
    "duration_minutes": 120,
    "rating": 4.0,
    "lat": 34.22037,
    "lon": 108.888845,
    "description": "地址: 沣惠南路-科技四路口东100米 | 类别: 风景名胜;风景名胜;国家级景点|风景名胜;公园广场;公园",
    "city": "西安"
  },
  {
    "name": "汉长安城遗址西安门广场",
    "category": "outdoor",
    "duration_minutes": 120,
    "rating": 4.0,
    "lat": 34.293745,
    "lon": 108.866095,
    "description": "电话: 029-84112322 | 地址: 未央宫街道大兴西路西安门遗址 | 类别: 风景名胜;公园广场;城市广场",
    "city": "西安"
  },
  {
    "name": "陕西考古博物馆",
    "category": "museum",
    "duration_minutes": 120,
    "rating": 4.0,
    "lat": 34.11806,
    "lon": 108.882207,
    "description": "电话: 029-89251666 | 地址: 文苑南路与终南大道交汇处东北侧 | 类别: 科教文化服务;博物馆;博物馆",
    "city": "西安"
  },
  {
    "name": "文化中心广场",
    "category": "outdoor",
    "duration_minutes": 120,
    "rating": 4.0,
    "lat": 34.343153,
    "lon": 108.955486,
    "description": "地址: 鱼藻路21号 | 类别: 风景名胜;公园广场;城市广场",
    "city": "西安"
  },
  {
    "name": "浅水湾",
    "category": "sightseeing",
    "duration_minutes": 120,
    "rating": 4.0,
    "lat": 34.34324,
    "lon": 108.944483,
    "description": "地址: 未央路168号西安城市运动公园 | 类别: 风景名胜;风景名胜相关;旅游景点",
    "city": "西安"
  },
  {
    "name": "如来佛",
    "category": "sightseeing",
    "duration_minutes": 120,
    "rating": 4.0,
    "lat": 34.21793,
    "lon": 108.966858,
    "description": "地址: 雁塔南路大雁塔风景区大慈恩寺内 | 类别: 风景名胜;风景名胜相关;旅游景点",
    "city": "西安"
  },
  {
    "name": "西安国际陆港网球运动公园",
    "category": "outdoor",
    "duration_minutes": 120,
    "rating": 4.0,
    "lat": 34.397239,
    "lon": 109.066618,
    "description": "电话: 029-83588599;13119189838 | 地址: 港务大道与秦汉大道交叉口西南150米 | 类别: 风景名胜;公园广场;公园|体育休闲服务;运动场馆;足球场",
    "city": "西安"
  },
  {
    "name": "西安烈士陵园",
    "category": "sightseeing",
    "duration_minutes": 120,
    "rating": 4.0,
    "lat": 34.209418,
    "lon": 108.933655,
    "description": "电话: 029-88234281 | 地址: 明德一路123号 | 类别: 生活服务;丧葬设施;陵园",
    "city": "西安"
  },
  {
    "name": "书院门牌坊",
    "category": "sightseeing",
    "duration_minutes": 120,
    "rating": 4.0,
    "lat": 34.252952,
    "lon": 108.948097,
    "description": "地址: 书院门107号西安书院门步行街 | 类别: 风景名胜;风景名胜相关;旅游景点",
    "city": "西安"
  },
  {
    "name": "渭河生态景观区",
    "category": "sightseeing",
    "duration_minutes": 120,
    "rating": 4.0,
    "lat": 34.394214,
    "lon": 108.922934,
    "description": "地址: 明光路与河堤路交叉口南160米 | 类别: 风景名胜;风景名胜相关;旅游景点",
    "city": "西安"
  },
  {
    "name": "鹤鸣湖公园",
    "category": "outdoor",
    "duration_minutes": 120,
    "rating": 4.0,
    "lat": 34.196272,
    "lon": 108.826973,
    "description": "地址: 云水八路与云水三路交叉口西南160米 | 类别: 风景名胜;公园广场;公园",
    "city": "西安"
  },
  {
    "name": "大明宫国家遗址公园-含元殿遗址",
    "category": "outdoor",
    "duration_minutes": 120,
    "rating": 4.0,
    "lat": 34.287528,
    "lon": 108.964177,
    "description": "电话: 029-81618201;029-82200808 | 地址: 自强东路585号 | 类别: 风景名胜;风景名胜;世界遗产",
    "city": "西安"
  },
  {
    "name": "灞渭生态滩区观景台",
    "category": "sightseeing",
    "duration_minutes": 120,
    "rating": 4.0,
    "lat": 34.435203,
    "lon": 109.028374,
    "description": "地址: 灞河特大桥 | 类别: 风景名胜;风景名胜;观景点",
    "city": "西安"
  },
  {
    "name": "大唐西市博物馆",
    "category": "museum",
    "duration_minutes": 120,
    "rating": 4.0,
    "lat": 34.247442,
    "lon": 108.907934,
    "description": "电话: 029-84351808 | 地址: 劳动南路118号 | 类别: 科教文化服务;博物馆;博物馆",
    "city": "西安"
  },
  {
    "name": "大雁塔北广场不倒翁(暂停开放)",
    "category": "history",
    "duration_minutes": 120,
    "rating": 4.0,
    "lat": 34.220925,
    "lon": 108.962983,
    "description": "地址: 大雁塔北广场内(大雁塔地铁站B西南口步行180米) | 类别: 风景名胜;风景名胜;风景名胜",
    "city": "西安"
  }
]