[
  {
    "name": "厦门山海健康步道",
    "category": "outdoor",
    "duration_minutes": 120,
    "rating": 4.0,
    "lat": 24.481175,
    "lon": 118.078283,
    "description": "电话: 0592-5576176 | 地址: 邮轮码头(邮轮中心地铁站6号口步行470米) | 类别: 风景名胜;风景名胜相关;旅游景点",
    "city": "厦门"
  },
  {
    "name": "厦门白鹭洲公园",
    "category": "outdoor",
    "duration_minutes": 120,
    "rating": 4.0,
    "lat": 24.473704,
    "lon": 118.093828,
    "description": "地址: 白鹭洲路 | 类别: 风景名胜;公园广场;公园",
    "city": "厦门"
  },
  {
    "name": "海湾公园",
    "category": "outdoor",
    "duration_minutes": 120,
    "rating": 4.0,
    "lat": 24.473095,
    "lon": 118.076287,
    "description": "电话: 0592-5907909 | 地址: 西堤东路49号 | 类别: 风景名胜;公园广场;公园",
    "city": "厦门"
  },
  {
    "name": "中山路步行街",
    "category": "outdoor",
    "duration_minutes": 120,
    "rating": 4.0,
    "lat": 24.453916,
    "lon": 118.079484,
    "description": "地址: 中山路56号 | 类别: 购物服务;特色商业街;特色商业街",
    "city": "厦门"
  },
  {
    "name": "厦门园林植物园",
    "category": "outdoor",
    "duration_minutes": 120,
    "rating": 4.0,
    "lat": 24.44813,
    "lon": 118.109545,
    "description": "电话: 0592-2985935 | 地址: 虎园路25号 | 类别: 风景名胜;公园广场;植物园",
    "city": "厦门"
  },
  {
    "name": "鼓浪屿风景名胜区",
    "category": "sightseeing",
    "duration_minutes": 120,
    "rating": 4.0,
    "lat": 24.444695,
    "lon": 118.06702,
    "description": "地址: 晃岩路35-6号 | 类别: 风景名胜;风景名胜;国家级景点",
    "city": "厦门"
  },
  {
    "name": "中山公园",
    "category": "outdoor",
    "duration_minutes": 120,
    "rating": 4.0,
    "lat": 24.459187,
    "lon": 118.090076,
    "description": "电话: 0592-2910888 | 地址: 公园南路(中山公园地铁站3A口旁) | 类别: 风景名胜;公园广场;公园",
    "city": "厦门"
  },
  {
    "name": "仙岳公园",
    "category": "outdoor",
    "duration_minutes": 120,
    "rating": 4.0,
    "lat": 24.49814,
    "lon": 118.103428,
    "description": "电话: 0592-5122647 | 地址: 怡鹭大厦对面 | 类别: 风景名胜;公园广场;公园",
    "city": "厦门"
  },
  {
    "name": "万石山国家重点风景名胜区",
    "category": "outdoor",
    "duration_minutes": 120,
    "rating": 4.0,
    "lat": 24.4537,
    "lon": 118.09392,
    "description": "电话: 0592-2066821 | 地址: 中山公园地铁站4号口步行460米 | 类别: 风景名胜;风景名胜;国家级景点",
    "city": "厦门"
  },
  {
    "name": "屿见闽南·时光幻境主题景区",
    "category": "sightseeing",
    "duration_minutes": 120,
    "rating": 4.0,
    "lat": 24.481655,
    "lon": 118.077942,
    "description": "地址: 东港北路15、17-19号 | 类别: 风景名胜;风景名胜;风景名胜",
    "city": "厦门"
  },
  {
    "name": "狐尾山公园",
    "category": "outdoor",
    "duration_minutes": 120,
    "rating": 4.0,
    "lat": 24.483896,
    "lon": 118.086277,
    "description": "电话: 0592-5611171 | 地址: 湖滨中路狐尾山气象主题公园内 | 类别: 风景名胜;公园广场;公园",
    "city": "厦门"
  },
  {
    "name": "南湖公园",
    "category": "outdoor",
    "duration_minutes": 120,
    "rating": 4.0,
    "lat": 24.478255,
    "lon": 118.106958,
    "description": "电话: 0592-5071683 | 地址: 湖光路7-21号 | 类别: 风景名胜;公园广场;公园",
    "city": "厦门"
  },
  {
    "name": "南普陀寺",
    "category": "history",
    "duration_minutes": 120,
    "rating": 4.0,
    "lat": 24.440987,
    "lon": 118.096582,
    "description": "电话: 0592-2087282 | 地址: 思明南路515号 | 类别: 风景名胜;风景名胜;寺庙道观",
    "city": "厦门"
  },
  {
    "name": "钟鼓索道",
    "category": "sightseeing",
    "duration_minutes": 120,
    "rating": 4.0,
    "lat": 24.452775,
    "lon": 118.094162,
    "description": "电话: 0592-2039368 | 地址: 虎园路25-110号 | 类别: 风景名胜;风景名胜;风景名胜",
    "city": "厦门"
  },
  {
    "name": "厦门市博物馆",
    "category": "museum",
    "duration_minutes": 120,
    "rating": 4.0,
    "lat": 24.49097,
    "lon": 118.109209,
    "description": "电话: 0592-5371607 | 地址: 体育路95号 | 类别: 科教文化服务;博物馆;博物馆",
    "city": "厦门"
  },
  {
    "name": "钢琴码头",
    "category": "sightseeing",
    "duration_minutes": 120,
    "rating": 4.0,
    "lat": 24.446325,
    "lon": 118.073285,
    "description": "地址: 鼓浪屿风景区鹿礁路6号之2号 | 类别: 风景名胜;风景名胜;风景名胜",
    "city": "厦门"
  },
  {
    "name": "鸿山公园",
    "category": "outdoor",
    "duration_minutes": 120,
    "rating": 4.0,
    "lat": 24.447105,
    "lon": 118.086731,
    "description": "电话: 0592-2025696 | 地址: 思明南路331号 | 类别: 风景名胜;公园广场;公园",
    "city": "厦门"
  },
  {
    "name": "狐尾山公园-观景台",
    "category": "outdoor",
    "duration_minutes": 120,
    "rating": 4.0,
    "lat": 24.481392,
    "lon": 118.086136,
    "description": "电话: 0592-5611171 | 地址: 狐尾山公园内(南侧) | 类别: 风景名胜;风景名胜;风景名胜",
    "city": "厦门"
  },
  {
    "name": "厦门市鼓浪屿风景名胜区-皓月园",
    "category": "sightseeing",
    "duration_minutes": 120,
    "rating": 4.0,
    "lat": 24.441099,
    "lon": 118.075936,
    "description": "电话: 0592-2067530 | 地址: 晃岩路35-6号鼓浪屿风景名胜区内(东侧) | 类别: 风景名胜;风景名胜;风景名胜",
    "city": "厦门"
  },
  {
    "name": "厦门海上明珠塔",
    "category": "outdoor",
    "duration_minutes": 120,
    "rating": 4.0,
    "lat": 24.482075,
    "lon": 118.084956,
    "description": "电话: 0592-5595353 | 地址: 气象台路85号(近东渡狐尾山顶) | 类别: 风景名胜;风景名胜;风景名胜",
    "city": "厦门"
  },
  {
    "name": "白城沙滩",
    "category": "sightseeing",
    "duration_minutes": 120,
    "rating": 4.0,
    "lat": 24.432104,
    "lon": 118.102892,
    "description": "地址: 大学路 | 类别: 风景名胜;风景名胜;海滩",
    "city": "厦门"
  },
  {
    "name": "沙坡尾艺术西区",
    "category": "sightseeing",
    "duration_minutes": 120,
    "rating": 4.0,
    "lat": 24.437609,
    "lon": 118.087587,
    "description": "电话: 0592-2082119 | 地址: 沙坡尾60号 | 类别: 商务住宅;产业园区;产业园区|购物服务;特色商业街;特色商业街",
    "city": "厦门"
  },
  {
    "name": "日光岩",
    "category": "sightseeing",
    "duration_minutes": 120,
    "rating": 4.0,
    "lat": 24.441312,
    "lon": 118.064542,
    "description": "地址: 泉州路109号 | 类别: 风景名胜;风景名胜相关;旅游景点",
    "city": "厦门"
  },
  {
    "name": "金榜公园",
    "category": "outdoor",
    "duration_minutes": 120,
    "rating": 4.0,
    "lat": 24.462593,
    "lon": 118.114878,
    "description": "地址: 厦禾路与金榜路交叉口西南200米 | 类别: 风景名胜;公园广场;公园",
    "city": "厦门"
  },
  {
    "name": "筼筜湖",
    "category": "outdoor",
    "duration_minutes": 120,
    "rating": 4.0,
    "lat": 24.475764,
    "lon": 118.094224,
    "description": "地址: 筼筜街道湖滨中路白鹭洲站旁 | 类别: 风景名胜;风景名胜相关;旅游景点",
    "city": "厦门"
  },
  {
    "name": "湖里公园",
    "category": "outdoor",
    "duration_minutes": 120,
    "rating": 4.0,
    "lat": 24.504475,
    "lon": 118.106398,
    "description": "电话: 0592-6037092 | 地址: 湖里工业区牛公岭山麓华泰路32号 | 类别: 风景名胜;公园广场;公园",
    "city": "厦门"
  },
  {
    "name": "菽庄花园",
    "category": "sightseeing",
    "duration_minutes": 120,
    "rating": 4.0,
    "lat": 24.439035,
    "lon": 118.06952,
    "description": "地址: 晃岩路35-6号鼓浪屿风景名胜区(东南角) | 类别: 风景名胜;风景名胜相关;旅游景点",
    "city": "厦门"
  },
  {
    "name": "海滨公园",
    "category": "outdoor",
    "duration_minutes": 120,
    "rating": 4.0,
    "lat": 24.456357,
    "lon": 118.072266,
    "description": "地址: 鹭江街道鹭江道 | 类别: 风景名胜;公园广场;公园",
    "city": "厦门"
  },
  {
    "name": "鼓浪屿管风琴艺术中心",
    "category": "sightseeing",
    "duration_minutes": 120,
    "rating": 4.0,
    "lat": 24.448408,
    "lon": 118.068862,
    "description": "地址: 鼓浪屿街道三明路1-4号(和记洋行货栈遗址旁) | 类别: 风景名胜;风景名胜相关;旅游景点",
    "city": "厦门"
  },
  {
    "name": "沙坡尾",
    "category": "sightseeing",
    "duration_minutes": 120,
    "rating": 4.0,
    "lat": 24.439087,
    "lon": 118.088167,
    "description": "地址: 厦港街道大学路与民族路交叉口东南120米 | 类别: 风景名胜;风景名胜相关;旅游景点",
    "city": "厦门"
  },
  {
    "name": "上李水库公园",
    "category": "outdoor",
    "duration_minutes": 120,
    "rating": 4.0,
    "lat": 24.443876,
    "lon": 118.129083,
    "description": "电话: 0592-2195583 | 地址: 龙虎山路866-868号 | 类别: 风景名胜;风景名胜相关;旅游景点",
    "city": "厦门"
  },
  {
    "name": "清水宫",
    "category": "history",
    "duration_minutes": 120,
    "rating": 4.0,
    "lat": 24.528825,
    "lon": 118.113602,
    "description": "地址: 殿前街道殿前三路6122-8号 | 类别: 风景名胜;风景名胜;寺庙道观",
    "city": "厦门"
  },
  {
    "name": "厦门白鹭洲公园西公园",
    "category": "outdoor",
    "duration_minutes": 120,
    "rating": 4.0,
    "lat": 24.472813,
    "lon": 118.089333,
    "description": "地址: 白鹭洲路565号白鹭洲公园内 | 类别: 风景名胜;公园广场;公园",
    "city": "厦门"
  },
  {
    "name": "仙岳山",
    "category": "outdoor",
    "duration_minutes": 120,
    "rating": 4.0,
    "lat": 24.496651,
    "lon": 118.102204,
    "description": "地址: 仙岳公园 | 类别: 风景名胜;风景名胜;风景名胜",
    "city": "厦门"
  },
  {
    "name": "胡里山炮台",
    "category": "outdoor",
    "duration_minutes": 120,
    "rating": 4.0,
    "lat": 24.429475,
    "lon": 118.106383,
    "description": "电话: 0592-2088313 | 地址: 曾厝垵路2号 | 类别: 风景名胜;风景名胜;国家级景点",
    "city": "厦门"
  },
  {
    "name": "厦门五一广场",
    "category": "outdoor",
    "duration_minutes": 120,
    "rating": 4.0,
    "lat": 24.490664,
    "lon": 118.111252,
    "description": "地址: 仙岳路396-398号 | 类别: 风景名胜;公园广场;城市广场",
    "city": "厦门"
  },
  {
    "name": "轮渡广场",
    "category": "outdoor",
    "duration_minutes": 120,
    "rating": 4.0,
    "lat": 24.45488,
    "lon": 118.073294,
    "description": "地址: 鹭江街道鹭江道15号 | 类别: 风景名胜;公园广场;城市广场",
    "city": "厦门"
  },
  {
    "name": "大屏山郊野公园",
    "category": "outdoor",
    "duration_minutes": 120,
    "rating": 4.0,
    "lat": 24.496878,
    "lon": 118.056927,
    "description": "地址: 石塘村水头新村 | 类别: 风景名胜;公园广场;公园",
    "city": "厦门"
  },
  {
    "name": "华侨博物院",
    "category": "museum",
    "duration_minutes": 120,
    "rating": 4.0,
    "lat": 24.442084,
    "lon": 118.09003,
    "description": "电话: 0592-2085345;0592-2084028 | 地址: 思明南路493号 | 类别: 科教文化服务;博物馆;博物馆",
    "city": "厦门"
  },
  {
    "name": "郑成功巨型石雕像",
    "category": "sightseeing",
    "duration_minutes": 120,
    "rating": 4.0,
    "lat": 24.441288,
    "lon": 118.076761,
    "description": "地址: 鼓浪屿风景名胜区-皓月园 | 类别: 风景名胜;风景名胜;风景名胜",
    "city": "厦门"
  },
  {
    "name": "嘉禾良库文创园",
    "category": "sightseeing",
    "duration_minutes": 120,
    "rating": 4.0,
    "lat": 24.464401,
    "lon": 118.107461,
    "description": "电话: 0592-5803862 | 地址: 文屏路1号(文灶地铁站2号口步行420米) | 类别: 商务住宅;产业园区;产业园区",
    "city": "厦门"
  },
  {
    "name": "厦门市动物园",
    "category": "outdoor",
    "duration_minutes": 120,
    "rating": 4.0,
    "lat": 24.460466,
    "lon": 118.091659,
    "description": "电话: 0592-6895999 | 地址: 公园东路与白鹤路交叉口西100米 | 类别: 风景名胜;公园广场;动物园",
    "city": "厦门"
  },
  {
    "name": "福建省厦门市白鹭洲公园-鸽子广场",
    "category": "outdoor",
    "duration_minutes": 120,
    "rating": 4.0,
    "lat": 24.474581,
    "lon": 118.094421,
    "description": "地址: 湖滨中路白鹭洲公园中公园鸽子广场 | 类别: 风景名胜;公园广场;城市广场",
    "city": "厦门"
  },
  {
    "name": "大德记沙滩",
    "category": "sightseeing",
    "duration_minutes": 120,
    "rating": 4.0,
    "lat": 24.439959,
    "lon": 118.074997,
    "description": "地址: 鼓浪屿风景区漳州路3号之2号 | 类别: 体育休闲服务;运动场馆;海滨浴场",
    "city": "厦门"
  },
  {
    "name": "白鹭洲公园东公园",
    "category": "outdoor",
    "duration_minutes": 120,
    "rating": 4.0,
    "lat": 24.478525,
    "lon": 118.097515,
    "description": "电话: 0592-5075995 | 地址: 湖滨中路100号之2号 | 类别: 风景名胜;公园广场;公园",
    "city": "厦门"
  },
  {
    "name": "厦门园林植物园-多肉植物区",
    "category": "sightseeing",
    "duration_minutes": 120,
    "rating": 4.0,
    "lat": 24.448799,
    "lon": 118.100869,
    "description": "电话: 0592-2985935 | 地址: 虎园路25号厦门园林植物园内(西侧) | 类别: 风景名胜;风景名胜相关;旅游景点",
    "city": "厦门"
  },
  {
    "name": "厦门经济特区纪念馆",
    "category": "history",
    "duration_minutes": 120,
    "rating": 4.0,
    "lat": 24.509006,
    "lon": 118.097351,
    "description": "电话: 0592-5628032;0592-5633591 | 地址: 兴隆路23号 | 类别: 风景名胜;风景名胜;纪念馆",
    "city": "厦门"
  },
  {
    "name": "松柏公园",
    "category": "outdoor",
    "duration_minutes": 120,
    "rating": 4.0,
    "lat": 24.491142,
    "lon": 118.124028,
    "description": "地址: 松柏路(吕厝地铁站1号口步行440米) | 类别: 风景名胜;公园广场;公园",
    "city": "厦门"
  },
  {
    "name": "东坪山公园",
    "category": "outdoor",
    "duration_minutes": 120,
    "rating": 4.0,
    "lat": 24.456507,
    "lon": 118.144139,
    "description": "电话: 0592-5880607;18650133586 | 地址: 云顶岩路与金鸡南路交叉处 | 类别: 风景名胜;公园广场;公园",
    "city": "厦门"
  },
  {
    "name": "观音寺",
    "category": "history",
    "duration_minutes": 120,
    "rating": 4.0,
    "lat": 24.503154,
    "lon": 118.122212,
    "description": "电话: 0592-5101176 | 地址: 仙岳公园(塘边地铁站1号口步行250米) | 类别: 风景名胜;风景名胜;寺庙道观",
    "city": "厦门"
  },
  {
    "name": "忠仑公园",
    "category": "outdoor",
    "duration_minutes": 120,
    "rating": 4.0,
    "lat": 24.483488,
    "lon": 118.150039,
    "description": "电话: 0592-5971178 | 地址: 金尚路77号(蔡塘地铁站2号口步行390米) | 类别: 风景名胜;公园广场;公园",
    "city": "厦门"
  },
  {
    "name": "雨林世界",
    "category": "outdoor",
    "duration_minutes": 120,
    "rating": 4.0,
    "lat": 24.449714,
    "lon": 118.097876,
    "description": "电话: 0592-2985935 | 地址: 虎园路25号厦门园林植物园内(西侧) | 类别: 风景名胜;公园广场;植物园",
    "city": "厦门"
  },
  {
    "name": "椰风寨",
    "category": "sightseeing",
    "duration_minutes": 120,
    "rating": 4.0,
    "lat": 24.442613,
    "lon": 118.161867,
    "description": "地址: 环岛南路4567-22号 | 类别: 风景名胜;风景名胜;风景名胜",
    "city": "厦门"
  },
  {
    "name": "天主堂",
    "category": "sightseeing",
    "duration_minutes": 120,
    "rating": 4.0,
    "lat": 24.443825,
    "lon": 118.072804,
    "description": "地址: 鼓浪屿风景区鹿礁路34号(近老年疗养院) | 类别: 风景名胜;风景名胜;教堂",
    "city": "厦门"
  },
  {
    "name": "惠和石文化园",
    "category": "sightseeing",
    "duration_minutes": 120,
    "rating": 4.0,
    "lat": 24.487245,
    "lon": 118.151343,
    "description": "电话: 0592-5518977 | 地址: 吕岭路忠仑社148号(蔡塘地铁站1号口步行390米) | 类别: 风景名胜;风景名胜;国家级景点",
    "city": "厦门"
  },
  {
    "name": "音乐广场",
    "category": "outdoor",
    "duration_minutes": 120,
    "rating": 4.0,
    "lat": 24.423726,
    "lon": 118.12952,
    "description": "地址: 滨海街道滨海街道环岛南路318号 | 类别: 风景名胜;公园广场;城市广场",
    "city": "厦门"
  },
  {
    "name": "鼓浪屿风琴博物馆",
    "category": "museum",
    "duration_minutes": 120,
    "rating": 4.0,
    "lat": 24.447406,
    "lon": 118.068321,
    "description": "电话: 0592-2063226 | 地址: 鼓新路43号 | 类别: 科教文化服务;博物馆;博物馆",
    "city": "厦门"
  },
  {
    "name": "招商冰雪世界",
    "category": "sightseeing",
    "duration_minutes": 120,
    "rating": 4.0,
    "lat": 24.493178,
    "lon": 118.076838,
    "description": "电话: 0592-5039599 | 地址: 厦门海上世界购物中心3楼 | 类别: 体育休闲服务;体育休闲服务场所;体育休闲服务场所",
    "city": "厦门"
  },
  {
    "name": "港仔后海滨沙滩",
    "category": "outdoor",
    "duration_minutes": 120,
    "rating": 4.0,
    "lat": 24.439277,
    "lon": 118.066849,
    "description": "地址: 鼓声路附近 | 类别: 风景名胜;风景名胜;海滩",
    "city": "厦门"
  },
  {
    "name": "厦门海底世界",
    "category": "outdoor",
    "duration_minutes": 120,
    "rating": 4.0,
    "lat": 24.446142,
    "lon": 118.071246,
    "description": "电话: 0592-2067668;0592-2069365 | 地址: 鼓浪屿龙头路2号(轮渡码头西面) | 类别: 风景名胜;公园广场;水族馆",
    "city": "厦门"
  },
  {
    "name": "东荣广场",
    "category": "outdoor",
    "duration_minutes": 120,
    "rating": 4.0,
    "lat": 24.487262,
    "lon": 118.0841,
    "description": "地址: 海山路74号 | 类别: 风景名胜;公园广场;公园广场",
    "city": "厦门"
  },
  {
    "name": "鼓浪石",
    "category": "sightseeing",
    "duration_minutes": 120,
    "rating": 4.0,
    "lat": 24.441826,
    "lon": 118.060587,
    "description": "地址: 晃岩路35-6号鼓浪屿风景名胜区(西南角) | 类别: 风景名胜;风景名胜相关;旅游景点",
    "city": "厦门"
  },
  {
    "name": "市民广场",
    "category": "outdoor",
    "duration_minutes": 120,
    "rating": 4.0,
    "lat": 24.486163,
    "lon": 118.031041,
    "description": "地址: 滨湖北路15-107号 | 类别: 风景名胜;公园广场;城市广场",
    "city": "厦门"
  },
  {
    "name": "鹭江夜游",
    "category": "outdoor",
    "duration_minutes": 120,
    "rating": 4.0,
    "lat": 24.450051,
    "lon": 118.07733,
    "description": "电话: 0592-2040118 | 地址: 鹭江道3-116号和平码头海上旅游集散中心 | 类别: 风景名胜;风景名胜相关;旅游景点",
    "city": "厦门"
  },
  {
    "name": "厦门市郑成功纪念馆",
    "category": "history",
    "duration_minutes": 120,
    "rating": 4.0,
    "lat": 24.44269,
    "lon": 118.066932,
    "description": "电话: 0592-2061921;0592-2571857 | 地址: 晃岩路35-6号鼓浪屿风景名胜区 | 类别: 风景名胜;风景名胜;纪念馆",
    "city": "厦门"
  },
  {
    "name": "集美学村",
    "category": "sightseeing",
    "duration_minutes": 120,
    "rating": 4.0,
    "lat": 24.56628,
    "lon": 118.092832,
    "description": "电话: 0592-6370099 | 地址: 集美街道银江路183号 | 类别: 科教文化服务;学校;学校",
    "city": "厦门"
  },
  {
    "name": "十里长堤",
    "category": "sightseeing",
    "duration_minutes": 120,
    "rating": 4.0,
    "lat": 24.563722,
    "lon": 118.089475,
    "description": "地址: 厦门大桥南 | 类别: 风景名胜;风景名胜;风景名胜",
    "city": "厦门"
  },
  {
    "name": "鸿山寺",
    "category": "history",
    "duration_minutes": 120,
    "rating": 4.0,
    "lat": 24.448235,
    "lon": 118.084462,
    "description": "电话: 0592-2034694 | 地址: 思明南路331号鸿山公园(西北角) | 类别: 风景名胜;风景名胜;寺庙道观",
    "city": "厦门"
  },
  {
    "name": "鼓浪屿晴天墙",
    "category": "sightseeing",
    "duration_minutes": 120,
    "rating": 4.0,
    "lat": 24.449494,
    "lon": 118.067467,
    "description": "地址: 龙渊别墅西南侧140米 | 类别: 风景名胜;风景名胜;风景名胜",
    "city": "厦门"
  },
  {
    "name": "白鹭洲公园东公园筼筜书院",
    "category": "outdoor",
    "duration_minutes": 120,
    "rating": 4.0,
    "lat": 24.478599,
    "lon": 118.097466,
    "description": "电话: 0592-5075995 | 地址: 湖滨中路100-1(湖滨中路地铁站4号口步行430米) | 类别: 风景名胜;风景名胜;风景名胜",
    "city": "厦门"
  },
  {
    "name": "虎溪禅寺",
    "category": "history",
    "duration_minutes": 120,
    "rating": 4.0,
    "lat": 24.449809,
    "lon": 118.091659,
    "description": "电话: 0592-2021732;0592-2121799 | 地址: 虎溪岩路5号 | 类别: 风景名胜;风景名胜;寺庙道观",
    "city": "厦门"
  },
  {
    "name": "沙坡尾彩虹墙",
    "category": "sightseeing",
    "duration_minutes": 120,
    "rating": 4.0,
    "lat": 24.438075,
    "lon": 118.087532,
    "description": "地址: 沙坡尾15号 | 类别: 风景名胜;风景名胜;风景名胜",
    "city": "厦门"
  },
  {
    "name": "怪坡",
    "category": "sightseeing",
    "duration_minutes": 120,
    "rating": 4.0,
    "lat": 24.453042,
    "lon": 118.120263,
    "description": "电话: 0592-2985935 | 地址: 文屏路 | 类别: 风景名胜;风景名胜相关;旅游景点",
    "city": "厦门"
  },
  {
    "name": "石头皮山公园",
    "category": "outdoor",
    "duration_minutes": 120,
    "rating": 4.0,
    "lat": 24.511036,
    "lon": 118.118796,
    "description": "地址: 湖里街道嘉禾路611号 | 类别: 风景名胜;公园广场;公园|风景名胜;风景名胜;风景名胜",
    "city": "厦门"
  },
  {
    "name": "闽南朝天宫",
    "category": "history",
    "duration_minutes": 120,
    "rating": 4.0,
    "lat": 24.523762,
    "lon": 118.109133,
    "description": "电话: 0592-3582702 | 地址: 内环路与长乐路交叉口东北230米 | 类别: 风景名胜;风景名胜;寺庙道观",
    "city": "厦门"
  },
  {
    "name": "莲花公园",
    "category": "outdoor",
    "duration_minutes": 120,
    "rating": 4.0,
    "lat": 24.485598,
    "lon": 118.128494,
    "description": "电话: 0592-5535758 | 地址: 凌香里7号(吕厝地铁站12号口步行390米) | 类别: 风景名胜;公园广场;公园",
    "city": "厦门"
  },
  {
    "name": "汇丰银行公馆旧址",
    "category": "history",
    "duration_minutes": 120,
    "rating": 4.0,
    "lat": 24.448668,
    "lon": 118.067266,
    "description": "地址: 晃岩路35-6号鼓浪屿风景名胜区内(北侧) | 类别: 风景名胜;风景名胜;纪念馆",
    "city": "厦门"
  },
  {
    "name": "珍珠湾沙滩",
    "category": "sightseeing",
    "duration_minutes": 120,
    "rating": 4.0,
    "lat": 24.426045,
    "lon": 118.121878,
    "description": "地址: 环岛南路与龙虎山路交叉口东南300米 | 类别: 风景名胜;风景名胜;风景名胜",
    "city": "厦门"
  },
  {
    "name": "黄厝沙滩日出广场",
    "category": "outdoor",
    "duration_minutes": 120,
    "rating": 4.0,
    "lat": 24.433647,
    "lon": 118.150151,
    "description": "地址: 环岛南路海悦山庄酒店东南侧 | 类别: 风景名胜;公园广场;公园广场|体育休闲服务;体育休闲服务场所;体育休闲服务场所",
    "city": "厦门"
  },
  {
    "name": "厦门儿童公园",
    "category": "outdoor",
    "duration_minutes": 120,
    "rating": 4.0,
    "lat": 24.486144,
    "lon": 118.038701,
    "description": "地址: 滨湖北路与东屿北路交汇处 | 类别: 风景名胜;公园广场;公园",
    "city": "厦门"
  },
  {
    "name": "厦门园林博览苑",
    "category": "sightseeing",
    "duration_minutes": 120,
    "rating": 4.0,
    "lat": 24.582621,
    "lon": 118.073072,
    "description": "电话: 0592-6259258;0592-6259200 | 地址: 苑亭路391号 | 类别: 风景名胜;风景名胜;国家级景点",
    "city": "厦门"
  },
  {
    "name": "蔡尖尾山公园",
    "category": "outdoor",
    "duration_minutes": 120,
    "rating": 4.0,
    "lat": 24.496718,
    "lon": 118.030531,
    "description": "地址: 马青路地铁站1号口步行390米 | 类别: 风景名胜;公园广场;公园",
    "city": "厦门"
  },
  {
    "name": "嘉禾园",
    "category": "outdoor",
    "duration_minutes": 120,
    "rating": 4.0,
    "lat": 24.472168,
    "lon": 118.099507,
    "description": "地址: 湖滨南路210号 | 类别: 风景名胜;公园广场;公园",
    "city": "厦门"
  },
  {
    "name": "铁路文化公园",
    "category": "outdoor",
    "duration_minutes": 120,
    "rating": 4.0,
    "lat": 24.445089,
    "lon": 118.086824,
    "description": "地址: 厦港街道思明南路439号(万石湖西北面) | 类别: 风景名胜;公园广场;公园",
    "city": "厦门"
  },
  {
    "name": "集美鳌园景区",
    "category": "sightseeing",
    "duration_minutes": 120,
    "rating": 4.0,
    "lat": 24.568005,
    "lon": 118.106375,
    "description": "电话: 0592-6064884 | 地址: 鳌园路24号 | 类别: 风景名胜;风景名胜;国家级景点|风景名胜;风景名胜;红色景区",
    "city": "厦门"
  },
  {
    "name": "厦门市鼓浪屿风景名胜区-番婆楼",
    "category": "sightseeing",
    "duration_minutes": 120,
    "rating": 4.0,
    "lat": 24.445387,
    "lon": 118.06751,
    "description": "电话: 18020738001 | 地址: 晃岩路35-6号鼓浪屿风景名胜区 | 类别: 风景名胜;风景名胜相关;旅游景点",
    "city": "厦门"
  },
  {
    "name": "厦门大学思明校区鲁迅纪念馆",
    "category": "history",
    "duration_minutes": 120,
    "rating": 4.0,
    "lat": 24.436307,
    "lon": 118.096086,
    "description": "地址: 思明南路422号厦门大学集美楼2楼 | 类别: 风景名胜;风景名胜;纪念馆",
    "city": "厦门"
  },
  {
    "name": "海沧大桥旅游区",
    "category": "outdoor",
    "duration_minutes": 120,
    "rating": 4.0,
    "lat": 24.493278,
    "lon": 118.081647,
    "description": "地址: 东渡路127-17号 | 类别: 风景名胜;风景名胜;风景名胜",
    "city": "厦门"
  },
  {
    "name": "仙岳公园-土地公庙",
    "category": "history",
    "duration_minutes": 120,
    "rating": 4.0,
    "lat": 24.500398,
    "lon": 118.110807,
    "description": "地址: 仙岳公园内(东侧) | 类别: 风景名胜;风景名胜;寺庙道观",
    "city": "厦门"
  },
  {
    "name": "最美转角",
    "category": "sightseeing",
    "duration_minutes": 120,
    "rating": 4.0,
    "lat": 24.449353,
    "lon": 118.068211,
    "description": "地址: 晃岩路35-6号鼓浪屿风景名胜区内(北侧) | 类别: 风景名胜;风景名胜;风景名胜",
    "city": "厦门"
  },
  {
    "name": "厦门世茂双子塔",
    "category": "history",
    "duration_minutes": 120,
    "rating": 4.0,
    "lat": 24.435612,
    "lon": 118.08878,
    "description": "电话: 15985829242 | 地址: 演武西路180-188号世茂海峡大厦 | 类别: 风景名胜;风景名胜相关;旅游景点",
    "city": "厦门"
  },
  {
    "name": "八卦楼",
    "category": "sightseeing",
    "duration_minutes": 120,
    "rating": 4.0,
    "lat": 24.447422,
    "lon": 118.068263,
    "description": "地址: 鼓新路43号 | 类别: 风景名胜;风景名胜相关;旅游景点",
    "city": "厦门"
  },
  {
    "name": "海沧湾公园",
    "category": "outdoor",
    "duration_minutes": 120,
    "rating": 4.0,
    "lat": 24.48805,
    "lon": 118.054462,
    "description": "地址: 沧林东路与海沧大道交叉口 | 类别: 风景名胜;公园广场;公园",
    "city": "厦门"
  },
  {
    "name": "鼓浪屿钢琴博物馆",
    "category": "museum",
    "duration_minutes": 120,
    "rating": 4.0,
    "lat": 24.4383,
    "lon": 118.069799,
    "description": "电话: 0592-2060238 | 地址: 港仔后路7号 | 类别: 科教文化服务;博物馆;博物馆",
    "city": "厦门"
  },
  {
    "name": "演武大桥观景平台",
    "category": "history",
    "duration_minutes": 120,
    "rating": 4.0,
    "lat": 24.433305,
    "lon": 118.090262,
    "description": "地址: 演武大桥与演武路交叉口西南150米 | 类别: 风景名胜;风景名胜;风景名胜",
    "city": "厦门"
  },
  {
    "name": "黄厝海滩",
    "category": "outdoor",
    "duration_minutes": 120,
    "rating": 4.0,
    "lat": 24.442614,
    "lon": 118.1619,
    "description": "地址: 观光旅游大道 | 类别: 风景名胜;风景名胜;海滩",
    "city": "厦门"
  },
  {
    "name": "一国两制沙滩",
    "category": "sightseeing",
    "duration_minutes": 120,
    "rating": 4.0,
    "lat": 24.442638,
    "lon": 118.161934,
    "description": "地址: 环岛南路 | 类别: 风景名胜;风景名胜;海滩",
    "city": "厦门"
  },
  {
    "name": "厦门白鹭洲公园音乐喷泉广场",
    "category": "outdoor",
    "duration_minutes": 120,
    "rating": 4.0,
    "lat": 24.472982,
    "lon": 118.090794,
    "description": "地址: 白鹭洲路565号 | 类别: 风景名胜;风景名胜相关;旅游景点",
    "city": "厦门"
  },
  {
    "name": "潮汐之眼摩天轮(暂停营业)",
    "category": "sightseeing",
    "duration_minutes": 120,
    "rating": 4.0,
    "lat": 24.490741,
    "lon": 118.07643,
    "description": "电话: 0592-5501314 | 地址: 双狮西路与北通道交叉口西 | 类别: 体育休闲服务;休闲场所;游乐场",
    "city": "厦门"
  },
  {
    "name": "盼归塔",
    "category": "history",
    "duration_minutes": 120,
    "rating": 4.0,
    "lat": 24.42356,
    "lon": 118.136846,
    "description": "类别: 风景名胜;风景名胜相关;旅游景点",
    "city": "厦门"
  },
  {
    "name": "厦门园林植物园南门网红电梯",
    "category": "sightseeing",
    "duration_minutes": 120,
    "rating": 4.0,
    "lat": 24.4412,
    "lon": 118.115412,
    "description": "地址: 虎园路25号 | 类别: 风景名胜;风景名胜;风景名胜",
    "city": "厦门"
  },
  {
    "name": "牛头山公园",
    "category": "outdoor",
    "duration_minutes": 120,
    "rating": 4.0,
    "lat": 24.492542,
    "lon": 118.0823,
    "description": "地址: 东渡路185-1号 | 类别: 风景名胜;公园广场;公园",
    "city": "厦门"
  },
  {
    "name": "曾厝垵景区",
    "category": "sightseeing",
    "duration_minutes": 120,
    "rating": 4.0,
    "lat": 24.425514,
    "lon": 118.12515,
    "description": "电话: 0592-2089787 | 地址: 国办路与打渔巷交叉口东北100米 | 类别: 风景名胜;风景名胜相关;旅游景点",
    "city": "厦门"
  },
  {
    "name": "美华沙滩",
    "category": "sightseeing",
    "duration_minutes": 120,
    "rating": 4.0,
    "lat": 24.441632,
    "lon": 118.0628,
    "description": "地址: 晃岩路35-6号鼓浪屿风景名胜区(西南角) | 类别: 体育休闲服务;运动场馆;海滨浴场|风景名胜;风景名胜相关;旅游景点",
    "city": "厦门"
  },
  {
    "name": "梅海花台",
    "category": "outdoor",
    "duration_minutes": 120,
    "rating": 4.0,
    "lat": 24.445286,
    "lon": 118.134735,
    "description": "电话: 0592-5566522 | 地址: 东排山路与观音山路交叉口南360米 | 类别: 风景名胜;风景名胜;风景名胜",
    "city": "厦门"
  },
  {
    "name": "五缘湾湿地公园",
    "category": "outdoor",
    "duration_minutes": 120,
    "rating": 4.0,
    "lat": 24.516071,
    "lon": 118.178133,
    "description": "地址: 环岛干道 | 类别: 风景名胜;公园广场;公园",
    "city": "厦门"
  },
  {
    "name": "厦门市花三角梅园",
    "category": "sightseeing",
    "duration_minutes": 120,
    "rating": 4.0,
    "lat": 24.450356,
    "lon": 118.127963,
    "description": "地址: 东坪山公园内(西侧) | 类别: 风景名胜;风景名胜;风景名胜",
    "city": "厦门"
  },
  {
    "name": "沙坡尾创意港",
    "category": "sightseeing",
    "duration_minutes": 120,
    "rating": 4.0,
    "lat": 24.43795,
    "lon": 118.089036,
    "description": "地址: 大学路129号 | 类别: 购物服务;特色商业街;特色商业街",
    "city": "厦门"
  },
  {
    "name": "白鹭洲摄影广场",
    "category": "outdoor",
    "duration_minutes": 120,
    "rating": 4.0,
    "lat": 24.476528,
    "lon": 118.095346,
    "description": "地址: 白鹭洲东路59号(近汇英通瓷邑廊陶瓷艺术馆) | 类别: 风景名胜;公园广场;城市广场|生活服务;摄影冲印店;摄影冲印",
    "city": "厦门"
  },
  {
    "name": "江头公园",
    "category": "outdoor",
    "duration_minutes": 120,
    "rating": 4.0,
    "lat": 24.495592,
    "lon": 118.130057,
    "description": "电话: 0592-5503033 | 地址: 江头西路与屿浦路交汇处东边(近喜来登酒店) | 类别: 风景名胜;公园广场;公园",
    "city": "厦门"
  },
  {
    "name": "贝壳梦幻世界",
    "category": "sightseeing",
    "duration_minutes": 120,
    "rating": 4.0,
    "lat": 24.441232,
    "lon": 118.064019,
    "description": "电话: 0592-2066851 | 地址: 鼓声路5号鼓浪屿·贝壳博物馆 | 类别: 风景名胜;风景名胜相关;旅游景点",
    "city": "厦门"
  },
  {
    "name": "厦门市鼓浪屿风景名胜区-鼓浪屿沙滩",
    "category": "sightseeing",
    "duration_minutes": 120,
    "rating": 4.0,
    "lat": 24.441507,
    "lon": 118.063015,
    "description": "地址: 鹭江道15号 | 类别: 风景名胜;风景名胜;海滩",
    "city": "厦门"
  },
  {
    "name": "厦门园林植物园花卉园",
    "category": "outdoor",
    "duration_minutes": 120,
    "rating": 4.0,
    "lat": 24.453197,
    "lon": 118.109989,
    "description": "电话: 0592-2985935 | 地址: 虎园路25号厦门园林植物园内(北侧) | 类别: 风景名胜;公园广场;植物园",
    "city": "厦门"
  },
  {
    "name": "日光岩顶峰",
    "category": "sightseeing",
    "duration_minutes": 120,
    "rating": 4.0,
    "lat": 24.441951,
    "lon": 118.067134,
    "description": "电话: 0592-2067284 | 地址: 晃岩路62号日光岩内(东侧) | 类别: 风景名胜;风景名胜相关;旅游景点",
    "city": "厦门"
  },
  {
    "name": "厦门金榜山紫竹林寺",
    "category": "history",
    "duration_minutes": 120,
    "rating": 4.0,
    "lat": 24.462745,
    "lon": 118.11625,
    "description": "电话: 0592-5851509 | 地址: 金榜公园内(东侧) | 类别: 风景名胜;风景名胜;寺庙道观",
    "city": "厦门"
  },
  {
    "name": "蔡尖尾山天语舟气象公园",
    "category": "outdoor",
    "duration_minutes": 120,
    "rating": 4.0,
    "lat": 24.504074,
    "lon": 118.009331,
    "description": "地址: 蔡尖尾山 | 类别: 风景名胜;公园广场;公园",
    "city": "厦门"
  },
  {
    "name": "龙舟池",
    "category": "sightseeing",
    "duration_minutes": 120,
    "rating": 4.0,
    "lat": 24.565308,
    "lon": 118.098178,
    "description": "地址: 集美街道鳌园路19号 | 类别: 风景名胜;风景名胜;风景名胜",
    "city": "厦门"
  },
  {
    "name": "嘉庚公园",
    "category": "outdoor",
    "duration_minutes": 120,
    "rating": 4.0,
    "lat": 24.566135,
    "lon": 118.106322,
    "description": "电话: 0592-6064884;0592-6687362;12301 | 地址: 鳌园路24号 | 类别: 风景名胜;公园广场;公园",
    "city": "厦门"
  },
  {
    "name": "厦门山海健康步道林海线7号入口-天泉步道广场",
    "category": "outdoor",
    "duration_minutes": 120,
    "rating": 4.0,
    "lat": 24.424275,
    "lon": 118.131407,
    "description": "地址: 环岛南路辅路与天泉路交叉口东60米 | 类别: 风景名胜;公园广场;公园广场",
    "city": "厦门"
  },
  {
    "name": "观音山",
    "category": "outdoor",
    "duration_minutes": 120,
    "rating": 4.0,
    "lat": 24.494034,
    "lon": 118.199742,
    "description": "电话: 0592-5888863;13400692660;4008807677 | 地址: 环岛东路商业街17号 | 类别: 风景名胜;风景名胜相关;旅游景点",
    "city": "厦门"
  },
  {
    "name": "白鹿洞寺",
    "category": "history",
    "duration_minutes": 120,
    "rating": 4.0,
    "lat": 24.449775,
    "lon": 118.090585,
    "description": "电话: 0592-2131499 | 地址: 白鹿路5号之1号 | 类别: 风景名胜;风景名胜;寺庙道观",
    "city": "厦门"
  },
  {
    "name": "白鹭女神雕像",
    "category": "outdoor",
    "duration_minutes": 120,
    "rating": 4.0,
    "lat": 24.473146,
    "lon": 118.093592,
    "description": "地址: 白鹭洲路150号白鹭洲公园内 | 类别: 风景名胜;公园广场;城市广场",
    "city": "厦门"
  },
  {
    "name": "厦门市朝天宫",
    "category": "history",
    "duration_minutes": 120,
    "rating": 4.0,
    "lat": 24.458881,
    "lon": 118.084486,
    "description": "地址: 鹭江街道故宫路62-64号 | 类别: 风景名胜;风景名胜;寺庙道观",
    "city": "厦门"
  },
  {
    "name": "健康步道林海线万石苍海",
    "category": "outdoor",
    "duration_minutes": 120,
    "rating": 4.0,
    "lat": 24.438401,
    "lon": 118.131829,
    "description": "地址: 龙虎北路41号 | 类别: 风景名胜;风景名胜相关;旅游景点",
    "city": "厦门"
  },
  {
    "name": "石室禅院",
    "category": "history",
    "duration_minutes": 120,
    "rating": 4.0,
    "lat": 24.515358,
    "lon": 118.022315,
    "description": "电话: 0592-5817737 | 地址: 新阳街道兴旺社区阳顺路8号 | 类别: 风景名胜;风景名胜;寺庙道观",
    "city": "厦门"
  },
  {
    "name": "未来城市都市乐园",
    "category": "sightseeing",
    "duration_minutes": 120,
    "rating": 4.0,
    "lat": 24.497219,
    "lon": 118.127337,
    "description": "电话: 0592-2063882 | 地址: 嘉禾路392-104号 | 类别: 体育休闲服务;休闲场所;游乐场",
    "city": "厦门"
  },
  {
    "name": "厦门海上世界·雪亦世界",
    "category": "outdoor",
    "duration_minutes": 120,
    "rating": 4.0,
    "lat": 24.493178,
    "lon": 118.076838,
    "description": "电话: 0592-5039599 | 地址: 远航路77号厦门海上世界购物中心3楼 | 类别: 风景名胜;风景名胜相关;旅游景点",
    "city": "厦门"
  },
  {
    "name": "望湖塔",
    "category": "outdoor",
    "duration_minutes": 120,
    "rating": 4.0,
    "lat": 24.438923,
    "lon": 118.1331,
    "description": "类别: 风景名胜;风景名胜;风景名胜",
    "city": "厦门"
  },
  {
    "name": "中鱼视界海洋王国(厦门海上世界购物中心店)(暂停营业)",
    "category": "outdoor",
    "duration_minutes": 120,
    "rating": 4.0,
    "lat": 24.490701,
    "lon": 118.076087,
    "description": "电话: 0592-5605906;0592-5605909 | 地址: 远航路77号厦门海上世界购物中心L1层 | 类别: 体育休闲服务;体育休闲服务场所;体育休闲服务场所",
    "city": "厦门"
  },
  {
    "name": "南普陀寺-大雄宝殿",
    "category": "history",
    "duration_minutes": 120,
    "rating": 4.0,
    "lat": 24.441057,
    "lon": 118.096969,
    "description": "电话: 0592-2087282 | 地址: 思明南路515号南普陀寺 | 类别: 风景名胜;风景名胜;寺庙道观",
    "city": "厦门"
  },
  {
    "name": "海上看金门",
    "category": "outdoor",
    "duration_minutes": 120,
    "rating": 4.0,
    "lat": 24.450307,
    "lon": 118.076865,
    "description": "电话: 0592-2040118 | 地址: 鹭江道3号和平码头215室之六号 | 类别: 风景名胜;风景名胜相关;旅游景点",
    "city": "厦门"
  },
  {
    "name": "玩月坡",
    "category": "sightseeing",
    "duration_minutes": 120,
    "rating": 4.0,
    "lat": 24.437404,
    "lon": 118.15387,
    "description": "地址: 环岛南路2696号 | 类别: 风景名胜;风景名胜;风景名胜",
    "city": "厦门"
  },
  {
    "name": "荻花洲",
    "category": "sightseeing",
    "duration_minutes": 120,
    "rating": 4.0,
    "lat": 24.557821,
    "lon": 118.201712,
    "description": "地址: 鸿江道998号厦门奥林匹克体育中心南620米处 | 类别: 风景名胜;风景名胜;风景名胜",
    "city": "厦门"
  },
  {
    "name": "椰风寨沙滩",
    "category": "sightseeing",
    "duration_minutes": 120,
    "rating": 4.0,
    "lat": 24.447435,
    "lon": 118.169867,
    "description": "地址: 环岛南路 | 类别: 风景名胜;风景名胜;海滩",
    "city": "厦门"
  },
  {
    "name": "厦门市花三角梅园-梅海岭",
    "category": "outdoor",
    "duration_minutes": 120,
    "rating": 4.0,
    "lat": 24.448433,
    "lon": 118.128082,
    "description": "地址: 龙虎北路与文屏路交叉口东400米 | 类别: 风景名胜;风景名胜相关;旅游景点",
    "city": "厦门"
  },
  {
    "name": "霞阳大榕树",
    "category": "sightseeing",
    "duration_minutes": 120,
    "rating": 4.0,
    "lat": 24.532209,
    "lon": 118.019405,
    "description": "地址: 新阳街道霞阳村中路1号 | 类别: 风景名胜;风景名胜;风景名胜",
    "city": "厦门"
  },
  {
    "name": "马銮湾环湾带状公园",
    "category": "outdoor",
    "duration_minutes": 120,
    "rating": 4.0,
    "lat": 24.537242,
    "lon": 118.022565,
    "description": "地址: 杏滨街道新阳大道与霞光北路交叉口西北角 | 类别: 风景名胜;公园广场;公园",
    "city": "厦门"
  },
  {
    "name": "三角梅园",
    "category": "sightseeing",
    "duration_minutes": 120,
    "rating": 4.0,
    "lat": 24.45413,
    "lon": 118.111622,
    "description": "地址: 国家三角梅种质资源库北侧 | 类别: 风景名胜;风景名胜;风景名胜",
    "city": "厦门"
  },
  {
    "name": "彩虹沙滩",
    "category": "sightseeing",
    "duration_minutes": 120,
    "rating": 4.0,
    "lat": 24.627821,
    "lon": 118.150455,
    "description": "类别: 风景名胜;风景名胜;风景名胜",
    "city": "厦门"
  },
  {
    "name": "基督教寨上堂",
    "category": "sightseeing",
    "duration_minutes": 120,
    "rating": 4.0,
    "lat": 24.524041,
    "lon": 118.103267,
    "description": "电话: 0592-5626686 | 地址: 寨上村2089号 | 类别: 风景名胜;风景名胜;教堂",
    "city": "厦门"
  },
  {
    "name": "滨海漫步道",
    "category": "outdoor",
    "duration_minutes": 120,
    "rating": 4.0,
    "lat": 24.473141,
    "lon": 118.074765,
    "description": "地址: 西堤东路49号海湾公园内(西侧) | 类别: 风景名胜;风景名胜相关;旅游景点",
    "city": "厦门"
  },
  {
    "name": "青礁慈济祖宫",
    "category": "history",
    "duration_minutes": 120,
    "rating": 4.0,
    "lat": 24.485867,
    "lon": 117.973162,
    "description": "电话: 0592-6881818 | 地址: 海沧台商投资区马青路青礁村岐山东鸣岭 | 类别: 风景名胜;风景名胜;寺庙道观",
    "city": "厦门"
  },
  {
    "name": "厦门观光巴士",
    "category": "sightseeing",
    "duration_minutes": 120,
    "rating": 4.0,
    "lat": 24.48544,
    "lon": 118.075156,
    "description": "电话: 0592-2201135 | 地址: 湖里街道东港路(邮轮中心地铁站2号口步行220米) | 类别: 风景名胜;风景名胜相关;旅游景点",
    "city": "厦门"
  },
  {
    "name": "海天堂构",
    "category": "outdoor",
    "duration_minutes": 120,
    "rating": 4.0,
    "lat": 24.442833,
    "lon": 118.072797,
    "description": "电话: 0592-2570510 | 地址: 福建路38号(英国领事馆后面) | 类别: 风景名胜;风景名胜相关;旅游景点",
    "city": "厦门"
  },
  {
    "name": "奈尔宝家庭中心(厦门海上世界店)",
    "category": "outdoor",
    "duration_minutes": 120,
    "rating": 4.0,
    "lat": 24.491753,
    "lon": 118.076666,
    "description": "电话: 4008169988 | 地址: 远航路77号厦门海上世界L124-L125 | 类别: 体育休闲服务;体育休闲服务场所;体育休闲服务场所",
    "city": "厦门"
  },
  {
    "name": "厦门市鼓浪屿风景名胜区-印斗石",
    "category": "sightseeing",
    "duration_minutes": 120,
    "rating": 4.0,
    "lat": 24.438496,
    "lon": 118.074101,
    "description": "地址: 观海路 | 类别: 风景名胜;风景名胜相关;旅游景点",
    "city": "厦门"
  },
  {
    "name": "磨心山",
    "category": "outdoor",
    "duration_minutes": 120,
    "rating": 4.0,
    "lat": 24.467429,
    "lon": 118.16192,
    "description": "地址: 文兴西路与前埔西路交叉口西南500米 | 类别: 风景名胜;风景名胜相关;旅游景点",
    "city": "厦门"
  },
  {
    "name": "金鸡百花·星光海岸",
    "category": "outdoor",
    "duration_minutes": 120,
    "rating": 4.0,
    "lat": 24.432394,
    "lon": 118.089239,
    "description": "地址: 大学路174-之13号 | 类别: 风景名胜;风景名胜;风景名胜",
    "city": "厦门"
  },
  {
    "name": "厦门园林植物园-五老峰",
    "category": "sightseeing",
    "duration_minutes": 120,
    "rating": 4.0,
    "lat": 24.446184,
    "lon": 118.098056,
    "description": "电话: 0592-2101220 | 地址: 开元街道思明南路南普陀寺后 | 类别: 风景名胜;风景名胜;风景名胜",
    "city": "厦门"
  },
  {
    "name": "石峰岩寺",
    "category": "history",
    "duration_minutes": 120,
    "rating": 4.0,
    "lat": 24.50607,
    "lon": 118.018964,
    "description": "地址: 石峰岩路88号 | 类别: 风景名胜;风景名胜;寺庙道观",
    "city": "厦门"
  },
  {
    "name": "穆厝大榕树",
    "category": "sightseeing",
    "duration_minutes": 120,
    "rating": 4.0,
    "lat": 24.507912,
    "lon": 118.159598,
    "description": "地址: 穆厝社11号 | 类别: 风景名胜;风景名胜相关;旅游景点",
    "city": "厦门"
  },
  {
    "name": "五缘湾沙滩",
    "category": "sightseeing",
    "duration_minutes": 120,
    "rating": 4.0,
    "lat": 24.529622,
    "lon": 118.171013,
    "description": "地址: 商业区环岛干道 | 类别: 风景名胜;风景名胜;海滩",
    "city": "厦门"
  },
  {
    "name": "美峰体育公园",
    "category": "outdoor",
    "duration_minutes": 120,
    "rating": 4.0,
    "lat": 24.612169,
    "lon": 118.141531,
    "description": "地址: 滨海西大道东200米美峰公园附近 | 类别: 风景名胜;风景名胜;风景名胜",
    "city": "厦门"
  },
  {
    "name": "厦门大学思明校区思源谷",
    "category": "sightseeing",
    "duration_minutes": 120,
    "rating": 4.0,
    "lat": 24.437619,
    "lon": 118.103938,
    "description": "地址: 思明南路422号厦门大学 | 类别: 风景名胜;风景名胜;风景名胜",
    "city": "厦门"
  },
  {
    "name": "陈嘉庚先生故居",
    "category": "history",
    "duration_minutes": 120,
    "rating": 4.0,
    "lat": 24.567937,
    "lon": 118.102132,
    "description": "电话: 0592-6681022;0592-6685986 | 地址: 嘉庚路149号 | 类别: 风景名胜;风景名胜;纪念馆",
    "city": "厦门"
  },
  {
    "name": "诚毅科技探索中心",
    "category": "sightseeing",
    "duration_minutes": 120,
    "rating": 4.0,
    "lat": 24.593259,
    "lon": 118.057476,
    "description": "电话: 0592-6819015 | 地址: 杏林湾路339号(官任地铁站3号口旁) | 类别: 科教文化服务;科技馆;科技馆",
    "city": "厦门"
  },
  {
    "name": "陈嘉庚纪念馆",
    "category": "museum",
    "duration_minutes": 120,
    "rating": 4.0,
    "lat": 24.570032,
    "lon": 118.107385,
    "description": "电话: 0592-6064884;0592-6688513 | 地址: 集美街道鳌园路24号集美鳌园景区(东北角) | 类别: 风景名胜;风景名胜;红色景区",
    "city": "厦门"
  },
  {
    "name": "观彩石",
    "category": "sightseeing",
    "duration_minutes": 120,
    "rating": 4.0,
    "lat": 24.447643,
    "lon": 118.065425,
    "description": "地址: 晃岩路35-6号鼓浪屿风景名胜区(西北角) | 类别: 风景名胜;风景名胜;风景名胜",
    "city": "厦门"
  },
  {
    "name": "霞梧广场",
    "category": "outdoor",
    "duration_minutes": 120,
    "rating": 4.0,
    "lat": 24.594374,
    "lon": 118.104899,
    "description": "地址: 天安路与霞梧路交叉口 | 类别: 风景名胜;公园广场;城市广场",
    "city": "厦门"
  },
  {
    "name": "环岛路海滩",
    "category": "outdoor",
    "duration_minutes": 120,
    "rating": 4.0,
    "lat": 24.505883,
    "lon": 118.199102,
    "description": "地址: 金山街道环岛路沿线海滩 | 类别: 风景名胜;风景名胜;海滩",
    "city": "厦门"
  },
  {
    "name": "笔山洞",
    "category": "outdoor",
    "duration_minutes": 120,
    "rating": 4.0,
    "lat": 24.444629,
    "lon": 118.066718,
    "description": "地址: 晃岩路35-6号鼓浪屿风景名胜区 | 类别: 风景名胜;风景名胜相关;旅游景点",
    "city": "厦门"
  },
  {
    "name": "厦门市鼓浪屿风景名胜区-日光岩寺",
    "category": "history",
    "duration_minutes": 120,
    "rating": 4.0,
    "lat": 24.44227,
    "lon": 118.06847,
    "description": "电话: 0592-2064097 | 地址: 鼓浪屿街道晃岩路62-64号 | 类别: 风景名胜;风景名胜;寺庙道观",
    "city": "厦门"
  },
  {
    "name": "国贸凤凰园",
    "category": "outdoor",
    "duration_minutes": 120,
    "rating": 4.0,
    "lat": 24.457323,
    "lon": 118.094285,
    "description": "地址: 虎园路16号东北方向100米 | 类别: 风景名胜;公园广场;公园",
    "city": "厦门"
  },
  {
    "name": "薛岭山公园",
    "category": "outdoor",
    "duration_minutes": 120,
    "rating": 4.0,
    "lat": 24.5055,
    "lon": 118.145927,
    "description": "地址: 建材MALL商圈祥岭路178号 | 类别: 风景名胜;公园广场;公园",
    "city": "厦门"
  },
  {
    "name": "绘梦地球自然艺术博物馆",
    "category": "museum",
    "duration_minutes": 120,
    "rating": 4.0,
    "lat": 24.486394,
    "lon": 118.095918,
    "description": "地址: 七星西路3号B141室 | 类别: 科教文化服务;博物馆;博物馆",
    "city": "厦门"
  },
  {
    "name": "灵玲动物王国",
    "category": "outdoor",
    "duration_minutes": 120,
    "rating": 4.0,
    "lat": 24.589172,
    "lon": 118.049994,
    "description": "电话: 0592-3753999 | 地址: 杏林杏锦路366号 | 类别: 风景名胜;公园广场;动物园",
    "city": "厦门"
  },
  {
    "name": "仙岳山观音寺悠然园",
    "category": "outdoor",
    "duration_minutes": 120,
    "rating": 4.0,
    "lat": 24.504148,
    "lon": 118.123304,
    "description": "电话: 0592-5101176 | 地址: 观音寺 | 类别: 风景名胜;风景名胜相关;旅游景点",
    "city": "厦门"
  },
  {
    "name": "葛优躺",
    "category": "sightseeing",
    "duration_minutes": 120,
    "rating": 4.0,
    "lat": 24.459465,
    "lon": 118.086575,
    "description": "地址: 幸福吉意店内 | 类别: 风景名胜;风景名胜;风景名胜",
    "city": "厦门"
  },
  {
    "name": "清真寺",
    "category": "sightseeing",
    "duration_minutes": 120,
    "rating": 4.0,
    "lat": 24.456512,
    "lon": 118.087436,
    "description": "电话: 0592-2028617 | 地址: 公园南路27号 | 类别: 风景名胜;风景名胜;回教寺",
    "city": "厦门"
  },
  {
    "name": "云顶岩寺",
    "category": "history",
    "duration_minutes": 120,
    "rating": 4.0,
    "lat": 24.464027,
    "lon": 118.148253,
    "description": "电话: 0592-2081038 | 地址: 云顶岩路1号 | 类别: 风景名胜;风景名胜;寺庙道观",
    "city": "厦门"
  },
  {
    "name": "筼筜雅游",
    "category": "sightseeing",
    "duration_minutes": 120,
    "rating": 4.0,
    "lat": 24.473681,
    "lon": 118.094964,
    "description": "电话: 0592-5319393 | 地址: 白鹭洲公园天天渔港旁 | 类别: 风景名胜;风景名胜相关;旅游景点",
    "city": "厦门"
  },
  {
    "name": "厦门大学思明校区陈嘉庚纪念像",
    "category": "sightseeing",
    "duration_minutes": 120,
    "rating": 4.0,
    "lat": 24.436452,
    "lon": 118.095219,
    "description": "地址: 思明南路422号厦门大学内 | 类别: 风景名胜;风景名胜;风景名胜",
    "city": "厦门"
  },
  {
    "name": "大社戏台广场",
    "category": "sightseeing",
    "duration_minutes": 120,
    "rating": 4.0,
    "lat": 24.568447,
    "lon": 118.103773,
    "description": "地址: 大社路81号 | 类别: 风景名胜;风景名胜相关;旅游景点",
    "city": "厦门"
  },
  {
    "name": "香港回归祖国纪念碑",
    "category": "history",
    "duration_minutes": 120,
    "rating": 4.0,
    "lat": 24.475981,
    "lon": 118.077023,
    "description": "电话: 0592-5907909 | 地址: 西堤东路49号海湾公园内(北侧) | 类别: 风景名胜;风景名胜;纪念馆",
    "city": "厦门"
  },
  {
    "name": "日本领事馆2号楼",
    "category": "sightseeing",
    "duration_minutes": 120,
    "rating": 4.0,
    "lat": 24.444322,
    "lon": 118.072803,
    "description": "地址: 鼓浪屿街道晃岩路35-6号鼓浪屿风景名胜区内(东侧) | 类别: 风景名胜;风景名胜;风景名胜",
    "city": "厦门"
  },
  {
    "name": "筼筜湖潮汐广场",
    "category": "outdoor",
    "duration_minutes": 120,
    "rating": 4.0,
    "lat": 24.477099,
    "lon": 118.07952,
    "description": "地址: 筼筜路与湖滨北路交叉口南60米 | 类别: 风景名胜;公园广场;城市广场",
    "city": "厦门"
  },
  {
    "name": "虎溪岩",
    "category": "sightseeing",
    "duration_minutes": 120,
    "rating": 4.0,
    "lat": 24.449715,
    "lon": 118.091434,
    "description": "电话: 0592-2021732;0592-2121799 | 地址: 虎园路5号 | 类别: 风景名胜;风景名胜;风景名胜",
    "city": "厦门"
  },
  {
    "name": "钟山水美宫",
    "category": "outdoor",
    "duration_minutes": 120,
    "rating": 4.0,
    "lat": 24.488116,
    "lon": 118.030674,
    "description": "地址: 钟林路6号(海沧行政中心地铁站2号口步行220米) | 类别: 风景名胜;风景名胜相关;旅游景点",
    "city": "厦门"
  },
  {
    "name": "厦门海堤纪念公园",
    "category": "outdoor",
    "duration_minutes": 120,
    "rating": 4.0,
    "lat": 24.549849,
    "lon": 118.10867,
    "description": "电话: 0592-2654114 | 地址: 厦门大桥桥下 | 类别: 风景名胜;公园广场;公园",
    "city": "厦门"
  },
  {
    "name": "黄厝海滩妈祖铜像",
    "category": "outdoor",
    "duration_minutes": 120,
    "rating": 4.0,
    "lat": 24.453484,
    "lon": 118.176862,
    "description": "地址: 前埔南路63号 | 类别: 风景名胜;风景名胜;风景名胜",
    "city": "厦门"
  },
  {
    "name": "天竺山森林公园",
    "category": "outdoor",
    "duration_minutes": 120,
    "rating": 4.0,
    "lat": 24.59997,
    "lon": 117.917177,
    "description": "电话: 0592-6311965 | 地址: 东孚镇洪塘村天竺山路1号 | 类别: 风景名胜;风景名胜;国家级景点",
    "city": "厦门"
  },
  {
    "name": "观音山巨鹏飞梦幻海岸",
    "category": "outdoor",
    "duration_minutes": 120,
    "rating": 4.0,
    "lat": 24.497705,
    "lon": 118.198769,
    "description": "电话: 0592-5888863;4008807677 | 地址: 环岛东路商业街17号 | 类别: 风景名胜;风景名胜;风景名胜",
    "city": "厦门"
  },
  {
    "name": "1955铁路公园",
    "category": "outdoor",
    "duration_minutes": 120,
    "rating": 4.0,
    "lat": 24.462484,
    "lon": 118.108456,
    "description": "地址: 文屏路与文屏西路交叉口东北20米 | 类别: 风景名胜;公园广场;公园",
    "city": "厦门"
  },
  {
    "name": "灵玲马戏城",
    "category": "sightseeing",
    "duration_minutes": 120,
    "rating": 4.0,
    "lat": 24.588633,
    "lon": 118.051956,
    "description": "电话: 0592-3753999 | 地址: 杏林杏锦路366号 | 类别: 体育休闲服务;影剧院;剧场",
    "city": "厦门"
  },
  {
    "name": "侨批文化广场",
    "category": "outdoor",
    "duration_minutes": 120,
    "rating": 4.0,
    "lat": 24.45305,
    "lon": 118.07493,
    "description": "地址: 鹭江海滨大厦西(中山路步行街) | 类别: 风景名胜;公园广场;城市广场",
    "city": "厦门"
  },
  {
    "name": "厦门书法广场(龙虎山路)",
    "category": "outdoor",
    "duration_minutes": 120,
    "rating": 4.0,
    "lat": 24.427656,
    "lon": 118.118929,
    "description": "地址: 环岛南路与龙虎山路交汇处 | 类别: 风景名胜;公园广场;公园广场",
    "city": "厦门"
  },
  {
    "name": "林巧稚纪念馆",
    "category": "history",
    "duration_minutes": 120,
    "rating": 4.0,
    "lat": 24.440563,
    "lon": 118.073282,
    "description": "电话: 0592-2061228 | 地址: 福建路(近毓园) | 类别: 风景名胜;风景名胜;纪念馆",
    "city": "厦门"
  },
  {
    "name": "郑成功青铜群雕",
    "category": "sightseeing",
    "duration_minutes": 120,
    "rating": 4.0,
    "lat": 24.44161,
    "lon": 118.075689,
    "description": "电话: 0592-2067530 | 地址: 漳州路3号皓月园 | 类别: 风景名胜;风景名胜相关;旅游景点",
    "city": "厦门"
  },
  {
    "name": "狐尾山公园-和美园",
    "category": "outdoor",
    "duration_minutes": 120,
    "rating": 4.0,
    "lat": 24.489158,
    "lon": 118.091957,
    "description": "地址: 狐尾山公园(东北角) | 类别: 风景名胜;风景名胜相关;旅游景点",
    "city": "厦门"
  },
  {
    "name": "和熙楼",
    "category": "sightseeing",
    "duration_minutes": 120,
    "rating": 4.0,
    "lat": 24.481112,
    "lon": 118.079165,
    "description": "地址: 东渡路38-40号 | 类别: 风景名胜;风景名胜;风景名胜",
    "city": "厦门"
  },
  {
    "name": "海峡明珠广场",
    "category": "outdoor",
    "duration_minutes": 120,
    "rating": 4.0,
    "lat": 24.495351,
    "lon": 118.195682,
    "description": "电话: 0592-8366888 | 地址: 宜兰路99号(观音山地铁站4号口步行440米) | 类别: 商务住宅;楼宇;商务写字楼",
    "city": "厦门"
  },
  {
    "name": "厦门市鼓浪屿风景名胜区-皓月雄风",
    "category": "sightseeing",
    "duration_minutes": 120,
    "rating": 4.0,
    "lat": 24.442075,
    "lon": 118.075668,
    "description": "地址: 漳州路3号皓月园 | 类别: 风景名胜;风景名胜相关;旅游景点",
    "city": "厦门"
  },
  {
    "name": "观音山沙滩",
    "category": "outdoor",
    "duration_minutes": 120,
    "rating": 4.0,
    "lat": 24.493697,
    "lon": 118.199506,
    "description": "电话: 0592-5888863 | 地址: 环岛东路商业街17号观音山 | 类别: 风景名胜;风景名胜;海滩",
    "city": "厦门"
  },
  {
    "name": "太清宫",
    "category": "history",
    "duration_minutes": 120,
    "rating": 4.0,
    "lat": 24.425032,
    "lon": 118.132089,
    "description": "电话: 0592-2092459 | 地址: 天泉路1号 | 类别: 风景名胜;风景名胜;寺庙道观",
    "city": "厦门"
  },
  {
    "name": "三官道院",
    "category": "history",
    "duration_minutes": 120,
    "rating": 4.0,
    "lat": 24.440734,
    "lon": 118.133946,
    "description": "地址: 龙虎北路41号 | 类别: 风景名胜;风景名胜;寺庙道观",
    "city": "厦门"
  },
  {
    "name": "磁安路天主堂",
    "category": "sightseeing",
    "duration_minutes": 120,
    "rating": 4.0,
    "lat": 24.459114,
    "lon": 118.073496,
    "description": "地址: 鹭江道178号 | 类别: 风景名胜;风景名胜;教堂",
    "city": "厦门"
  },
  {
    "name": "东坪土地庙",
    "category": "history",
    "duration_minutes": 120,
    "rating": 4.0,
    "lat": 24.453969,
    "lon": 118.121615,
    "description": "地址: 东坪山半岭宫东侧170米 | 类别: 风景名胜;风景名胜;寺庙道观",
    "city": "厦门"
  },
  {
    "name": "三一堂",
    "category": "sightseeing",
    "duration_minutes": 120,
    "rating": 4.0,
    "lat": 24.444392,
    "lon": 118.067132,
    "description": "电话: 0592-2060648 | 地址: 鼓浪屿街道鼓浪屿安海路67号 | 类别: 风景名胜;风景名胜;教堂",
    "city": "厦门"
  },
  {
    "name": "厦门老院子景区",
    "category": "sightseeing",
    "duration_minutes": 120,
    "rating": 4.0,
    "lat": 24.623793,
    "lon": 118.075184,
    "description": "电话: 0592-6661072;0592-6661070 | 地址: 后溪镇华夏路9号 | 类别: 风景名胜;风景名胜;国家级景点",
    "city": "厦门"
  },
  {
    "name": "八角楼",
    "category": "sightseeing",
    "duration_minutes": 120,
    "rating": 4.0,
    "lat": 24.443814,
    "lon": 118.074006,
    "description": "地址: 鼓浪屿街道金丰南大街大板城第一幢第一层103-107号房鼓浪屿内 | 类别: 风景名胜;风景名胜相关;旅游景点",
    "city": "厦门"
  }
]