[
  {
    "name": "三坊七巷",
    "category": "sightseeing",
    "duration_minutes": 120,
    "rating": 4.0,
    "lat": 26.081958,
    "lon": 119.296623,
    "description": "电话: 0591-83890057;0591-87675791 | 地址: 文儒坊6号 | 类别: 风景名胜;风景名胜;国家级景点",
    "city": "福州"
  },
  {
    "name": "林则徐纪念馆",
    "category": "history",
    "duration_minutes": 120,
    "rating": 4.0,
    "lat": 26.078369,
    "lon": 119.297274,
    "description": "电话: 0591-87622782;0591-87568854 | 地址: 澳门路16号(南门兜地铁站L口步行420米) | 类别: 风景名胜;风景名胜;纪念馆",
    "city": "福州"
  },
  {
    "name": "五一广场",
    "category": "outdoor",
    "duration_minutes": 120,
    "rating": 4.0,
    "lat": 26.075206,
    "lon": 119.308234,
    "description": "电话: 0591-83335930 | 地址: 古田路32号 | 类别: 风景名胜;公园广场;城市广场",
    "city": "福州"
  },
  {
    "name": "西湖公园",
    "category": "outdoor",
    "duration_minutes": 120,
    "rating": 4.0,
    "lat": 26.092037,
    "lon": 119.289152,
    "description": "电话: 0591-83783655;0591-83783767 | 地址: 湖滨路70号(西门地铁站B口步行533米) | 类别: 风景名胜;公园广场;公园",
    "city": "福州"
  },
  {
    "name": "上下杭历史文化街区",
    "category": "sightseeing",
    "duration_minutes": 120,
    "rating": 4.0,
    "lat": 26.052103,
    "lon": 119.304687,
    "description": "电话: 0591-83219581 | 地址: 星河巷星安桥路82号 | 类别: 风景名胜;风景名胜相关;旅游景点",
    "city": "福州"
  },
  {
    "name": "西禅古寺",
    "category": "history",
    "duration_minutes": 120,
    "rating": 4.0,
    "lat": 26.071711,
    "lon": 119.276006,
    "description": "地址: 洪山镇工业路455号 | 类别: 风景名胜;风景名胜;寺庙道观",
    "city": "福州"
  },
  {
    "name": "爱心树",
    "category": "sightseeing",
    "duration_minutes": 120,
    "rating": 4.0,
    "lat": 26.081504,
    "lon": 119.297034,
    "description": "电话: 0591-83890057 | 地址: 三坊七巷南后街 | 类别: 风景名胜;风景名胜;风景名胜",
    "city": "福州"
  },
  {
    "name": "福建博物院",
    "category": "museum",
    "duration_minutes": 120,
    "rating": 4.0,
    "lat": 26.094102,
    "lon": 119.287602,
    "description": "电话: 0591-83757627 | 地址: 湖头街96号(近西湖公园) | 类别: 科教文化服务;博物馆;博物馆",
    "city": "福州"
  },
  {
    "name": "勺园里文创园",
    "category": "sightseeing",
    "duration_minutes": 120,
    "rating": 4.0,
    "lat": 26.081995,
    "lon": 119.289361,
    "description": "地址: 勺园里47号弄与学园支路交叉口东40米 | 类别: 商务住宅;产业园区;产业园区",
    "city": "福州"
  },
  {
    "name": "福道",
    "category": "sightseeing",
    "duration_minutes": 120,
    "rating": 4.0,
    "lat": 26.086488,
    "lon": 119.266264,
    "description": "电话: 0591-83768730 | 地址: 洪山镇西环北路110号附近 | 类别: 风景名胜;风景名胜相关;旅游景点",
    "city": "福州"
  },
  {
    "name": "乌山历史风貌区",
    "category": "outdoor",
    "duration_minutes": 120,
    "rating": 4.0,
    "lat": 26.075023,
    "lon": 119.295288,
    "description": "电话: 0591-83371493 | 地址: 道山路251号 | 类别: 风景名胜;风景名胜;风景名胜",
    "city": "福州"
  },
  {
    "name": "于山风景名胜公园",
    "category": "outdoor",
    "duration_minutes": 120,
    "rating": 4.0,
    "lat": 26.07803,
    "lon": 119.307678,
    "description": "电话: 0591-83355720;0591-83306464 | 地址: 法海路23-1号(南门兜地铁站M口步行30米) | 类别: 风景名胜;风景名胜;国家级景点",
    "city": "福州"
  },
  {
    "name": "烟台山公园",
    "category": "outdoor",
    "duration_minutes": 120,
    "rating": 4.0,
    "lat": 26.044964,
    "lon": 119.315527,
    "description": "地址: 仓前街道梅坞路14号 | 类别: 风景名胜;公园广场;公园",
    "city": "福州"
  },
  {
    "name": "闽江公园",
    "category": "outdoor",
    "duration_minutes": 120,
    "rating": 4.0,
    "lat": 26.06083,
    "lon": 119.266563,
    "description": "电话: 0591-83895376;0591-87939350 | 地址: 江滨大道1号 | 类别: 风景名胜;公园广场;公园",
    "city": "福州"
  },
  {
    "name": "黎明湖公园",
    "category": "outdoor",
    "duration_minutes": 120,
    "rating": 4.0,
    "lat": 26.072626,
    "lon": 119.296473,
    "description": "地址: 乌山路福州市委旁边(黎明戴斯大酒店) | 类别: 风景名胜;公园广场;公园",
    "city": "福州"
  },
  {
    "name": "南后街",
    "category": "sightseeing",
    "duration_minutes": 120,
    "rating": 4.0,
    "lat": 26.085484,
    "lon": 119.296196,
    "description": "地址: 南街街道杨桥东路19号 | 类别: 购物服务;特色商业街;特色商业街",
    "city": "福州"
  },
  {
    "name": "茶亭公园",
    "category": "outdoor",
    "duration_minutes": 120,
    "rating": 4.0,
    "lat": 26.066519,
    "lon": 119.306451,
    "description": "电话: 0591-83346996;0591-83356658 | 地址: 广达路166号(茶亭地铁站D东南口步行340米) | 类别: 风景名胜;公园广场;公园",
    "city": "福州"
  },
  {
    "name": "乌山历史风貌区-沈葆桢祠堂",
    "category": "outdoor",
    "duration_minutes": 120,
    "rating": 4.0,
    "lat": 26.074975,
    "lon": 119.29649,
    "description": "电话: 0591-83371493 | 地址: 乌山路与加洋路交叉口西北150米 | 类别: 风景名胜;风景名胜相关;旅游景点",
    "city": "福州"
  },
  {
    "name": "福州开元寺",
    "category": "history",
    "duration_minutes": 120,
    "rating": 4.0,
    "lat": 26.090904,
    "lon": 119.301719,
    "description": "电话: 0591-87502204;0591-87532879 | 地址: 开元路78号开元寺内平房 | 类别: 风景名胜;风景名胜;寺庙道观",
    "city": "福州"
  },
  {
    "name": "温泉公园",
    "category": "outdoor",
    "duration_minutes": 120,
    "rating": 4.0,
    "lat": 26.097265,
    "lon": 119.312317,
    "description": "地址: 温泉公园路8号 | 类别: 风景名胜;公园广场;公园",
    "city": "福州"
  },
  {
    "name": "三通桥",
    "category": "history",
    "duration_minutes": 120,
    "rating": 4.0,
    "lat": 26.053077,
    "lon": 119.307691,
    "description": "电话: 0591-83219581 | 地址: 苍霞街道中亭街三通路嘉同便利店 | 类别: 风景名胜;风景名胜相关;旅游景点",
    "city": "福州"
  },
  {
    "name": "福州文庙",
    "category": "history",
    "duration_minutes": 120,
    "rating": 4.0,
    "lat": 26.078406,
    "lon": 119.301956,
    "description": "电话: 0591-83378436 | 地址: 安泰街道圣庙路10号 | 类别: 风景名胜;风景名胜;寺庙道观",
    "city": "福州"
  },
  {
    "name": "晋安湖公园",
    "category": "outdoor",
    "duration_minutes": 120,
    "rating": 4.0,
    "lat": 26.085159,
    "lon": 119.344266,
    "description": "地址: 化工路43号(横屿地铁站C口步行378米) | 类别: 风景名胜;公园广场;公园",
    "city": "福州"
  },
  {
    "name": "爱情岛",
    "category": "sightseeing",
    "duration_minutes": 120,
    "rating": 4.0,
    "lat": 26.043627,
    "lon": 119.302936,
    "description": "地址: 上渡街道三县洲大桥桥下 | 类别: 风景名胜;风景名胜;风景名胜",
    "city": "福州"
  },
  {
    "name": "金鸡山公园",
    "category": "outdoor",
    "duration_minutes": 120,
    "rating": 4.0,
    "lat": 26.10235,
    "lon": 119.325742,
    "description": "电话: 0591-87316904 | 地址: 岳峰镇金鸡山路60号 | 类别: 风景名胜;公园广场;公园",
    "city": "福州"
  },
  {
    "name": "屏山公园",
    "category": "outdoor",
    "duration_minutes": 120,
    "rating": 4.0,
    "lat": 26.104902,
    "lon": 119.297229,
    "description": "电话: 0591-87300690 | 地址: 华大街道福飞南路139号 | 类别: 风景名胜;公园广场;公园",
    "city": "福州"
  },
  {
    "name": "福州巧克力博物馆",
    "category": "museum",
    "duration_minutes": 120,
    "rating": 4.0,
    "lat": 26.083074,
    "lon": 119.29682,
    "description": "电话: 13705005864 | 地址: 三坊七巷南后街77号 | 类别: 科教文化服务;博物馆;博物馆",
    "city": "福州"
  },
  {
    "name": "闽江夜游",
    "category": "outdoor",
    "duration_minutes": 120,
    "rating": 4.0,
    "lat": 26.051002,
    "lon": 119.314866,
    "description": "电话: 0591-83275637 | 地址: 江滨中大道86-7 | 类别: 风景名胜;风景名胜;风景名胜",
    "city": "福州"
  },
  {
    "name": "福州白塔定光寺",
    "category": "history",
    "duration_minutes": 120,
    "rating": 4.0,
    "lat": 26.077381,
    "lon": 119.305695,
    "description": "地址: 安泰街道于山路9号(南门兜地铁站M口步行60米) | 类别: 风景名胜;风景名胜;寺庙道观",
    "city": "福州"
  },
  {
    "name": "三坊七巷-林觉民故居",
    "category": "history",
    "duration_minutes": 120,
    "rating": 4.0,
    "lat": 26.085445,
    "lon": 119.295828,
    "description": "电话: 0591-83890057 | 地址: 南街街道杨桥东路17号(福州杨桥路与南后街交界处)属于三坊七巷内(北侧) | 类别: 风景名胜;风景名胜;纪念馆",
    "city": "福州"
  },
  {
    "name": "福州市博物馆",
    "category": "museum",
    "duration_minutes": 120,
    "rating": 4.0,
    "lat": 26.064135,
    "lon": 119.326161,
    "description": "电话: 0591-83640094 | 地址: 文博路8号 | 类别: 科教文化服务;博物馆;博物馆|风景名胜;风景名胜相关;旅游景点",
    "city": "福州"
  },
  {
    "name": "三坊七巷-严复故居",
    "category": "history",
    "duration_minutes": 120,
    "rating": 4.0,
    "lat": 26.085189,
    "lon": 119.297237,
    "description": "电话: 0591-87675791 | 地址: 南街街道郎官巷20号三坊七巷内(北侧) | 类别: 风景名胜;风景名胜;纪念馆",
    "city": "福州"
  },
  {
    "name": "青年会",
    "category": "sightseeing",
    "duration_minutes": 120,
    "rating": 4.0,
    "lat": 26.050359,
    "lon": 119.310386,
    "description": "地址: 苍霞路13号 | 类别: 购物服务;购物相关场所;购物相关场所",
    "city": "福州"
  },
  {
    "name": "林则徐宅与祠",
    "category": "history",
    "duration_minutes": 120,
    "rating": 4.0,
    "lat": 26.086088,
    "lon": 119.29217,
    "description": "地址: 鼓西街道保定社区文北路31号 | 类别: 风景名胜;风景名胜;纪念馆",
    "city": "福州"
  },
  {
    "name": "乌塔公园",
    "category": "outdoor",
    "duration_minutes": 120,
    "rating": 4.0,
    "lat": 26.077304,
    "lon": 119.30026,
    "description": "地址: 乌石山东麓(南门兜地铁站B西口步行150米) | 类别: 风景名胜;公园广场;公园",
    "city": "福州"
  },
  {
    "name": "闽江公园南园",
    "category": "outdoor",
    "duration_minutes": 120,
    "rating": 4.0,
    "lat": 26.062188,
    "lon": 119.264036,
    "description": "电话: 0591-83895376 | 地址: 闽江大道167号融侨水乡酒店附近 | 类别: 风景名胜;公园广场;公园",
    "city": "福州"
  },
  {
    "name": "金牛山公园",
    "category": "outdoor",
    "duration_minutes": 120,
    "rating": 4.0,
    "lat": 26.077777,
    "lon": 119.261094,
    "description": "地址: 西洪路598号(金牛山地铁站B口步行36米) | 类别: 风景名胜;公园广场;公园",
    "city": "福州"
  },
  {
    "name": "烟台山最美转角",
    "category": "outdoor",
    "duration_minutes": 120,
    "rating": 4.0,
    "lat": 26.043278,
    "lon": 119.317211,
    "description": "地址: 立新路与万春巷交叉口东南20米 | 类别: 风景名胜;风景名胜;风景名胜",
    "city": "福州"
  },
  {
    "name": "镇海楼",
    "category": "outdoor",
    "duration_minutes": 120,
    "rating": 4.0,
    "lat": 26.103796,
    "lon": 119.297143,
    "description": "地址: 福飞南路139号(屏山公园内) | 类别: 风景名胜;风景名胜;风景名胜",
    "city": "福州"
  },
  {
    "name": "冶山春秋园",
    "category": "outdoor",
    "duration_minutes": 120,
    "rating": 4.0,
    "lat": 26.096281,
    "lon": 119.298785,
    "description": "地址: 鼓东街道冶山路33号(屏山地铁站D口步行220米) | 类别: 风景名胜;公园广场;公园",
    "city": "福州"
  },
  {
    "name": "牛岗山公园",
    "category": "outdoor",
    "duration_minutes": 120,
    "rating": 4.0,
    "lat": 26.100066,
    "lon": 119.344918,
    "description": "地址: 鹤林路牛岗山(融信后海) | 类别: 风景名胜;公园广场;公园",
    "city": "福州"
  },
  {
    "name": "上下杭风景",
    "category": "sightseeing",
    "duration_minutes": 120,
    "rating": 4.0,
    "lat": 26.053699,
    "lon": 119.307607,
    "description": "地址: 三通路1-12号 | 类别: 风景名胜;风景名胜;风景名胜",
    "city": "福州"
  },
  {
    "name": "台江区江滨公园",
    "category": "outdoor",
    "duration_minutes": 120,
    "rating": 4.0,
    "lat": 26.051897,
    "lon": 119.318621,
    "description": "电话: 0591-83749457 | 地址: 西江滨大道1号 | 类别: 风景名胜;公园广场;公园",
    "city": "福州"
  },
  {
    "name": "国光公园",
    "category": "outdoor",
    "duration_minutes": 120,
    "rating": 4.0,
    "lat": 26.083509,
    "lon": 119.2521,
    "description": "地址: 洪甘路136号 | 类别: 风景名胜;公园广场;公园",
    "city": "福州"
  },
  {
    "name": "华林寺",
    "category": "history",
    "duration_minutes": 120,
    "rating": 4.0,
    "lat": 26.100265,
    "lon": 119.296861,
    "description": "电话: 0591-87822672 | 地址: 华林路78号(屏山地铁站B口步行430米) | 类别: 风景名胜;风景名胜;寺庙道观",
    "city": "福州"
  },
  {
    "name": "基督教花巷堂",
    "category": "sightseeing",
    "duration_minutes": 120,
    "rating": 4.0,
    "lat": 26.084808,
    "lon": 119.300356,
    "description": "电话: 0591-87605701 | 地址: 八一七北路花巷7号(近大洋百货) | 类别: 风景名胜;风景名胜;教堂",
    "city": "福州"
  },
  {
    "name": "福山郊野公园",
    "category": "outdoor",
    "duration_minutes": 120,
    "rating": 4.0,
    "lat": 26.114854,
    "lon": 119.266793,
    "description": "电话: 0591-87508363 | 地址: 福州大学铜盘校区西北100米 | 类别: 风景名胜;公园广场;公园",
    "city": "福州"
  },
  {
    "name": "乌龙江湿地公园",
    "category": "outdoor",
    "duration_minutes": 120,
    "rating": 4.0,
    "lat": 26.02706,
    "lon": 119.243698,
    "description": "地址: 乌龙江畔三环快速路辅道 | 类别: 风景名胜;公园广场;公园",
    "city": "福州"
  },
  {
    "name": "前美国领事馆",
    "category": "sightseeing",
    "duration_minutes": 120,
    "rating": 4.0,
    "lat": 26.042799,
    "lon": 119.309439,
    "description": "地址: 仓前街道忠烈路与乐群路交叉口西北60米 | 类别: 政府机构及社会团体;外国机构;外国使领馆",
    "city": "福州"
  },
  {
    "name": "安澜会馆",
    "category": "sightseeing",
    "duration_minutes": 120,
    "rating": 4.0,
    "lat": 26.045863,
    "lon": 119.313592,
    "description": "地址: 仓前路5号 | 类别: 风景名胜;风景名胜;省级景点",
    "city": "福州"
  },
  {
    "name": "福州左海公园海底世界",
    "category": "outdoor",
    "duration_minutes": 120,
    "rating": 4.0,
    "lat": 26.09798,
    "lon": 119.287473,
    "description": "电话: 0591-87850178 | 地址: 铜盘路29号 | 类别: 风景名胜;公园广场;水族馆",
    "city": "福州"
  },
  {
    "name": "烟台山公园-观景台",
    "category": "outdoor",
    "duration_minutes": 120,
    "rating": 4.0,
    "lat": 26.045094,
    "lon": 119.315448,
    "description": "地址: 仓前街道梅坞路14号烟台山公园 | 类别: 风景名胜;风景名胜;观景点",
    "city": "福州"
  },
  {
    "name": "福州花海公园",
    "category": "outdoor",
    "duration_minutes": 120,
    "rating": 4.0,
    "lat": 26.038922,
    "lon": 119.356762,
    "description": "地址: 南江滨西大道(花海公园地铁站出口旁) | 类别: 风景名胜;公园广场;公园",
    "city": "福州"
  },
  {
    "name": "三坊七巷-衣锦坊",
    "category": "sightseeing",
    "duration_minutes": 120,
    "rating": 4.0,
    "lat": 26.083383,
    "lon": 119.296582,
    "description": "电话: 0591-83890057 | 地址: 文儒坊6号三坊七巷内(北侧) | 类别: 风景名胜;风景名胜相关;旅游景点",
    "city": "福州"
  },
  {
    "name": "印象西湖",
    "category": "outdoor",
    "duration_minutes": 120,
    "rating": 4.0,
    "lat": 26.088174,
    "lon": 119.292951,
    "description": "地址: 鼓西路251号 | 类别: 商务住宅;住宅区;住宅小区",
    "city": "福州"
  },
  {
    "name": "小黄楼",
    "category": "sightseeing",
    "duration_minutes": 120,
    "rating": 4.0,
    "lat": 26.083688,
    "lon": 119.297578,
    "description": "电话: 0591-87675791 | 地址: 南街街道黄巷中段北侧36号 | 类别: 风景名胜;风景名胜;国家级景点",
    "city": "福州"
  },
  {
    "name": "朱紫坊",
    "category": "sightseeing",
    "duration_minutes": 120,
    "rating": 4.0,
    "lat": 26.080669,
    "lon": 119.300927,
    "description": "地址: 八一七北路与桂枝里交叉口东40米 | 类别: 购物服务;特色商业街;特色商业街",
    "city": "福州"
  },
  {
    "name": "缤纷园",
    "category": "outdoor",
    "duration_minutes": 120,
    "rating": 4.0,
    "lat": 26.05298,
    "lon": 119.287785,
    "description": "电话: 0591-83895376 | 地址: 江滨西大道133号闽江公园北园(东南角) | 类别: 风景名胜;公园广场;公园",
    "city": "福州"
  },
  {
    "name": "梅峰山地公园",
    "category": "outdoor",
    "duration_minutes": 120,
    "rating": 4.0,
    "lat": 26.090479,
    "lon": 119.270704,
    "description": "地址: 梅峰路南侧 | 类别: 风景名胜;公园广场;公园",
    "city": "福州"
  },
  {
    "name": "三坊七巷-沈葆桢故居",
    "category": "history",
    "duration_minutes": 120,
    "rating": 4.0,
    "lat": 26.081818,
    "lon": 119.298163,
    "description": "电话: 0591-83890057 | 地址: 文儒坊6号三坊七巷内(东侧) | 类别: 风景名胜;风景名胜;纪念馆",
    "city": "福州"
  },
  {
    "name": "滨江市民广场",
    "category": "outdoor",
    "duration_minutes": 120,
    "rating": 4.0,
    "lat": 26.059578,
    "lon": 119.282396,
    "description": "地址: 祥坂支路116号(祥坂地铁站C口步行361米) | 类别: 风景名胜;公园广场;城市广场",
    "city": "福州"
  },
  {
    "name": "福州温泉博物馆",
    "category": "museum",
    "duration_minutes": 120,
    "rating": 4.0,
    "lat": 26.098993,
    "lon": 119.313417,
    "description": "电话: 0591-63335000 | 地址: 公益南路与温泉公园路交叉口西南100米 | 类别: 科教文化服务;博物馆;博物馆",
    "city": "福州"
  },
  {
    "name": "源脉温泉园",
    "category": "sightseeing",
    "duration_minutes": 120,
    "rating": 4.0,
    "lat": 26.106983,
    "lon": 119.294968,
    "description": "电话: 0591-88280309;0591-88516336;0591-88516339 | 地址: 福飞路龙腰146号 | 类别: 住宿服务;住宿服务相关;住宿服务相关|体育休闲服务;休闲场所;休闲场所",
    "city": "福州"
  },
  {
    "name": "沙滩公园",
    "category": "outdoor",
    "duration_minutes": 120,
    "rating": 4.0,
    "lat": 26.079702,
    "lon": 119.230914,
    "description": "地址: 西三环路66号 | 类别: 风景名胜;公园广场;公园",
    "city": "福州"
  },
  {
    "name": "闽江游台江码头",
    "category": "outdoor",
    "duration_minutes": 120,
    "rating": 4.0,
    "lat": 26.050993,
    "lon": 119.314997,
    "description": "电话: 0591-83275637;13313783551 | 地址: 元洪城百货后面 | 类别: 交通设施服务;港口码头;港口码头|公司企业;公司;公司",
    "city": "福州"
  },
  {
    "name": "福州市鼓山旅游景区",
    "category": "outdoor",
    "duration_minutes": 120,
    "rating": 4.0,
    "lat": 26.049802,
    "lon": 119.386904,
    "description": "电话: 0591-83618637 | 地址: 福马路1027号 | 类别: 风景名胜;风景名胜;国家级景点",
    "city": "福州"
  },
  {
    "name": "衣锦坊水榭戏台",
    "category": "sightseeing",
    "duration_minutes": 120,
    "rating": 4.0,
    "lat": 26.083461,
    "lon": 119.29593,
    "description": "电话: 0591-83890057 | 类别: 风景名胜;风景名胜;风景名胜",
    "city": "福州"
  },
  {
    "name": "福州动物园",
    "category": "outdoor",
    "duration_minutes": 120,
    "rating": 4.0,
    "lat": 26.139619,
    "lon": 119.285226,
    "description": "电话: 0591-83735714;0591-87935145 | 地址: 新店镇赤桥村新园路100号 | 类别: 风景名胜;公园广场;动物园",
    "city": "福州"
  },
  {
    "name": "高盖山公园",
    "category": "outdoor",
    "duration_minutes": 120,
    "rating": 4.0,
    "lat": 26.013224,
    "lon": 119.310136,
    "description": "地址: 盖山镇首山路398号 | 类别: 风景名胜;公园广场;公园",
    "city": "福州"
  },
  {
    "name": "飞凤山奥体主题公园",
    "category": "outdoor",
    "duration_minutes": 120,
    "rating": 4.0,
    "lat": 26.017993,
    "lon": 119.270924,
    "description": "地址: 建新镇盘屿路 | 类别: 风景名胜;公园广场;公园",
    "city": "福州"
  },
  {
    "name": "温泉苑",
    "category": "sightseeing",
    "duration_minutes": 120,
    "rating": 4.0,
    "lat": 26.090541,
    "lon": 119.310319,
    "description": "地址: 温泉路35号 | 类别: 商务住宅;住宅区;住宅小区",
    "city": "福州"
  },
  {
    "name": "金山公园",
    "category": "outdoor",
    "duration_minutes": 120,
    "rating": 4.0,
    "lat": 26.037867,
    "lon": 119.247796,
    "description": "电话: 0591-83850346 | 地址: 金山街道洪湾路533号 | 类别: 风景名胜;公园广场;公园",
    "city": "福州"
  },
  {
    "name": "福建省沈绍安漆艺博物馆",
    "category": "museum",
    "duration_minutes": 120,
    "rating": 4.0,
    "lat": 26.081125,
    "lon": 119.303375,
    "description": "电话: 18060596102 | 地址: 安泰街道朱紫坊34号 | 类别: 风景名胜;风景名胜;风景名胜",
    "city": "福州"
  },
  {
    "name": "乌龙江湿地公园-水杉林",
    "category": "outdoor",
    "duration_minutes": 120,
    "rating": 4.0,
    "lat": 26.047413,
    "lon": 119.234455,
    "description": "地址: 上街镇三环2号地下通道 | 类别: 风景名胜;风景名胜相关;旅游景点",
    "city": "福州"
  },
  {
    "name": "光明港公园",
    "category": "outdoor",
    "duration_minutes": 120,
    "rating": 4.0,
    "lat": 26.061229,
    "lon": 119.333723,
    "description": "电话: 0591-83613074;0591-83928145 | 地址: 远洋路153号 | 类别: 风景名胜;公园广场;公园",
    "city": "福州"
  },
  {
    "name": "三坊七巷-天后宫(郎官巷)",
    "category": "history",
    "duration_minutes": 120,
    "rating": 4.0,
    "lat": 26.085036,
    "lon": 119.29734,
    "description": "电话: 0591-83890057 | 地址: 南后街步行街郎官巷17号 | 类别: 风景名胜;风景名胜;寺庙道观|体育休闲服务;体育休闲服务场所;体育休闲服务场所",
    "city": "福州"
  },
  {
    "name": "三坊七巷-黄家大院",
    "category": "sightseeing",
    "duration_minutes": 120,
    "rating": 4.0,
    "lat": 26.083266,
    "lon": 119.297619,
    "description": "地址: 文儒坊6号三坊七巷(东街口地铁站C口步行380米) | 类别: 风景名胜;风景名胜相关;旅游景点",
    "city": "福州"
  },
  {
    "name": "福州国家森林公园",
    "category": "outdoor",
    "duration_minutes": 120,
    "rating": 4.0,
    "lat": 26.161579,
    "lon": 119.28625,
    "description": "电话: 0591-87921213 | 地址: 新店上赤桥 | 类别: 风景名胜;风景名胜;国家级景点",
    "city": "福州"
  },
  {
    "name": "明谷行馆·温泉",
    "category": "sightseeing",
    "duration_minutes": 120,
    "rating": 4.0,
    "lat": 26.099236,
    "lon": 119.313327,
    "description": "电话: 0591-38500222 | 地址: 温泉公园路8号温泉体验区内 | 类别: 生活服务;洗浴推拿场所;洗浴推拿场所",
    "city": "福州"
  },
  {
    "name": "福州辛亥革命纪念馆",
    "category": "history",
    "duration_minutes": 120,
    "rating": 4.0,
    "lat": 26.077589,
    "lon": 119.307312,
    "description": "电话: 0591-83337651 | 地址: 安泰街道于山路于山风景名胜公园 | 类别: 风景名胜;风景名胜;纪念馆",
    "city": "福州"
  },
  {
    "name": "AONE运动公园",
    "category": "outdoor",
    "duration_minutes": 120,
    "rating": 4.0,
    "lat": 26.104941,
    "lon": 119.285506,
    "description": "地址: 五凤街道屏西路110号附近 | 类别: 体育休闲服务;运动场馆;健身中心|风景名胜;风景名胜相关;旅游景点",
    "city": "福州"
  },
  {
    "name": "仓前公园",
    "category": "outdoor",
    "duration_minutes": 120,
    "rating": 4.0,
    "lat": 26.045633,
    "lon": 119.312026,
    "description": "地址: 仓前路北侧的闽江畔(解放大桥边) | 类别: 风景名胜;公园广场;公园",
    "city": "福州"
  },
  {
    "name": "威尼斯古堡",
    "category": "sightseeing",
    "duration_minutes": 120,
    "rating": 4.0,
    "lat": 26.0983,
    "lon": 119.285826,
    "description": "电话: 13960800897 | 地址: 五凤街道铜盘路29号左海公园 | 类别: 餐饮服务;餐饮相关场所;餐饮相关",
    "city": "福州"
  },
  {
    "name": "西河智慧体育公园",
    "category": "outdoor",
    "duration_minutes": 120,
    "rating": 4.0,
    "lat": 26.074651,
    "lon": 119.257832,
    "description": "电话: 0591-87305223 | 地址: 洪山镇洪山桥街17号 | 类别: 风景名胜;公园广场;公园",
    "city": "福州"
  },
  {
    "name": "琴亭湖公园",
    "category": "outdoor",
    "duration_minutes": 120,
    "rating": 4.0,
    "lat": 26.12279,
    "lon": 119.309014,
    "description": "地址: 秀峰路与北三环路交叉口 | 类别: 风景名胜;公园广场;公园",
    "city": "福州"
  },
  {
    "name": "闽江之心-中洲岛",
    "category": "outdoor",
    "duration_minutes": 120,
    "rating": 4.0,
    "lat": 26.048181,
    "lon": 119.31391,
    "description": "地址: 闽江之心 | 类别: 风景名胜;风景名胜相关;旅游景点",
    "city": "福州"
  },
  {
    "name": "福道城市空中廊道",
    "category": "sightseeing",
    "duration_minutes": 120,
    "rating": 4.0,
    "lat": 26.080617,
    "lon": 119.254675,
    "description": "地址: 洪甘路与洪山桥街交叉口东南160米 | 类别: 风景名胜;风景名胜相关;旅游景点",
    "city": "福州"
  },
  {
    "name": "福州市儿童公园",
    "category": "outdoor",
    "duration_minutes": 120,
    "rating": 4.0,
    "lat": 26.141354,
    "lon": 119.296687,
    "description": "电话: 0591-83326943 | 地址: 新店镇新园路56号 | 类别: 体育休闲服务;休闲场所;游乐场",
    "city": "福州"
  },
  {
    "name": "三坊七巷-冰心故居(暂停开放)",
    "category": "history",
    "duration_minutes": 120,
    "rating": 4.0,
    "lat": 26.085355,
    "lon": 119.29583,
    "description": "电话: 0591-83890057 | 地址: 环西湖商圈杨桥东路17号 | 类别: 风景名胜;风景名胜;纪念馆",
    "city": "福州"
  },
  {
    "name": "南公园",
    "category": "outdoor",
    "duration_minutes": 120,
    "rating": 4.0,
    "lat": 26.062935,
    "lon": 119.316492,
    "description": "地址: 国货西路309号 | 类别: 风景名胜;公园广场;公园",
    "city": "福州"
  },
  {
    "name": "闽江公园北园",
    "category": "outdoor",
    "duration_minutes": 120,
    "rating": 4.0,
    "lat": 26.056284,
    "lon": 119.280023,
    "description": "电话: 0591-83895376 | 地址: 江滨西大道133号 | 类别: 风景名胜;公园广场;公园",
    "city": "福州"
  },
  {
    "name": "左海公园",
    "category": "outdoor",
    "duration_minutes": 120,
    "rating": 4.0,
    "lat": 26.098109,
    "lon": 119.284958,
    "description": "地址: 五凤街道五凤街道铜盘路29号 | 类别: 风景名胜;公园广场;公园",
    "city": "福州"
  },
  {
    "name": "青年广场",
    "category": "outdoor",
    "duration_minutes": 120,
    "rating": 4.0,
    "lat": 26.049044,
    "lon": 119.309939,
    "description": "地址: 江滨西大道与青年横路交叉口东北140米 | 类别: 风景名胜;公园广场;公园",
    "city": "福州"
  },
  {
    "name": "闽江之心",
    "category": "outdoor",
    "duration_minutes": 120,
    "rating": 4.0,
    "lat": 26.047645,
    "lon": 119.31278,
    "description": "地址: 临江街道解放大桥与仓前路交叉口西北200米 | 类别: 商务住宅;住宅区;住宅小区|风景名胜;风景名胜;风景名胜",
    "city": "福州"
  },
  {
    "name": "福州熊猫世界(暂停开放)",
    "category": "outdoor",
    "duration_minutes": 120,
    "rating": 4.0,
    "lat": 26.088792,
    "lon": 119.284614,
    "description": "电话: 0591-83726522;0591-83787118 | 地址: 梦山路88号 | 类别: 风景名胜;公园广场;动物园",
    "city": "福州"
  },
  {
    "name": "石厝教堂(不对外开放)",
    "category": "sightseeing",
    "duration_minutes": 120,
    "rating": 4.0,
    "lat": 26.04301,
    "lon": 119.311962,
    "description": "地址: 乐群路22号 | 类别: 风景名胜;风景名胜;教堂",
    "city": "福州"
  },
  {
    "name": "白马河公园(暂停开放)",
    "category": "outdoor",
    "duration_minutes": 120,
    "rating": 4.0,
    "lat": 26.069598,
    "lon": 119.291746,
    "description": "电话: 0591-87538056 | 地址: 白马北路174号 | 类别: 风景名胜;公园广场;公园",
    "city": "福州"
  },
  {
    "name": "福建民俗博物馆(郎官巷)",
    "category": "museum",
    "duration_minutes": 120,
    "rating": 4.0,
    "lat": 26.08469,
    "lon": 119.296981,
    "description": "电话: 0591-87519100 | 地址: 南街街道杨桥路三坊七巷郎官巷25号 | 类别: 科教文化服务;博物馆;博物馆",
    "city": "福州"
  },
  {
    "name": "泛船浦天主堂",
    "category": "sightseeing",
    "duration_minutes": 120,
    "rating": 4.0,
    "lat": 26.048116,
    "lon": 119.324802,
    "description": "电话: 0591-83441721 | 地址: 新民街54号 | 类别: 风景名胜;风景名胜;教堂",
    "city": "福州"
  },
  {
    "name": "鹤林生态公园",
    "category": "outdoor",
    "duration_minutes": 120,
    "rating": 4.0,
    "lat": 26.09348,
    "lon": 119.345693,
    "description": "地址: 化工路288号 | 类别: 风景名胜;风景名胜;风景名胜",
    "city": "福州"
  },
  {
    "name": "旗山湖公园",
    "category": "outdoor",
    "duration_minutes": 120,
    "rating": 4.0,
    "lat": 26.037546,
    "lon": 119.199157,
    "description": "电话: 0591-62339363 | 地址: X117 福建理工大学东侧约110米 | 类别: 风景名胜;公园广场;公园",
    "city": "福州"
  },
  {
    "name": "哇呜动物乐园(Wow Park)",
    "category": "outdoor",
    "duration_minutes": 120,
    "rating": 4.0,
    "lat": 26.050311,
    "lon": 119.221202,
    "description": "电话: 19559138786 | 地址: 上街镇厚庭村195-5号 | 类别: 风景名胜;公园广场;动物园",
    "city": "福州"
  },
  {
    "name": "鼓岭旅游度假区",
    "category": "sightseeing",
    "duration_minutes": 120,
    "rating": 4.0,
    "lat": 26.068613,
    "lon": 119.394239,
    "description": "电话: 0591-83669008 | 地址: 宦溪镇鼓岭宜夏村鼓宦公路与192县道交叉口北150米 | 类别: 风景名胜;风景名胜;风景名胜",
    "city": "福州"
  },
  {
    "name": "桥梁园",
    "category": "history",
    "duration_minutes": 120,
    "rating": 4.0,
    "lat": 26.053185,
    "lon": 119.287812,
    "description": "电话: 0591-83895376 | 地址: 江滨西大道南尤溪洲北引桥下 | 类别: 风景名胜;风景名胜相关;旅游景点",
    "city": "福州"
  },
  {
    "name": "金山寺",
    "category": "history",
    "duration_minutes": 120,
    "rating": 4.0,
    "lat": 26.072598,
    "lon": 119.230909,
    "description": "电话: 0591-83741675 | 地址: 洪塘村(近三环辅路) | 类别: 风景名胜;风景名胜;寺庙道观",
    "city": "福州"
  },
  {
    "name": "登云湖中央公园",
    "category": "outdoor",
    "duration_minutes": 120,
    "rating": 4.0,
    "lat": 26.120406,
    "lon": 119.350929,
    "description": "类别: 风景名胜;公园广场;公园",
    "city": "福州"
  },
  {
    "name": "清真寺",
    "category": "sightseeing",
    "duration_minutes": 120,
    "rating": 4.0,
    "lat": 26.079576,
    "lon": 119.30075,
    "description": "地址: 八一七北路204号 | 类别: 风景名胜;风景名胜;回教寺",
    "city": "福州"
  },
  {
    "name": "鼓楼前公园",
    "category": "outdoor",
    "duration_minutes": 120,
    "rating": 4.0,
    "lat": 26.089445,
    "lon": 119.298015,
    "description": "地址: 鼓西路16号冶金宿舍3座401 | 类别: 风景名胜;公园广场;公园广场",
    "city": "福州"
  },
  {
    "name": "福州中山纪念堂",
    "category": "history",
    "duration_minutes": 120,
    "rating": 4.0,
    "lat": 26.096067,
    "lon": 119.300232,
    "description": "地址: 鼓东街道中山路(屏山地铁站D东南口步行390米) | 类别: 风景名胜;风景名胜;纪念馆",
    "city": "福州"
  },
  {
    "name": "华侨公园",
    "category": "outdoor",
    "duration_minutes": 120,
    "rating": 4.0,
    "lat": 26.043552,
    "lon": 119.29103,
    "description": "地址: 上渡横江路华侨公园(融侨江南水都附近) | 类别: 风景名胜;公园广场;公园",
    "city": "福州"
  },
  {
    "name": "三坊七巷-刘齐衔故居",
    "category": "history",
    "duration_minutes": 120,
    "rating": 4.0,
    "lat": 26.081825,
    "lon": 119.299236,
    "description": "电话: 0591-83890057 | 地址: 南街街道东街口宫巷18号三坊七巷内(东侧) | 类别: 风景名胜;风景名胜;纪念馆",
    "city": "福州"
  },
  {
    "name": "金牛山体育公园",
    "category": "outdoor",
    "duration_minutes": 120,
    "rating": 4.0,
    "lat": 26.08514,
    "lon": 119.258237,
    "description": "地址: 梁厝路93号(钱塘文博小学旁) | 类别: 风景名胜;公园广场;公园",
    "city": "福州"
  },
  {
    "name": "旗山万佛寺",
    "category": "history",
    "duration_minutes": 120,
    "rating": 4.0,
    "lat": 25.989754,
    "lon": 119.213377,
    "description": "电话: 0591-22815043 | 地址: 南屿镇117县道西侧 | 类别: 风景名胜;风景名胜;寺庙道观",
    "city": "福州"
  },
  {
    "name": "福州市文林山革命陵园",
    "category": "outdoor",
    "duration_minutes": 120,
    "rating": 4.0,
    "lat": 26.084797,
    "lon": 119.275452,
    "description": "电话: 0591-83710757 | 地址: 洪山镇文林路46号 | 类别: 生活服务;丧葬设施;陵园",
    "city": "福州"
  },
  {
    "name": "刘家大院",
    "category": "sightseeing",
    "duration_minutes": 120,
    "rating": 4.0,
    "lat": 26.079706,
    "lon": 119.29574,
    "description": "电话: 0591-87675791;0591-87679631 | 地址: 光禄坊34号 | 类别: 风景名胜;风景名胜;风景名胜",
    "city": "福州"
  },
  {
    "name": "沃普·烟台山探险岛(Welope Camp 烟台山)",
    "category": "outdoor",
    "duration_minutes": 120,
    "rating": 4.0,
    "lat": 26.043146,
    "lon": 119.306375,
    "description": "地址: 仓前路313号(爱情岛东门-过桥-下旋转楼梯左转直走) | 类别: 体育休闲服务;体育休闲服务场所;体育休闲服务场所",
    "city": "福州"
  },
  {
    "name": "三坊七巷-塔巷",
    "category": "history",
    "duration_minutes": 120,
    "rating": 4.0,
    "lat": 26.084056,
    "lon": 119.296691,
    "description": "电话: 0591-83890057 | 地址: 南街街道八一七北路三坊七巷景区塔巷 | 类别: 风景名胜;风景名胜相关;旅游景点",
    "city": "福州"
  },
  {
    "name": "西湖公园-桂斋",
    "category": "outdoor",
    "duration_minutes": 120,
    "rating": 4.0,
    "lat": 26.089989,
    "lon": 119.287079,
    "description": "电话: 0591-83783655 | 地址: 湖滨路70号西湖公园(西南角) | 类别: 风景名胜;风景名胜相关;旅游景点",
    "city": "福州"
  },
  {
    "name": "福州道教元帅庙祖殿",
    "category": "history",
    "duration_minutes": 120,
    "rating": 4.0,
    "lat": 26.086592,
    "lon": 119.294491,
    "description": "地址: 元帅路68号 | 类别: 风景名胜;风景名胜;寺庙道观",
    "city": "福州"
  },
  {
    "name": "永德会馆",
    "category": "sightseeing",
    "duration_minutes": 120,
    "rating": 4.0,
    "lat": 26.051843,
    "lon": 119.306588,
    "description": "电话: 0591-83219581 | 地址: 硋埕里20号 | 类别: 风景名胜;风景名胜;风景名胜",
    "city": "福州"
  },
  {
    "name": "三江口生态公园",
    "category": "outdoor",
    "duration_minutes": 120,
    "rating": 4.0,
    "lat": 26.014771,
    "lon": 119.385372,
    "description": "地址: 南江滨东大道 | 类别: 风景名胜;公园广场;公园",
    "city": "福州"
  },
  {
    "name": "南公河口文化街区",
    "category": "sightseeing",
    "duration_minutes": 120,
    "rating": 4.0,
    "lat": 26.064257,
    "lon": 119.317509,
    "description": "地址: 国货西路南公园旁 | 类别: 购物服务;特色商业街;特色商业街",
    "city": "福州"
  },
  {
    "name": "闽海关税务司官邸",
    "category": "outdoor",
    "duration_minutes": 120,
    "rating": 4.0,
    "lat": 26.043978,
    "lon": 119.313452,
    "description": "地址: 东群路与槐荫里交叉口西40米 | 类别: 风景名胜;风景名胜;风景名胜",
    "city": "福州"
  },
  {
    "name": "福州天安基督教堂",
    "category": "sightseeing",
    "duration_minutes": 120,
    "rating": 4.0,
    "lat": 26.044724,
    "lon": 119.312108,
    "description": "电话: 0591-83475719 | 地址: 仓前路天安里15号 | 类别: 风景名胜;风景名胜;教堂",
    "city": "福州"
  },
  {
    "name": "吴石故居(暂停开放)",
    "category": "sightseeing",
    "duration_minutes": 120,
    "rating": 4.0,
    "lat": 25.979466,
    "lon": 119.348791,
    "description": "地址: 螺洲镇吴厝村江墘埕1号 | 类别: 风景名胜;风景名胜;红色景区",
    "city": "福州"
  },
  {
    "name": "金鸡山公园-南天照天君宫",
    "category": "outdoor",
    "duration_minutes": 120,
    "rating": 4.0,
    "lat": 26.096507,
    "lon": 119.32014,
    "description": "电话: 0591-87316904 | 地址: 金鸡山公园1号 | 类别: 风景名胜;风景名胜;风景名胜",
    "city": "福州"
  },
  {
    "name": "晋安湖摩天轮",
    "category": "outdoor",
    "duration_minutes": 120,
    "rating": 4.0,
    "lat": 26.085393,
    "lon": 119.345176,
    "description": "地址: 化工路43号晋安湖公园内(东侧) | 类别: 风景名胜;风景名胜相关;旅游景点|体育休闲服务;体育休闲服务场所;体育休闲服务场所",
    "city": "福州"
  },
  {
    "name": "福州财神庙",
    "category": "history",
    "duration_minutes": 120,
    "rating": 4.0,
    "lat": 26.123657,
    "lon": 119.320384,
    "description": "电话: 15980686599 | 地址: 新店镇玄南岭路西园795号 | 类别: 风景名胜;风景名胜;寺庙道观",
    "city": "福州"
  },
  {
    "name": "白云洞",
    "category": "sightseeing",
    "duration_minutes": 120,
    "rating": 4.0,
    "lat": 26.073326,
    "lon": 119.389834,
    "description": "地址: 鼓山西北风池山西侧凤池白云洞景区 | 类别: 风景名胜;风景名胜相关;旅游景点",
    "city": "福州"
  },
  {
    "name": "中国船政文化景区",
    "category": "outdoor",
    "duration_minutes": 120,
    "rating": 4.0,
    "lat": 25.984297,
    "lon": 119.451941,
    "description": "电话: 0591-87306366 | 地址: 马尾镇联安路142号 | 类别: 风景名胜;公园广场;公园",
    "city": "福州"
  },
  {
    "name": "螺洲古镇",
    "category": "sightseeing",
    "duration_minutes": 120,
    "rating": 4.0,
    "lat": 25.980102,
    "lon": 119.34866,
    "description": "地址: 螺洲镇 | 类别: 风景名胜;风景名胜相关;旅游景点",
    "city": "福州"
  },
  {
    "name": "白夜公园",
    "category": "outdoor",
    "duration_minutes": 120,
    "rating": 4.0,
    "lat": 26.082111,
    "lon": 119.253335,
    "description": "地址: 洪甘路与梁厝路交叉口西南40米 | 类别: 风景名胜;公园广场;公园",
    "city": "福州"
  },
  {
    "name": "斗顶海绵公园",
    "category": "outdoor",
    "duration_minutes": 120,
    "rating": 4.0,
    "lat": 26.143743,
    "lon": 119.301674,
    "description": "地址: 福飞北路303号 | 类别: 风景名胜;公园广场;公园",
    "city": "福州"
  },
  {
    "name": "三坊七巷-丰井营",
    "category": "sightseeing",
    "duration_minutes": 120,
    "rating": 4.0,
    "lat": 26.080854,
    "lon": 119.295749,
    "description": "电话: 0591-83890057 | 地址: 光禄坊与南后街步行街交叉口西北180米 | 类别: 风景名胜;风景名胜相关;旅游景点",
    "city": "福州"
  },
  {
    "name": "农大沙滩",
    "category": "sightseeing",
    "duration_minutes": 120,
    "rating": 4.0,
    "lat": 26.076697,
    "lon": 119.23088,
    "description": "地址: 三环快速 | 类别: 风景名胜;风景名胜;海滩",
    "city": "福州"
  },
  {
    "name": "晨曦广场",
    "category": "outdoor",
    "duration_minutes": 120,
    "rating": 4.0,
    "lat": 26.091978,
    "lon": 119.292667,
    "description": "电话: 0591-83783655 | 地址: 湖滨路113附近 | 类别: 风景名胜;公园广场;城市广场",
    "city": "福州"
  },
  {
    "name": "九峰村",
    "category": "sightseeing",
    "duration_minutes": 120,
    "rating": 4.0,
    "lat": 26.235168,
    "lon": 119.276254,
    "description": "地址: 寿山乡下辖村 | 类别: 风景名胜;风景名胜相关;旅游景点",
    "city": "福州"
  },
  {
    "name": "萨镇冰故居",
    "category": "sightseeing",
    "duration_minutes": 120,
    "rating": 4.0,
    "lat": 26.080958,
    "lon": 119.301922,
    "description": "地址: 朱紫坊29号(南门兜地铁站A1西北口步行400米) | 类别: 风景名胜;风景名胜相关;旅游景点",
    "city": "福州"
  },
  {
    "name": "中国船政文化博物馆",
    "category": "museum",
    "duration_minutes": 120,
    "rating": 4.0,
    "lat": 25.989639,
    "lon": 119.446549,
    "description": "电话: 0591-83983253 | 地址: 马尾镇联安路142号中国船政文化景区(西北角) | 类别: 科教文化服务;博物馆;博物馆",
    "city": "福州"
  },
  {
    "name": "福建省革命历史纪念馆",
    "category": "history",
    "duration_minutes": 120,
    "rating": 4.0,
    "lat": 26.05573,
    "lon": 119.374839,
    "description": "电话: 0591-87897285;0591-87897286 | 地址: 福马路988号(鼓山地铁站C口步行190米) | 类别: 风景名胜;风景名胜;纪念馆",
    "city": "福州"
  },
  {
    "name": "三坊七巷-中共福州市委旧址",
    "category": "sightseeing",
    "duration_minutes": 120,
    "rating": 4.0,
    "lat": 26.082694,
    "lon": 119.298346,
    "description": "电话: 0591-83890057 | 地址: 立本弄3号(东街口地铁站C口步行440米) | 类别: 风景名胜;风景名胜;红色景区",
    "city": "福州"
  },
  {
    "name": "龙旺·闽越水镇",
    "category": "sightseeing",
    "duration_minutes": 120,
    "rating": 4.0,
    "lat": 26.131073,
    "lon": 119.121332,
    "description": "地址: 竹岐乡麦浦路1号 | 类别: 风景名胜;风景名胜;风景名胜",
    "city": "福州"
  },
  {
    "name": "旗旗hi森动物城",
    "category": "outdoor",
    "duration_minutes": 120,
    "rating": 4.0,
    "lat": 26.044537,
    "lon": 119.191914,
    "description": "地址: 上街镇明德路7-26号 | 类别: 风景名胜;公园广场;动物园",
    "city": "福州"
  },
  {
    "name": "福建都城隍庙",
    "category": "history",
    "duration_minutes": 120,
    "rating": 4.0,
    "lat": 26.093654,
    "lon": 119.298229,
    "description": "地址: 冶山路城隍街云步山巷8号(屏山地铁站D口步行220米) | 类别: 风景名胜;风景名胜;寺庙道观",
    "city": "福州"
  },
  {
    "name": "华南女子文理学院旧址",
    "category": "sightseeing",
    "duration_minutes": 120,
    "rating": 4.0,
    "lat": 26.039332,
    "lon": 119.307179,
    "description": "地址: 上三路8-11号楼附近 | 类别: 风景名胜;风景名胜相关;旅游景点",
    "city": "福州"
  },
  {
    "name": "状元岭",
    "category": "sightseeing",
    "duration_minutes": 120,
    "rating": 4.0,
    "lat": 26.161861,
    "lon": 119.343736,
    "description": "地址: G1501福州绕城高速 | 类别: 风景名胜;风景名胜;风景名胜",
    "city": "福州"
  },
  {
    "name": "仓山区金山全民健身活动中心",
    "category": "outdoor",
    "duration_minutes": 120,
    "rating": 4.0,
    "lat": 26.044898,
    "lon": 119.273571,
    "description": "电话: 0591-83052614 | 地址: 仓山区金山街道金山全民健身活动中心(横江一巷南50米) | 类别: 体育休闲服务;运动场馆;运动场所",
    "city": "福州"
  },
  {
    "name": "晋安河公园",
    "category": "outdoor",
    "duration_minutes": 120,
    "rating": 4.0,
    "lat": 26.088895,
    "lon": 119.316428,
    "description": "电话: 0591-87337689 | 地址: 王庄街道福马路36号天成小区对面 | 类别: 风景名胜;公园广场;公园",
    "city": "福州"
  },
  {
    "name": "三江口植物园",
    "category": "outdoor",
    "duration_minutes": 120,
    "rating": 4.0,
    "lat": 25.968508,
    "lon": 119.404487,
    "description": "地址: 三江路99号 | 类别: 风景名胜;公园广场;植物园",
    "city": "福州"
  },
  {
    "name": "涌泉寺",
    "category": "history",
    "duration_minutes": 120,
    "rating": 4.0,
    "lat": 26.05504,
    "lon": 119.395689,
    "description": "电话: 0591-83669140;0591-83921978 | 地址: 鼓山镇 | 类别: 风景名胜;风景名胜;寺庙道观",
    "city": "福州"
  },
  {
    "name": "新店古城遗址公园",
    "category": "outdoor",
    "duration_minutes": 120,
    "rating": 4.0,
    "lat": 26.138422,
    "lon": 119.297195,
    "description": "电话: 13859019296 | 地址: 古城北路 | 类别: 风景名胜;风景名胜;风景名胜",
    "city": "福州"
  },
  {
    "name": "井店湖公园",
    "category": "outdoor",
    "duration_minutes": 120,
    "rating": 4.0,
    "lat": 26.135814,
    "lon": 119.327671,
    "description": "地址: 山北路216号 | 类别: 风景名胜;风景名胜;风景名胜",
    "city": "福州"
  },
  {
    "name": "寻梦闽都沉浸式实景大型演出",
    "category": "sightseeing",
    "duration_minutes": 120,
    "rating": 4.0,
    "lat": 26.076565,
    "lon": 119.295523,
    "description": "电话: 13015722493 | 地址: 道山路237号 | 类别: 风景名胜;风景名胜相关;旅游景点",
    "city": "福州"
  },
  {
    "name": "流花溪公园",
    "category": "outdoor",
    "duration_minutes": 120,
    "rating": 4.0,
    "lat": 26.023313,
    "lon": 119.252569,
    "description": "地址: 花溪南路与高宅路交叉口西北160米 | 类别: 风景名胜;公园广场;公园",
    "city": "福州"
  },
  {
    "name": "法国领事馆旧址",
    "category": "sightseeing",
    "duration_minutes": 120,
    "rating": 4.0,
    "lat": 26.043085,
    "lon": 119.312587,
    "description": "地址: 乐群路23号 | 类别: 风景名胜;风景名胜;风景名胜",
    "city": "福州"
  },
  {
    "name": "大觉禅寺",
    "category": "history",
    "duration_minutes": 120,
    "rating": 4.0,
    "lat": 26.083765,
    "lon": 119.303329,
    "description": "地址: 东街街道东泰路95号 | 类别: 风景名胜;风景名胜;寺庙道观",
    "city": "福州"
  },
  {
    "name": "唐城宋街遗址博物馆(暂停营业)",
    "category": "museum",
    "duration_minutes": 120,
    "rating": 4.0,
    "lat": 26.081055,
    "lon": 119.293129,
    "description": "地址: 通湖路270号消防大队傍 | 类别: 科教文化服务;科教文化场所;科教文化场所",
    "city": "福州"
  },
  {
    "name": "四面佛",
    "category": "sightseeing",
    "duration_minutes": 120,
    "rating": 4.0,
    "lat": 26.090706,
    "lon": 119.301181,
    "description": "电话: 0591-87502204 | 地址: 开元路78号开元寺内平房 | 类别: 风景名胜;风景名胜相关;旅游景点",
    "city": "福州"
  },
  {
    "name": "福橘文化园",
    "category": "outdoor",
    "duration_minutes": 120,
    "rating": 4.0,
    "lat": 26.063104,
    "lon": 119.263517,
    "description": "地址: 闽江公园南园(西北角) | 类别: 风景名胜;公园广场;公园",
    "city": "福州"
  },
  {
    "name": "赤桥公园",
    "category": "outdoor",
    "duration_minutes": 120,
    "rating": 4.0,
    "lat": 26.141327,
    "lon": 119.292382,
    "description": "地址: 赤桥路与新园路交叉口北240米 | 类别: 风景名胜;公园广场;公园",
    "city": "福州"
  },
  {
    "name": "甘蔗广场",
    "category": "outdoor",
    "duration_minutes": 120,
    "rating": 4.0,
    "lat": 26.14976,
    "lon": 119.137286,
    "description": "地址: 十字街与街心路交叉口西北50米 | 类别: 风景名胜;公园广场;城市广场",
    "city": "福州"
  },
  {
    "name": "闽水园",
    "category": "outdoor",
    "duration_minutes": 120,
    "rating": 4.0,
    "lat": 26.046736,
    "lon": 119.299254,
    "description": "电话: 0591-83895376 | 地址: 江滨西大道133号闽江公园北园(东南角) | 类别: 风景名胜;公园广场;公园",
    "city": "福州"
  },
  {
    "name": "福州商务总会旧址(暂停开放)",
    "category": "history",
    "duration_minutes": 120,
    "rating": 4.0,
    "lat": 26.053731,
    "lon": 119.305192,
    "description": "地址: 星河巷星安桥路82号上下杭历史文化街区内(北侧) | 类别: 风景名胜;风景名胜;纪念馆",
    "city": "福州"
  },
  {
    "name": "开化寺",
    "category": "history",
    "duration_minutes": 120,
    "rating": 4.0,
    "lat": 26.092666,
    "lon": 119.289677,
    "description": "电话: 0591-83783655 | 地址: 湖滨路70号 | 类别: 风景名胜;风景名胜;寺庙道观",
    "city": "福州"
  },
  {
    "name": "三坊七巷-二梅书屋",
    "category": "sightseeing",
    "duration_minutes": 120,
    "rating": 4.0,
    "lat": 26.084761,
    "lon": 119.296966,
    "description": "电话: 0591-87675791 | 地址: 南后街三坊七巷塔巷福建民俗博物馆 | 类别: 风景名胜;风景名胜相关;旅游景点",
    "city": "福州"
  },
  {
    "name": "烟台山历史博物馆",
    "category": "museum",
    "duration_minutes": 120,
    "rating": 4.0,
    "lat": 26.042901,
    "lon": 119.309089,
    "description": "地址: 仓前街道爱国路2号 | 类别: 科教文化服务;科教文化场所;科教文化场所",
    "city": "福州"
  },
  {
    "name": "鳝溪风景区",
    "category": "sightseeing",
    "duration_minutes": 120,
    "rating": 4.0,
    "lat": 26.089486,
    "lon": 119.373437,
    "description": "地址: 东三环路(福建理工大学院北) | 类别: 风景名胜;风景名胜;风景名胜",
    "city": "福州"
  },
  {
    "name": "法海寺",
    "category": "history",
    "duration_minutes": 120,
    "rating": 4.0,
    "lat": 26.080077,
    "lon": 119.305613,
    "description": "地址: 法海路1号(近格致中学) | 类别: 风景名胜;风景名胜;寺庙道观",
    "city": "福州"
  },
  {
    "name": "福州国家森林公园-千年古榕",
    "category": "outdoor",
    "duration_minutes": 120,
    "rating": 4.0,
    "lat": 26.147919,
    "lon": 119.291521,
    "description": "地址: 福州国家森林公园内(南侧) | 类别: 风景名胜;风景名胜相关;旅游景点",
    "city": "福州"
  },
  {
    "name": "烟台山桥头堡文化创意园",
    "category": "outdoor",
    "duration_minutes": 120,
    "rating": 4.0,
    "lat": 26.04643,
    "lon": 119.316881,
    "description": "地址: 观井路139号 | 类别: 商务住宅;产业园区;产业园区",
    "city": "福州"
  },
  {
    "name": "鳌峰公园",
    "category": "outdoor",
    "duration_minutes": 120,
    "rating": 4.0,
    "lat": 26.051292,
    "lon": 119.356876,
    "description": "地址: 鳌峰路192号 | 类别: 风景名胜;公园广场;公园",
    "city": "福州"
  },
  {
    "name": "斗顶公园-景观湖",
    "category": "outdoor",
    "duration_minutes": 120,
    "rating": 4.0,
    "lat": 26.144836,
    "lon": 119.302126,
    "description": "地址: 福飞北路303号斗顶海绵公园内(北侧) | 类别: 风景名胜;风景名胜相关;旅游景点",
    "city": "福州"
  },
  {
    "name": "福建美丰银行旧址",
    "category": "sightseeing",
    "duration_minutes": 120,
    "rating": 4.0,
    "lat": 26.045638,
    "lon": 119.314716,
    "description": "地址: 烟台山公园(西北角) | 类别: 风景名胜;风景名胜;风景名胜",
    "city": "福州"
  },
  {
    "name": "鼓山旅游索道",
    "category": "outdoor",
    "duration_minutes": 120,
    "rating": 4.0,
    "lat": 26.053455,
    "lon": 119.37713,
    "description": "电话: 0591-88055770 | 地址: 福马路1027号福州市鼓山旅游景区 | 类别: 风景名胜;风景名胜相关;旅游景点",
    "city": "福州"
  },
  {
    "name": "坊巷讲习所",
    "category": "sightseeing",
    "duration_minutes": 120,
    "rating": 4.0,
    "lat": 26.080857,
    "lon": 119.298826,
    "description": "电话: 0591-83890057 | 地址: 吉庇路60号(南门兜地铁站L口步行400米) | 类别: 风景名胜;风景名胜相关;旅游景点",
    "city": "福州"
  },
  {
    "name": "五虎山国家森林公园",
    "category": "outdoor",
    "duration_minutes": 120,
    "rating": 4.0,
    "lat": 25.915344,
    "lon": 119.333644,
    "description": "地址: 祥谦镇澜澄村 | 类别: 风景名胜;公园广场;公园",
    "city": "福州"
  },
  {
    "name": "苍霞基督堂",
    "category": "sightseeing",
    "duration_minutes": 120,
    "rating": 4.0,
    "lat": 26.049618,
    "lon": 119.308894,
    "description": "地址: 文通弄17号 | 类别: 风景名胜;风景名胜;教堂",
    "city": "福州"
  },
  {
    "name": "首尔",
    "category": "sightseeing",
    "duration_minutes": 120,
    "rating": 4.0,
    "lat": 26.080091,
    "lon": 119.341372,
    "description": "地址: 官前路与后浦路交叉口西40米 | 类别: 风景名胜;风景名胜相关;旅游景点",
    "city": "福州"
  },
  {
    "name": "源脉温泉",
    "category": "sightseeing",
    "duration_minutes": 120,
    "rating": 4.0,
    "lat": 26.106198,
    "lon": 119.294527,
    "description": "电话: 15280180090 | 地址: 福飞南路龙腰146号 | 类别: 生活服务;洗浴推拿场所;洗浴推拿场所|风景名胜;风景名胜相关;旅游景点",
    "city": "福州"
  },
  {
    "name": "贵安欢乐世界",
    "category": "sightseeing",
    "duration_minutes": 120,
    "rating": 4.0,
    "lat": 26.24415,
    "lon": 119.401941,
    "description": "电话: 0591-38096666 | 地址: 潘渡镇贵安新天地社区公园路1号 | 类别: 体育休闲服务;休闲场所;游乐场",
    "city": "福州"
  },
  {
    "name": "水秀广场",
    "category": "outdoor",
    "duration_minutes": 120,
    "rating": 4.0,
    "lat": 26.090833,
    "lon": 119.3358,
    "description": "地址: 岳峰镇横屿路19号(原连江北路路与化工路交叉处)福州泰禾广场(一期)9#楼1层10商业(餐饮) | 类别: 风景名胜;公园广场;城市广场",
    "city": "福州"
  },
  {
    "name": "南江滨生态公园-金沙公园",
    "category": "outdoor",
    "duration_minutes": 120,
    "rating": 4.0,
    "lat": 26.013486,
    "lon": 119.387493,
    "description": "地址: 南江滨东大道三江口生态公园 | 类别: 风景名胜;公园广场;公园",
    "city": "福州"
  },
  {
    "name": "新四军驻办事处旧址",
    "category": "sightseeing",
    "duration_minutes": 120,
    "rating": 4.0,
    "lat": 26.08245,
    "lon": 119.29846,
    "description": "电话: 0591-83890057 | 地址: 安民巷53号(东街口地铁站C口步行400米) | 类别: 风景名胜;风景名胜相关;旅游景点",
    "city": "福州"
  },
  {
    "name": "闽江公园缤纷园沙滩",
    "category": "outdoor",
    "duration_minutes": 120,
    "rating": 4.0,
    "lat": 26.051311,
    "lon": 119.290323,
    "description": "地址: 缤纷园 | 类别: 风景名胜;风景名胜;海滩",
    "city": "福州"
  },
  {
    "name": "施埔基督教堂",
    "category": "sightseeing",
    "duration_minutes": 120,
    "rating": 4.0,
    "lat": 26.036552,
    "lon": 119.311386,
    "description": "地址: 仓山镇施埔路34号 | 类别: 风景名胜;风景名胜;教堂",
    "city": "福州"
  },
  {
    "name": "黄花风铃木公园",
    "category": "outdoor",
    "duration_minutes": 120,
    "rating": 4.0,
    "lat": 26.03938,
    "lon": 119.281915,
    "description": "地址: 闽江大道与二环快速出口交叉口南100米 | 类别: 风景名胜;公园广场;公园",
    "city": "福州"
  },
  {
    "name": "福州贵安新天地休闲旅游度假区",
    "category": "sightseeing",
    "duration_minutes": 120,
    "rating": 4.0,
    "lat": 26.248392,
    "lon": 119.411504,
    "description": "电话: 0591-38096666 | 地址: 贵安新天地 | 类别: 风景名胜;风景名胜;国家级景点",
    "city": "福州"
  },
  {
    "name": "苍霞公园",
    "category": "outdoor",
    "duration_minutes": 120,
    "rating": 4.0,
    "lat": 26.047136,
    "lon": 119.309327,
    "description": "地址: 江滨西大道218号 | 类别: 风景名胜;公园广场;公园",
    "city": "福州"
  },
  {
    "name": "白云顶",
    "category": "sightseeing",
    "duration_minutes": 120,
    "rating": 4.0,
    "lat": 26.073905,
    "lon": 119.393901,
    "description": "地址: 鼓山路鼓山风景区 | 类别: 风景名胜;风景名胜;风景名胜",
    "city": "福州"
  },
  {
    "name": "福州广场",
    "category": "outdoor",
    "duration_minutes": 120,
    "rating": 4.0,
    "lat": 26.097433,
    "lon": 119.308584,
    "description": "地址: 五四路 | 类别: 风景名胜;公园广场;城市广场",
    "city": "福州"
  },
  {
    "name": "于山风景名胜公园-九仙观",
    "category": "history",
    "duration_minutes": 120,
    "rating": 4.0,
    "lat": 26.078717,
    "lon": 119.30894,
    "description": "电话: 0591-83312599 | 地址: 于山顶一号于山风景区内(南门兜地铁站M口步行470米) | 类别: 风景名胜;风景名胜;寺庙道观",
    "city": "福州"
  },
  {
    "name": "分水岭",
    "category": "sightseeing",
    "duration_minutes": 120,
    "rating": 4.0,
    "lat": 26.098086,
    "lon": 119.224545,
    "description": "地址: 建新镇大桥头 | 类别: 风景名胜;风景名胜;风景名胜",
    "city": "福州"
  },
  {
    "name": "三坊七巷-郭柏荫故居",
    "category": "history",
    "duration_minutes": 120,
    "rating": 4.0,
    "lat": 26.083587,
    "lon": 119.29898,
    "description": "电话: 0591-83890057 | 地址: 南街街道文儒坊6号三坊七巷(东北角) | 类别: 风景名胜;风景名胜;纪念馆",
    "city": "福州"
  },
  {
    "name": "林阳禅寺",
    "category": "history",
    "duration_minutes": 120,
    "rating": 4.0,
    "lat": 26.212213,
    "lon": 119.320808,
    "description": "地址: 寿山乡石牌村石牌218号 | 类别: 风景名胜;风景名胜;寺庙道观",
    "city": "福州"
  },
  {
    "name": "状元岭登山道",
    "category": "outdoor",
    "duration_minutes": 120,
    "rating": 4.0,
    "lat": 26.15071,
    "lon": 119.335363,
    "description": "地址: 秀峰路与杨廷路交叉口东北300米 | 类别: 风景名胜;风景名胜;风景名胜",
    "city": "福州"
  },
  {
    "name": "升山寺",
    "category": "history",
    "duration_minutes": 120,
    "rating": 4.0,
    "lat": 26.143476,
    "lon": 119.273119,
    "description": "电话: 13850154456 | 地址: 新店镇赤星村附近 | 类别: 风景名胜;风景名胜;寺庙道观",
    "city": "福州"
  },
  {
    "name": "石鼓名山",
    "category": "outdoor",
    "duration_minutes": 120,
    "rating": 4.0,
    "lat": 26.053041,
    "lon": 119.390642,
    "description": "地址: 鼓山路 | 类别: 风景名胜;风景名胜;国家级景点",
    "city": "福州"
  },
  {
    "name": "十八景公园",
    "category": "outdoor",
    "duration_minutes": 120,
    "rating": 4.0,
    "lat": 26.053375,
    "lon": 119.390819,
    "description": "电话: 0591-88055770 | 地址: 鼓山镇洋里村鼓山风景区26号 | 类别: 风景名胜;风景名胜相关;旅游景点",
    "city": "福州"
  },
  {
    "name": "望龙园",
    "category": "outdoor",
    "duration_minutes": 120,
    "rating": 4.0,
    "lat": 26.057221,
    "lon": 119.278076,
    "description": "电话: 0591-83895376 | 地址: 江滨西大道133号闽江公园北园(西北角) | 类别: 风景名胜;公园广场;公园",
    "city": "福州"
  },
  {
    "name": "三坊七巷-邓拓故居",
    "category": "sightseeing",
    "duration_minutes": 120,
    "rating": 4.0,
    "lat": 26.077479,
    "lon": 119.300133,
    "description": "电话: 0591-87503954 | 地址: 道山路第一山4号(南门兜地铁站B西口步行290米) | 类别: 风景名胜;风景名胜;风景名胜",
    "city": "福州"
  },
  {
    "name": "报恩定光多宝塔",
    "category": "history",
    "duration_minutes": 120,
    "rating": 4.0,
    "lat": 26.077867,
    "lon": 119.30571,
    "description": "电话: 0591-83355720 | 地址: 于山路2号旁(南门兜地铁站G东北口步行300米) | 类别: 风景名胜;风景名胜;风景名胜",
    "city": "福州"
  },
  {
    "name": "锦江园",
    "category": "outdoor",
    "duration_minutes": 120,
    "rating": 4.0,
    "lat": 26.066743,
    "lon": 119.268334,
    "description": "电话: 0591-83895376 | 地址: 江滨西大道1号 | 类别: 风景名胜;风景名胜相关;旅游景点",
    "city": "福州"
  },
  {
    "name": "晋安公园",
    "category": "outdoor",
    "duration_minutes": 120,
    "rating": 4.0,
    "lat": 26.092229,
    "lon": 119.34551,
    "description": "地址: 鹤林路鹤林生态公园 | 类别: 风景名胜;公园广场;公园",
    "city": "福州"
  },
  {
    "name": "中国闽菜文化博物馆",
    "category": "museum",
    "duration_minutes": 120,
    "rating": 4.0,
    "lat": 26.018864,
    "lon": 119.286924,
    "description": "电话: 0591-63336888 | 地址: 福湾路福州海峡奥体中心商业广场6号区域3层(靠近福湾路5号门岗) | 类别: 科教文化服务;博物馆;博物馆",
    "city": "福州"
  },
  {
    "name": "乌山净慈寺",
    "category": "history",
    "duration_minutes": 120,
    "rating": 4.0,
    "lat": 26.076437,
    "lon": 119.297126,
    "description": "电话: 0591-83371493 | 地址: 乌山文心园17号 | 类别: 风景名胜;风景名胜;寺庙道观",
    "city": "福州"
  },
  {
    "name": "华光大帝庙",
    "category": "history",
    "duration_minutes": 120,
    "rating": 4.0,
    "lat": 26.023477,
    "lon": 119.318122,
    "description": "地址: 对湖街道首山村首山小学 | 类别: 风景名胜;风景名胜;寺庙道观",
    "city": "福州"
  },
  {
    "name": "林则徐出生地",
    "category": "history",
    "duration_minutes": 120,
    "rating": 4.0,
    "lat": 26.094162,
    "lon": 119.301151,
    "description": "电话: 0591-87810391 | 地址: 中山路19号 | 类别: 风景名胜;风景名胜;纪念馆",
    "city": "福州"
  },
  {
    "name": "柳杉王公园",
    "category": "outdoor",
    "duration_minutes": 120,
    "rating": 4.0,
    "lat": 26.09153,
    "lon": 119.398091,
    "description": "地址: 宦溪镇宜夏村梁厝157号 | 类别: 风景名胜;公园广场;公园",
    "city": "福州"
  },
  {
    "name": "福建革命军事馆",
    "category": "sightseeing",
    "duration_minutes": 120,
    "rating": 4.0,
    "lat": 26.102104,
    "lon": 119.281376,
    "description": "地址: 铜盘路209-4号 | 类别: 风景名胜;风景名胜;风景名胜",
    "city": "福州"
  },
  {
    "name": "金山创世城市广场",
    "category": "outdoor",
    "duration_minutes": 120,
    "rating": 4.0,
    "lat": 26.039278,
    "lon": 119.258332,
    "description": "电话: 18059098316 | 地址: 金山街道建新中路133号 | 类别: 购物服务;购物相关场所;购物相关场所",
    "city": "福州"
  },
  {
    "name": "福山郊野公园-保福境",
    "category": "outdoor",
    "duration_minutes": 120,
    "rating": 4.0,
    "lat": 26.0974,
    "lon": 119.264022,
    "description": "地址: 保福路与梅峰路交叉口北340米 | 类别: 风景名胜;风景名胜相关;旅游景点",
    "city": "福州"
  },
  {
    "name": "林森公馆",
    "category": "history",
    "duration_minutes": 120,
    "rating": 4.0,
    "lat": 26.038236,
    "lon": 119.315158,
    "description": "地址: 学生街城市广场(新兴公寓南) | 类别: 风景名胜;风景名胜;纪念馆",
    "city": "福州"
  },
  {
    "name": "湖头憩园",
    "category": "outdoor",
    "duration_minutes": 120,
    "rating": 4.0,
    "lat": 26.086811,
    "lon": 119.288448,
    "description": "电话: 0591-87538056 | 地址: 湖滨路西门公交站南50米 | 类别: 风景名胜;公园广场;城市广场",
    "city": "福州"
  },
  {
    "name": "北禅古寺",
    "category": "history",
    "duration_minutes": 120,
    "rating": 4.0,
    "lat": 26.102621,
    "lon": 119.28403,
    "description": "地址: 五凤街道铜盘路台后13号 | 类别: 风景名胜;风景名胜;寺庙道观",
    "city": "福州"
  },
  {
    "name": "三坊七巷-林则徐母家故居",
    "category": "history",
    "duration_minutes": 120,
    "rating": 4.0,
    "lat": 26.081617,
    "lon": 119.296111,
    "description": "电话: 0591-83890057 | 地址: 文儒坊6号三坊七巷 | 类别: 风景名胜;风景名胜;纪念馆",
    "city": "福州"
  },
  {
    "name": "文儒坊",
    "category": "sightseeing",
    "duration_minutes": 120,
    "rating": 4.0,
    "lat": 26.08092,
    "lon": 119.293874,
    "description": "电话: 0591-83890057 | 地址: 南街街道乌山路114号附近 | 类别: 风景名胜;风景名胜相关;旅游景点",
    "city": "福州"
  },
  {
    "name": "石天景区",
    "category": "sightseeing",
    "duration_minutes": 120,
    "rating": 4.0,
    "lat": 26.074958,
    "lon": 119.295486,
    "description": "地址: 乌山路乌山历史风貌区 | 类别: 风景名胜;风景名胜相关;旅游景点",
    "city": "福州"
  },
  {
    "name": "高盖山公园-北入口广场",
    "category": "outdoor",
    "duration_minutes": 120,
    "rating": 4.0,
    "lat": 26.01807,
    "lon": 119.314588,
    "description": "地址: 首山路140号金融学院边高盖山公园内(东北角) | 类别: 风景名胜;公园广场;城市广场",
    "city": "福州"
  },
  {
    "name": "地藏寺",
    "category": "history",
    "duration_minutes": 120,
    "rating": 4.0,
    "lat": 26.092551,
    "lon": 119.319917,
    "description": "地址: 琯尾街195号 | 类别: 风景名胜;风景名胜;寺庙道观",
    "city": "福州"
  },
  {
    "name": "眺望台",
    "category": "sightseeing",
    "duration_minutes": 120,
    "rating": 4.0,
    "lat": 26.052973,
    "lon": 119.388668,
    "description": "电话: 0591-88055770 | 地址: 鼓山镇鼓山旅游景区内 | 类别: 风景名胜;风景名胜相关;旅游景点",
    "city": "福州"
  }
]