[
  {
    "name": "钱江世纪公园",
    "category": "outdoor",
    "duration_minutes": 120,
    "rating": 4.0,
    "lat": 30.241346,
    "lon": 120.233607,
    "description": "地址: 观澜路1号 | 类别: 风景名胜;公园广场;公园",
    "city": "杭州"
  },
  {
    "name": "清河坊历史文化特色街区",
    "category": "sightseeing",
    "duration_minutes": 120,
    "rating": 4.0,
    "lat": 30.239827,
    "lon": 120.169899,
    "description": "电话: 0571-87822494;12301 | 地址: 河坊街180号 | 类别: 风景名胜;风景名胜;国家级景点",
    "city": "杭州"
  },
  {
    "name": "五柳巷历史街区",
    "category": "sightseeing",
    "duration_minutes": 120,
    "rating": 4.0,
    "lat": 30.242162,
    "lon": 120.176615,
    "description": "地址: 小营街道斗富二桥西河下9号附近 | 类别: 风景名胜;风景名胜;风景名胜",
    "city": "杭州"
  },
  {
    "name": "杭州基督教会崇一堂",
    "category": "sightseeing",
    "duration_minutes": 120,
    "rating": 4.0,
    "lat": 30.259353,
    "lon": 120.208778,
    "description": "电话: 0571-86961163 | 地址: 新塘路26号(近庆春广场) | 类别: 风景名胜;风景名胜;教堂",
    "city": "杭州"
  },
  {
    "name": "钱江新城灯光秀",
    "category": "outdoor",
    "duration_minutes": 120,
    "rating": 4.0,
    "lat": 30.244481,
    "lon": 120.215428,
    "description": "地址: 新业路39号(市民中心地铁站M1口或N2口) | 类别: 风景名胜;风景名胜;风景名胜",
    "city": "杭州"
  },
  {
    "name": "杭州西湖风景名胜区-断桥残雪",
    "category": "outdoor",
    "duration_minutes": 120,
    "rating": 4.0,
    "lat": 30.258151,
    "lon": 120.151347,
    "description": "电话: 0571-87179539 | 地址: 龙井路1号杭州西湖风景名胜区内(东北角) | 类别: 风景名胜;风景名胜;国家级景点",
    "city": "杭州"
  },
  {
    "name": "吴山景区",
    "category": "outdoor",
    "duration_minutes": 120,
    "rating": 4.0,
    "lat": 30.23412,
    "lon": 120.165134,
    "description": "电话: 0571-87035091 | 地址: 清波街道吴山广场2号杭州吴山艺术团附近 | 类别: 风景名胜;风景名胜;风景名胜",
    "city": "杭州"
  },
  {
    "name": "湖滨步行街",
    "category": "outdoor",
    "duration_minutes": 120,
    "rating": 4.0,
    "lat": 30.254158,
    "lon": 120.162923,
    "description": "电话: 0571-88161688 | 地址: 凤起路539-4号(龙翔桥地铁站C口步行120米) | 类别: 购物服务;特色商业街;步行街",
    "city": "杭州"
  },
  {
    "name": "胡雪岩故居",
    "category": "history",
    "duration_minutes": 120,
    "rating": 4.0,
    "lat": 30.237273,
    "lon": 120.172906,
    "description": "电话: 0571-86821131 | 地址: 元宝街18号 | 类别: 风景名胜;风景名胜;纪念馆",
    "city": "杭州"
  },
  {
    "name": "清河坊步行街",
    "category": "sightseeing",
    "duration_minutes": 120,
    "rating": 4.0,
    "lat": 30.240073,
    "lon": 120.168923,
    "description": "地址: 河坊街 | 类别: 购物服务;特色商业街;步行街",
    "city": "杭州"
  },
  {
    "name": "鼓楼",
    "category": "sightseeing",
    "duration_minutes": 120,
    "rating": 4.0,
    "lat": 30.237994,
    "lon": 120.171386,
    "description": "地址: 中山南路501号(近十五奎巷) | 类别: 风景名胜;风景名胜;风景名胜",
    "city": "杭州"
  },
  {
    "name": "杭州博物馆",
    "category": "museum",
    "duration_minutes": 120,
    "rating": 4.0,
    "lat": 30.239091,
    "lon": 120.166525,
    "description": "电话: 0571-87555637 | 地址: 粮道山18号 | 类别: 科教文化服务;博物馆;博物馆",
    "city": "杭州"
  },
  {
    "name": "杭州西湖风景名胜区",
    "category": "outdoor",
    "duration_minutes": 120,
    "rating": 4.0,
    "lat": 30.222724,
    "lon": 120.121288,
    "description": "电话: 0571-87179617 | 地址: 西湖街道龙井路1号 | 类别: 风景名胜;风景名胜;国家级景点",
    "city": "杭州"
  },
  {
    "name": "吴山广场",
    "category": "outdoor",
    "duration_minutes": 120,
    "rating": 4.0,
    "lat": 30.239183,
    "lon": 120.163686,
    "description": "地址: 延安南路1号附近 | 类别: 风景名胜;公园广场;城市广场",
    "city": "杭州"
  },
  {
    "name": "雷峰塔景区",
    "category": "history",
    "duration_minutes": 120,
    "rating": 4.0,
    "lat": 30.230934,
    "lon": 120.148849,
    "description": "电话: 0571-87982111 | 地址: 南山路15号 | 类别: 风景名胜;风景名胜;国家级景点",
    "city": "杭州"
  },
  {
    "name": "杭州西湖风景名胜区-湖滨公园",
    "category": "outdoor",
    "duration_minutes": 120,
    "rating": 4.0,
    "lat": 30.256583,
    "lon": 120.158818,
    "description": "地址: 龙井路1号杭州西湖风景名胜区内(东北角) | 类别: 风景名胜;公园广场;公园",
    "city": "杭州"
  },
  {
    "name": "西湖文化广场",
    "category": "outdoor",
    "duration_minutes": 120,
    "rating": 4.0,
    "lat": 30.276652,
    "lon": 120.163755,
    "description": "地址: 环城北路47号 | 类别: 风景名胜;公园广场;城市广场",
    "city": "杭州"
  },
  {
    "name": "南宋德寿宫遗址博物馆",
    "category": "museum",
    "duration_minutes": 120,
    "rating": 4.0,
    "lat": 30.238678,
    "lon": 120.173273,
    "description": "电话: 0571-86521875 | 地址: 望江路228-264号(江城路地铁站E口步行460米) | 类别: 科教文化服务;博物馆;博物馆",
    "city": "杭州"
  },
  {
    "name": "杭州西湖风景名胜区-音乐喷泉",
    "category": "outdoor",
    "duration_minutes": 120,
    "rating": 4.0,
    "lat": 30.253911,
    "lon": 120.161115,
    "description": "电话: 0571-87179619 | 地址: 杭州西湖风景名胜区内(龙翔桥地铁站出入口步行260米) | 类别: 风景名胜;风景名胜;国家级景点",
    "city": "杭州"
  },
  {
    "name": "钱江世纪城沿江公园",
    "category": "outdoor",
    "duration_minutes": 120,
    "rating": 4.0,
    "lat": 30.235428,
    "lon": 120.228306,
    "description": "地址: 萧山区 | 类别: 地名地址信息;交通地名;道路名",
    "city": "杭州"
  },
  {
    "name": "武林广场",
    "category": "outdoor",
    "duration_minutes": 120,
    "rating": 4.0,
    "lat": 30.271001,
    "lon": 120.163325,
    "description": "地址: 天水街道体育场路208号 | 类别: 风景名胜;公园广场;城市广场",
    "city": "杭州"
  },
  {
    "name": "杭州西湖风景名胜区-柳浪闻莺",
    "category": "outdoor",
    "duration_minutes": 120,
    "rating": 4.0,
    "lat": 30.240389,
    "lon": 120.156326,
    "description": "电话: 0571-87179539 | 地址: 清波街道南山路87号 | 类别: 风景名胜;风景名胜;风景名胜",
    "city": "杭州"
  },
  {
    "name": "十五奎巷历史文化街区",
    "category": "sightseeing",
    "duration_minutes": 120,
    "rating": 4.0,
    "lat": 30.237422,
    "lon": 120.17094,
    "description": "地址: 十五奎巷观湖假日酒店(西湖河坊街店) | 类别: 购物服务;特色商业街;特色商业街|风景名胜;风景名胜相关;旅游景点",
    "city": "杭州"
  },
  {
    "name": "西湖天地",
    "category": "outdoor",
    "duration_minutes": 120,
    "rating": 4.0,
    "lat": 30.247034,
    "lon": 120.159282,
    "description": "电话: 0571-87026161 | 地址: 南山路147号9C | 类别: 风景名胜;风景名胜相关;旅游景点",
    "city": "杭州"
  },
  {
    "name": "杭州西湖风景名胜区-太子湾公园",
    "category": "outdoor",
    "duration_minutes": 120,
    "rating": 4.0,
    "lat": 30.22547,
    "lon": 120.142177,
    "description": "电话: 0571-87963701 | 地址: 南星街道南山路1-1号 | 类别: 风景名胜;公园广场;公园",
    "city": "杭州"
  },
  {
    "name": "钱江新城·森林公园",
    "category": "outdoor",
    "duration_minutes": 120,
    "rating": 4.0,
    "lat": 30.239734,
    "lon": 120.210112,
    "description": "地址: 四季青街道五星路181号 | 类别: 风景名胜;公园广场;公园",
    "city": "杭州"
  },
  {
    "name": "钱江龙",
    "category": "outdoor",
    "duration_minutes": 120,
    "rating": 4.0,
    "lat": 30.211897,
    "lon": 120.202578,
    "description": "地址: 江汉路闻涛路交叉口射潮广场 | 类别: 风景名胜;风景名胜;风景名胜",
    "city": "杭州"
  },
  {
    "name": "CBD公园",
    "category": "outdoor",
    "duration_minutes": 120,
    "rating": 4.0,
    "lat": 30.237933,
    "lon": 120.212285,
    "description": "地址: 五星路181号(市民中心地铁站N3B口步行460米) | 类别: 风景名胜;公园广场;公园",
    "city": "杭州"
  },
  {
    "name": "吴山景区-城隍阁景区",
    "category": "outdoor",
    "duration_minutes": 120,
    "rating": 4.0,
    "lat": 30.236413,
    "lon": 120.164726,
    "description": "电话: 0571-87035091 | 地址: 吴山3号(吴山广场山顶) | 类别: 风景名胜;风景名胜;风景名胜",
    "city": "杭州"
  },
  {
    "name": "少年宫广场",
    "category": "outdoor",
    "duration_minutes": 120,
    "rating": 4.0,
    "lat": 30.260903,
    "lon": 120.155558,
    "description": "电话: 0571-87179539 | 地址: 北山街与环城西路交汇处西150米 | 类别: 风景名胜;公园广场;公园广场",
    "city": "杭州"
  },
  {
    "name": "奥体中心渡埠",
    "category": "sightseeing",
    "duration_minutes": 120,
    "rating": 4.0,
    "lat": 30.229215,
    "lon": 120.222591,
    "description": "电话: 18072768401 | 地址: 闻涛路与飞虹路交叉口西120米 | 类别: 风景名胜;风景名胜;风景名胜|生活服务;生活服务场所;生活服务场所",
    "city": "杭州"
  },
  {
    "name": "江和美海洋公园",
    "category": "outdoor",
    "duration_minutes": 120,
    "rating": 4.0,
    "lat": 30.268541,
    "lon": 120.227506,
    "description": "电话: 0571-86797209;0571-86968209;0571-87679888 | 地址: 杭海路601号(三堡地铁站B1口旁) | 类别: 风景名胜;公园广场;公园广场",
    "city": "杭州"
  },
  {
    "name": "城市阳台江堤步道",
    "category": "outdoor",
    "duration_minutes": 120,
    "rating": 4.0,
    "lat": 30.24515,
    "lon": 120.219288,
    "description": "地址: 四季青街道之江路1122号 | 类别: 风景名胜;风景名胜相关;旅游景点",
    "city": "杭州"
  },
  {
    "name": "飞来峰",
    "category": "sightseeing",
    "duration_minutes": 120,
    "rating": 4.0,
    "lat": 30.239119,
    "lon": 120.101101,
    "description": "电话: 0571-87969691 | 地址: 灵隐街道灵隐路法云弄1号 | 类别: 风景名胜;风景名胜;风景名胜",
    "city": "杭州"
  },
  {
    "name": "杭州西湖风景名胜区-万松书院",
    "category": "outdoor",
    "duration_minutes": 120,
    "rating": 4.0,
    "lat": 30.226809,
    "lon": 120.160498,
    "description": "电话: 0571-86079490;0571-86079486;0571-86077144 | 地址: 万松岭路81号 | 类别: 风景名胜;风景名胜;风景名胜",
    "city": "杭州"
  },
  {
    "name": "西溪国家湿地公园",
    "category": "outdoor",
    "duration_minutes": 120,
    "rating": 4.0,
    "lat": 30.255079,
    "lon": 120.061159,
    "description": "电话: 0571-88106696;0571-88106688 | 地址: 天目山路518号 | 类别: 风景名胜;风景名胜;国家级景点",
    "city": "杭州"
  },
  {
    "name": "杭州钱塘江夜游(滨江码头)",
    "category": "outdoor",
    "duration_minutes": 120,
    "rating": 4.0,
    "lat": 30.211689,
    "lon": 120.200852,
    "description": "电话: 0571-85120889;0571-85226280 | 地址: 闻涛路滨江码头 | 类别: 风景名胜;风景名胜相关;旅游景点",
    "city": "杭州"
  },
  {
    "name": "河坊街景区",
    "category": "sightseeing",
    "duration_minutes": 120,
    "rating": 4.0,
    "lat": 30.240584,
    "lon": 120.169895,
    "description": "电话: 0571-87813477 | 地址: 河坊街 | 类别: 风景名胜;风景名胜;风景名胜|购物服务;特色商业街;特色商业街",
    "city": "杭州"
  },
  {
    "name": "灵隐寺",
    "category": "sightseeing",
    "duration_minutes": 120,
    "rating": 4.0,
    "lat": 30.240826,
    "lon": 120.101406,
    "description": "地址: 法云弄1号 | 类别: 风景名胜;风景名胜;国家级景点",
    "city": "杭州"
  },
  {
    "name": "杭州西湖风景名胜区-花港观鱼",
    "category": "outdoor",
    "duration_minutes": 120,
    "rating": 4.0,
    "lat": 30.230233,
    "lon": 120.139095,
    "description": "电话: 0571-87963033 | 地址: 西湖街道西山路5-1号 | 类别: 风景名胜;风景名胜;风景名胜",
    "city": "杭州"
  },
  {
    "name": "杭州西湖风景名胜区宝石山",
    "category": "outdoor",
    "duration_minutes": 120,
    "rating": 4.0,
    "lat": 30.259804,
    "lon": 120.140608,
    "description": "电话: 0571-87179603 | 地址: 曙光路43附近 | 类别: 风景名胜;风景名胜;风景名胜",
    "city": "杭州"
  },
  {
    "name": "水裹汤泉(杭州萧山店)",
    "category": "outdoor",
    "duration_minutes": 120,
    "rating": 4.0,
    "lat": 30.242638,
    "lon": 120.242574,
    "description": "电话: 0571-82395566 | 地址: 宁围街道钱江世纪公园A区3幢3单元 | 类别: 生活服务;洗浴推拿场所;洗浴推拿场所",
    "city": "杭州"
  },
  {
    "name": "西湖游船-二公园码头",
    "category": "outdoor",
    "duration_minutes": 120,
    "rating": 4.0,
    "lat": 30.252504,
    "lon": 120.162016,
    "description": "地址: 西湖街道龙井路1号杭州西湖风景名胜区(东北角) | 类别: 交通设施服务;港口码头;港口码头",
    "city": "杭州"
  },
  {
    "name": "西湖博物馆",
    "category": "museum",
    "duration_minutes": 120,
    "rating": 4.0,
    "lat": 30.241739,
    "lon": 120.157449,
    "description": "电话: 0571-87882279;0571-87882333 | 地址: 南山路89号 | 类别: 科教文化服务;博物馆;博物馆",
    "city": "杭州"
  },
  {
    "name": "杭州西湖风景名胜区-涌金公园",
    "category": "outdoor",
    "duration_minutes": 120,
    "rating": 4.0,
    "lat": 30.245915,
    "lon": 120.160139,
    "description": "电话: 0571-87179539 | 地址: 杭州西湖风景名胜区内(东北角) | 类别: 风景名胜;公园广场;公园",
    "city": "杭州"
  },
  {
    "name": "杭州西湖风景名胜区-曲院风荷",
    "category": "outdoor",
    "duration_minutes": 120,
    "rating": 4.0,
    "lat": 30.249287,
    "lon": 120.133333,
    "description": "电话: 0571-87977767 | 地址: 杭州西湖风景名胜区杨公堤38号 | 类别: 风景名胜;风景名胜;风景名胜",
    "city": "杭州"
  },
  {
    "name": "杭州西湖风景名胜区-钱王祠",
    "category": "outdoor",
    "duration_minutes": 120,
    "rating": 4.0,
    "lat": 30.242848,
    "lon": 120.157932,
    "description": "电话: 0571-87068289 | 地址: 南山路11号 | 类别: 风景名胜;风景名胜;风景名胜",
    "city": "杭州"
  },
  {
    "name": "杭州西湖风景名胜区-敕建净慈禅寺",
    "category": "history",
    "duration_minutes": 120,
    "rating": 4.0,
    "lat": 30.228643,
    "lon": 120.149165,
    "description": "电话: 0571-87970190;0571-87995600 | 地址: 南山路56号 | 类别: 风景名胜;风景名胜;寺庙道观",
    "city": "杭州"
  },
  {
    "name": "晓霞弄",
    "category": "sightseeing",
    "duration_minutes": 120,
    "rating": 4.0,
    "lat": 30.237603,
    "lon": 120.169858,
    "description": "地址: 十五奎巷与中山南路交叉口西140米 | 类别: 风景名胜;风景名胜;风景名胜",
    "city": "杭州"
  },
  {
    "name": "浙江自然博物院",
    "category": "museum",
    "duration_minutes": 120,
    "rating": 4.0,
    "lat": 30.276814,
    "lon": 120.164581,
    "description": "电话: 0571-88050941;0571-88212712 | 地址: 西湖文化广场6号 | 类别: 科教文化服务;博物馆;博物馆",
    "city": "杭州"
  },
  {
    "name": "西湖风景区-苏堤",
    "category": "outdoor",
    "duration_minutes": 120,
    "rating": 4.0,
    "lat": 30.2287,
    "lon": 120.144497,
    "description": "地址: 龙井路1号杭州西湖风景名胜区内(东侧) | 类别: 风景名胜;风景名胜;风景名胜",
    "city": "杭州"
  },
  {
    "name": "蜻蜓公园",
    "category": "outdoor",
    "duration_minutes": 120,
    "rating": 4.0,
    "lat": 30.258134,
    "lon": 120.201578,
    "description": "地址: 庆春东路与秋涛北路交叉口东北100米 | 类别: 风景名胜;公园广场;公园",
    "city": "杭州"
  },
  {
    "name": "杭州植物园",
    "category": "outdoor",
    "duration_minutes": 120,
    "rating": 4.0,
    "lat": 30.252876,
    "lon": 120.116979,
    "description": "电话: 0571-87992110;0571-87961904 | 地址: 桃源岭1号 | 类别: 风景名胜;公园广场;植物园",
    "city": "杭州"
  },
  {
    "name": "杭州西湖风景名胜区-六公园",
    "category": "outdoor",
    "duration_minutes": 120,
    "rating": 4.0,
    "lat": 30.258607,
    "lon": 120.15777,
    "description": "电话: 0571-87179539 | 地址: 杭州西湖风景名胜区内(东北角) | 类别: 风景名胜;公园广场;公园",
    "city": "杭州"
  },
  {
    "name": "浙江省博物馆(孤山馆区)",
    "category": "museum",
    "duration_minutes": 120,
    "rating": 4.0,
    "lat": 30.251243,
    "lon": 120.143778,
    "description": "电话: 0571-86013085 | 地址: 孤山路25号 | 类别: 科教文化服务;博物馆;博物馆",
    "city": "杭州"
  },
  {
    "name": "杭州西湖风景名胜区-岳王庙",
    "category": "history",
    "duration_minutes": 120,
    "rating": 4.0,
    "lat": 30.252443,
    "lon": 120.13459,
    "description": "电话: 0571-87969670;0571-87986653 | 地址: 北山街80号 | 类别: 风景名胜;风景名胜;寺庙道观",
    "city": "杭州"
  },
  {
    "name": "望江公园",
    "category": "outdoor",
    "duration_minutes": 120,
    "rating": 4.0,
    "lat": 30.225584,
    "lon": 120.198296,
    "description": "地址: 之江路844号 | 类别: 风景名胜;公园广场;公园",
    "city": "杭州"
  },
  {
    "name": "杭州动物园",
    "category": "outdoor",
    "duration_minutes": 120,
    "rating": 4.0,
    "lat": 30.212224,
    "lon": 120.133069,
    "description": "电话: 0571-87981257;0571-87970657 | 地址: 虎跑路40号 | 类别: 风景名胜;公园广场;动物园",
    "city": "杭州"
  },
  {
    "name": "杭州孔庙",
    "category": "history",
    "duration_minutes": 120,
    "rating": 4.0,
    "lat": 30.241806,
    "lon": 120.161907,
    "description": "电话: 0571-87012922;0571-87015011;0571-87062125 | 地址: 府学巷8号大成殿前 | 类别: 风景名胜;风景名胜;风景名胜",
    "city": "杭州"
  },
  {
    "name": "北山街历史文化街区",
    "category": "outdoor",
    "duration_minutes": 120,
    "rating": 4.0,
    "lat": 30.259216,
    "lon": 120.152264,
    "description": "地址: 西湖街道白堤西湖风景区 | 类别: 风景名胜;风景名胜;风景名胜",
    "city": "杭州"
  },
  {
    "name": "杭州亚运会博物馆",
    "category": "museum",
    "duration_minutes": 120,
    "rating": 4.0,
    "lat": 30.228256,
    "lon": 120.229057,
    "description": "电话: 0571-88363811 | 地址: 杭州奥体中心体育场西南角B1层 | 类别: 科教文化服务;博物馆;博物馆",
    "city": "杭州"
  },
  {
    "name": "杭州西湖风景名胜区-三潭印月",
    "category": "outdoor",
    "duration_minutes": 120,
    "rating": 4.0,
    "lat": 30.238845,
    "lon": 120.145369,
    "description": "地址: 龙井路1号杭州西湖风景名胜区内(东北角) | 类别: 风景名胜;风景名胜;风景名胜",
    "city": "杭州"
  },
  {
    "name": "白蛇飞渡桥",
    "category": "history",
    "duration_minutes": 120,
    "rating": 4.0,
    "lat": 30.229403,
    "lon": 120.159111,
    "description": "地址: 万松岭路89号 | 类别: 风景名胜;风景名胜;风景名胜",
    "city": "杭州"
  },
  {
    "name": "西湖游船-钱王祠码头",
    "category": "outdoor",
    "duration_minutes": 120,
    "rating": 4.0,
    "lat": 30.243167,
    "lon": 120.156722,
    "description": "地址: 南山路11号(钱王祠对面) | 类别: 交通设施服务;港口码头;港口码头",
    "city": "杭州"
  },
  {
    "name": "杭州西湖风景名胜区-白堤",
    "category": "outdoor",
    "duration_minutes": 120,
    "rating": 4.0,
    "lat": 30.255701,
    "lon": 120.149189,
    "description": "地址: 西湖街道龙井路1号杭州西湖风景名胜区内(东北角) | 类别: 风景名胜;风景名胜;风景名胜",
    "city": "杭州"
  },
  {
    "name": "八卦田遗址公园",
    "category": "outdoor",
    "duration_minutes": 120,
    "rating": 4.0,
    "lat": 30.211211,
    "lon": 120.151779,
    "description": "地址: 南星街道南星街道虎玉路41号 | 类别: 风景名胜;风景名胜;省级景点",
    "city": "杭州"
  },
  {
    "name": "杭州西湖风景名胜区-岳湖",
    "category": "outdoor",
    "duration_minutes": 120,
    "rating": 4.0,
    "lat": 30.250224,
    "lon": 120.134892,
    "description": "电话: 0571-87179539 | 地址: 杭州西湖风景名胜区杨公堤38号杭州西湖风景名胜区-曲院风荷(东北角) | 类别: 风景名胜;风景名胜相关;旅游景点",
    "city": "杭州"
  },
  {
    "name": "雷峰塔景区雷峰塔",
    "category": "history",
    "duration_minutes": 120,
    "rating": 4.0,
    "lat": 30.231612,
    "lon": 120.149715,
    "description": "电话: 0571-87982111 | 地址: 南山路15号 | 类别: 风景名胜;风景名胜;国家级景点",
    "city": "杭州"
  },
  {
    "name": "市民广场",
    "category": "outdoor",
    "duration_minutes": 120,
    "rating": 4.0,
    "lat": 30.244705,
    "lon": 120.213056,
    "description": "电话: 0571-81106343 | 地址: 新业路(市民中心地铁站L口步行70米) | 类别: 风景名胜;公园广场;城市广场",
    "city": "杭州"
  },
  {
    "name": "CBD公园",
    "category": "outdoor",
    "duration_minutes": 120,
    "rating": 4.0,
    "lat": 30.25025,
    "lon": 120.222806,
    "description": "地址: 之江路与庆春东路交叉口南60米 | 类别: 风景名胜;公园广场;公园",
    "city": "杭州"
  },
  {
    "name": "虎跑公园",
    "category": "outdoor",
    "duration_minutes": 120,
    "rating": 4.0,
    "lat": 30.207505,
    "lon": 120.130095,
    "description": "地址: 虎跑路39号 | 类别: 风景名胜;公园广场;公园",
    "city": "杭州"
  },
  {
    "name": "大兜路历史文化街区",
    "category": "sightseeing",
    "duration_minutes": 120,
    "rating": 4.0,
    "lat": 30.300095,
    "lon": 120.144891,
    "description": "地址: 大兜路(香积寺地铁站出入口步行250米) | 类别: 风景名胜;风景名胜相关;旅游景点",
    "city": "杭州"
  },
  {
    "name": "杭州西湖风景名胜区-古湧金门",
    "category": "outdoor",
    "duration_minutes": 120,
    "rating": 4.0,
    "lat": 30.246411,
    "lon": 120.160502,
    "description": "电话: 0571-87026098 | 地址: 杭州西湖风景名胜区南山路南山路 | 类别: 风景名胜;风景名胜;风景名胜",
    "city": "杭州"
  },
  {
    "name": "杭州西湖风景名胜区-郭庄",
    "category": "outdoor",
    "duration_minutes": 120,
    "rating": 4.0,
    "lat": 30.243918,
    "lon": 120.132267,
    "description": "电话: 0571-87963033;0571-87986026 | 地址: 杨公堤28号(卧龙桥旁) | 类别: 风景名胜;风景名胜;风景名胜",
    "city": "杭州"
  },
  {
    "name": "杭州西湖风景名胜区-下满觉陇",
    "category": "outdoor",
    "duration_minutes": 120,
    "rating": 4.0,
    "lat": 30.219415,
    "lon": 120.130322,
    "description": "电话: 0571-87179539 | 地址: 满觉陇路 | 类别: 风景名胜;风景名胜;风景名胜",
    "city": "杭州"
  },
  {
    "name": "香积寺",
    "category": "history",
    "duration_minutes": 120,
    "rating": 4.0,
    "lat": 30.298666,
    "lon": 120.146556,
    "description": "电话: 0571-88316633 | 地址: 香积寺巷1号(近信义坊) | 类别: 风景名胜;风景名胜;寺庙道观",
    "city": "杭州"
  },
  {
    "name": "中国丝绸博物馆",
    "category": "museum",
    "duration_minutes": 120,
    "rating": 4.0,
    "lat": 30.22287,
    "lon": 120.151292,
    "description": "电话: 0571-87035223 | 地址: 玉皇山路73-1号(近南山路) | 类别: 科教文化服务;博物馆;博物馆",
    "city": "杭州"
  },
  {
    "name": "杭州西湖风景名胜区-保俶塔",
    "category": "outdoor",
    "duration_minutes": 120,
    "rating": 4.0,
    "lat": 30.260999,
    "lon": 120.148084,
    "description": "电话: 0571-87996663 | 地址: 北山路宝石前山路宝石山上(近宝石流霞) | 类别: 风景名胜;风景名胜;风景名胜",
    "city": "杭州"
  },
  {
    "name": "凤凰寺",
    "category": "sightseeing",
    "duration_minutes": 120,
    "rating": 4.0,
    "lat": 30.245453,
    "lon": 120.170229,
    "description": "地址: 中山中路227号(近西湖大道) | 类别: 风景名胜;风景名胜;回教寺",
    "city": "杭州"
  },
  {
    "name": "西兴古镇",
    "category": "sightseeing",
    "duration_minutes": 120,
    "rating": 4.0,
    "lat": 30.189371,
    "lon": 120.225636,
    "description": "地址: 官河路105附近 | 类别: 风景名胜;风景名胜;世界遗产",
    "city": "杭州"
  },
  {
    "name": "杭州西湖风景名胜区北高峰",
    "category": "outdoor",
    "duration_minutes": 120,
    "rating": 4.0,
    "lat": 30.245493,
    "lon": 120.097914,
    "description": "地址: 法云弄1号灵隐寺后 | 类别: 地名地址信息;自然地名;山|风景名胜;风景名胜;风景名胜",
    "city": "杭州"
  },
  {
    "name": "杭州西湖风景名胜区-西泠桥",
    "category": "outdoor",
    "duration_minutes": 120,
    "rating": 4.0,
    "lat": 30.251775,
    "lon": 120.138677,
    "description": "电话: 0571-87996663 | 地址: 北山街与孤山路交叉口 | 类别: 风景名胜;风景名胜;风景名胜",
    "city": "杭州"
  },
  {
    "name": "西湖风景区-荷花区",
    "category": "outdoor",
    "duration_minutes": 120,
    "rating": 4.0,
    "lat": 30.250924,
    "lon": 120.162404,
    "description": "地址: 杭州西湖风景名胜区-湖滨公园 | 类别: 风景名胜;风景名胜相关;旅游景点",
    "city": "杭州"
  },
  {
    "name": "世纪花园",
    "category": "outdoor",
    "duration_minutes": 120,
    "rating": 4.0,
    "lat": 30.248649,
    "lon": 120.217398,
    "description": "电话: 15190729363 | 地址: 江锦路(江锦路地铁站A2口步行380米) | 类别: 风景名胜;公园广场;公园",
    "city": "杭州"
  },
  {
    "name": "杭州西湖风景名胜区-杭州白塔公园",
    "category": "outdoor",
    "duration_minutes": 120,
    "rating": 4.0,
    "lat": 30.199481,
    "lon": 120.141759,
    "description": "电话: 0571-87179539 | 地址: 南星街道南星街道杭州天仁合艺美术馆之江路 | 类别: 风景名胜;公园广场;公园",
    "city": "杭州"
  },
  {
    "name": "西湖游船-少年宫码头",
    "category": "outdoor",
    "duration_minutes": 120,
    "rating": 4.0,
    "lat": 30.260012,
    "lon": 120.155228,
    "description": "地址: 龙井路1号杭州西湖风景名胜区内(东北角) | 类别: 交通设施服务;交通服务相关;交通服务相关",
    "city": "杭州"
  },
  {
    "name": "京杭大运河杭州景区",
    "category": "sightseeing",
    "duration_minutes": 120,
    "rating": 4.0,
    "lat": 30.302955,
    "lon": 120.141908,
    "description": "地址: 香积寺码头 | 类别: 风景名胜;风景名胜;风景名胜",
    "city": "杭州"
  },
  {
    "name": "杭州西湖风景名胜区-石屋洞",
    "category": "outdoor",
    "duration_minutes": 120,
    "rating": 4.0,
    "lat": 30.219835,
    "lon": 120.130638,
    "description": "电话: 0571-87179539 | 地址: 西湖街道西湖风景区下满觉陇路3号 | 类别: 餐饮服务;茶艺馆;茶艺馆|风景名胜;风景名胜相关;旅游景点",
    "city": "杭州"
  },
  {
    "name": "湘湖国家旅游度假区",
    "category": "outdoor",
    "duration_minutes": 120,
    "rating": 4.0,
    "lat": 30.13226,
    "lon": 120.217125,
    "description": "电话: 0571-82360666 | 地址: 湘湖路132号 | 类别: 风景名胜;风景名胜;国家级景点",
    "city": "杭州"
  },
  {
    "name": "左岸万国花园",
    "category": "outdoor",
    "duration_minutes": 120,
    "rating": 4.0,
    "lat": 30.21889,
    "lon": 120.212877,
    "description": "地址: 长河街道闻涛路 | 类别: 风景名胜;公园广场;公园",
    "city": "杭州"
  },
  {
    "name": "城市阳台",
    "category": "sightseeing",
    "duration_minutes": 120,
    "rating": 4.0,
    "lat": 30.241827,
    "lon": 120.216803,
    "description": "地址: 四季青街道之江路1078号 | 类别: 风景名胜;风景名胜;风景名胜",
    "city": "杭州"
  },
  {
    "name": "庆春广场(建设中)",
    "category": "outdoor",
    "duration_minutes": 120,
    "rating": 4.0,
    "lat": 30.258565,
    "lon": 120.205378,
    "description": "地址: 庆春路1号(庆春广场地铁站A4口旁) | 类别: 风景名胜;公园广场;城市广场",
    "city": "杭州"
  },
  {
    "name": "孤山公园",
    "category": "outdoor",
    "duration_minutes": 120,
    "rating": 4.0,
    "lat": 30.251654,
    "lon": 120.142481,
    "description": "电话: 0571-87179603 | 地址: 西湖街道孤山北路3号 | 类别: 风景名胜;公园广场;公园",
    "city": "杭州"
  },
  {
    "name": "杭州西湖风景名胜区-集贤亭",
    "category": "outdoor",
    "duration_minutes": 120,
    "rating": 4.0,
    "lat": 30.250628,
    "lon": 120.161722,
    "description": "电话: 0571-87977767 | 地址: 杭州西湖风景名胜区内(东北角) | 类别: 风景名胜;风景名胜;风景名胜",
    "city": "杭州"
  },
  {
    "name": "杭州西湖风景名胜区-长桥公园",
    "category": "outdoor",
    "duration_minutes": 120,
    "rating": 4.0,
    "lat": 30.232963,
    "lon": 120.155111,
    "description": "电话: 0571-87179539 | 地址: 南山路 | 类别: 风景名胜;公园广场;公园",
    "city": "杭州"
  },
  {
    "name": "杭博空中花园",
    "category": "sightseeing",
    "duration_minutes": 120,
    "rating": 4.0,
    "lat": 30.229504,
    "lon": 120.238785,
    "description": "地址: 奔竞大道353号(博览中心地铁站D口步行420米) | 类别: 风景名胜;风景名胜;风景名胜",
    "city": "杭州"
  },
  {
    "name": "亚运主题公园",
    "category": "outdoor",
    "duration_minutes": 120,
    "rating": 4.0,
    "lat": 30.232717,
    "lon": 120.228678,
    "description": "地址: 盈丰街道闻涛路杭州奥体中心体育馆旁 | 类别: 风景名胜;公园广场;公园",
    "city": "杭州"
  },
  {
    "name": "西泠印社社址",
    "category": "sightseeing",
    "duration_minutes": 120,
    "rating": 4.0,
    "lat": 30.250279,
    "lon": 120.139948,
    "description": "电话: 0571-87011563 | 地址: 孤山路31号(中山公园西面) | 类别: 购物服务;专卖店;礼品饰品店|风景名胜;风景名胜;风景名胜",
    "city": "杭州"
  },
  {
    "name": "杭州西湖风景名胜区-黄龙洞",
    "category": "outdoor",
    "duration_minutes": 120,
    "rating": 4.0,
    "lat": 30.264511,
    "lon": 120.138594,
    "description": "电话: 0571-87972468;0571-87979505 | 地址: 黄龙商圈曙光路69号(黄龙洞地铁站C口步行100米) | 类别: 风景名胜;风景名胜;风景名胜",
    "city": "杭州"
  },
  {
    "name": "钱江世纪公园彩虹跑道",
    "category": "outdoor",
    "duration_minutes": 120,
    "rating": 4.0,
    "lat": 30.245997,
    "lon": 120.235195,
    "description": "地址: 盈丰街道钱江世纪公园 | 类别: 风景名胜;风景名胜;风景名胜",
    "city": "杭州"
  },
  {
    "name": "灵顺寺",
    "category": "history",
    "duration_minutes": 120,
    "rating": 4.0,
    "lat": 30.245475,
    "lon": 120.097915,
    "description": "电话: 0571-87963313 | 地址: 灵隐街道白乐桥7号 | 类别: 风景名胜;风景名胜;寺庙道观",
    "city": "杭州"
  },
  {
    "name": "浙江革命烈士纪念馆",
    "category": "history",
    "duration_minutes": 120,
    "rating": 4.0,
    "lat": 30.230586,
    "lon": 120.161606,
    "description": "电话: 0571-87031841 | 地址: 万松岭路100-1号 | 类别: 风景名胜;风景名胜;纪念馆",
    "city": "杭州"
  },
  {
    "name": "章家坝运河公园",
    "category": "outdoor",
    "duration_minutes": 120,
    "rating": 4.0,
    "lat": 30.277599,
    "lon": 120.215426,
    "description": "地址: 运河东路501号 | 类别: 风景名胜;公园广场;公园",
    "city": "杭州"
  },
  {
    "name": "杭州清真寺",
    "category": "sightseeing",
    "duration_minutes": 120,
    "rating": 4.0,
    "lat": 30.274373,
    "lon": 120.220518,
    "description": "电话: 0571-85888751;0571-85888761 | 地址: 运河东路301号 | 类别: 风景名胜;风景名胜;回教寺",
    "city": "杭州"
  },
  {
    "name": "钱王射潮",
    "category": "sightseeing",
    "duration_minutes": 120,
    "rating": 4.0,
    "lat": 30.209102,
    "lon": 120.196532,
    "description": "地址: 闻涛路 | 类别: 风景名胜;风景名胜;风景名胜",
    "city": "杭州"
  },
  {
    "name": "杭州西湖风景名胜区-风波亭",
    "category": "outdoor",
    "duration_minutes": 120,
    "rating": 4.0,
    "lat": 30.260081,
    "lon": 120.157564,
    "description": "电话: 0571-87179539 | 地址: 杭州西湖风景名胜区内(东北角) | 类别: 风景名胜;风景名胜;风景名胜",
    "city": "杭州"
  },
  {
    "name": "柳浪闻莺御碑亭",
    "category": "sightseeing",
    "duration_minutes": 120,
    "rating": 4.0,
    "lat": 30.243663,
    "lon": 120.157932,
    "description": "电话: 0571-87179539 | 地址: 清波街道南山路87号杭州西湖风景名胜区-柳浪闻莺 | 类别: 风景名胜;风景名胜相关;旅游景点",
    "city": "杭州"
  },
  {
    "name": "小河历史文化街区",
    "category": "sightseeing",
    "duration_minutes": 120,
    "rating": 4.0,
    "lat": 30.308302,
    "lon": 120.135337,
    "description": "地址: 小河直街51号 | 类别: 风景名胜;风景名胜;风景名胜|购物服务;特色商业街;特色商业街",
    "city": "杭州"
  },
  {
    "name": "朝晖文化公园",
    "category": "outdoor",
    "duration_minutes": 120,
    "rating": 4.0,
    "lat": 30.284688,
    "lon": 120.165959,
    "description": "电话: 0571-85103764 | 地址: 上塘路169号 | 类别: 风景名胜;公园广场;公园",
    "city": "杭州"
  },
  {
    "name": "六和塔文化公园",
    "category": "outdoor",
    "duration_minutes": 120,
    "rating": 4.0,
    "lat": 30.196338,
    "lon": 120.131487,
    "description": "电话: 0571-86591401 | 地址: 之江路16号(近钱塘江) | 类别: 风景名胜;公园广场;公园",
    "city": "杭州"
  },
  {
    "name": "杭州西湖风景名胜区-玛瑙寺",
    "category": "history",
    "duration_minutes": 120,
    "rating": 4.0,
    "lat": 30.257249,
    "lon": 120.144743,
    "description": "地址: 西湖街道龙井路1号杭州西湖风景名胜区(东北角) | 类别: 风景名胜;风景名胜;寺庙道观",
    "city": "杭州"
  },
  {
    "name": "三潭印月花港观鱼码头",
    "category": "sightseeing",
    "duration_minutes": 120,
    "rating": 4.0,
    "lat": 30.231184,
    "lon": 120.143207,
    "description": "电话: 0571-87179539 | 地址: 南山路南端与苏堤之间花港公园内 | 类别: 风景名胜;风景名胜相关;旅游景点",
    "city": "杭州"
  },
  {
    "name": "大运河杭钢公园",
    "category": "outdoor",
    "duration_minutes": 120,
    "rating": 4.0,
    "lat": 30.357413,
    "lon": 120.169294,
    "description": "地址: 城炼街与焦北巷交叉口南240米 | 类别: 风景名胜;公园广场;公园",
    "city": "杭州"
  },
  {
    "name": "李宁体育园",
    "category": "outdoor",
    "duration_minutes": 120,
    "rating": 4.0,
    "lat": 30.295772,
    "lon": 120.245565,
    "description": "电话: 0571-85220690;0571-85221897 | 地址: 建华路 | 类别: 风景名胜;公园广场;公园",
    "city": "杭州"
  },
  {
    "name": "杭州西湖风景名胜区-茅家埠",
    "category": "outdoor",
    "duration_minutes": 120,
    "rating": 4.0,
    "lat": 30.238325,
    "lon": 120.125404,
    "description": "电话: 0571-87179603 | 地址: 杨公堤 | 类别: 风景名胜;风景名胜;风景名胜",
    "city": "杭州"
  },
  {
    "name": "运河映巷影视文化街区",
    "category": "sightseeing",
    "duration_minutes": 120,
    "rating": 4.0,
    "lat": 30.274081,
    "lon": 120.205618,
    "description": "电话: 15158875188 | 地址: 严家路336号(新塘地铁站B口步行170米) | 类别: 风景名胜;风景名胜;风景名胜",
    "city": "杭州"
  },
  {
    "name": "星光大道一期中心广场",
    "category": "outdoor",
    "duration_minutes": 120,
    "rating": 4.0,
    "lat": 30.208172,
    "lon": 120.208592,
    "description": "地址: 江南大道228号星光国际广场 | 类别: 风景名胜;公园广场;城市广场",
    "city": "杭州"
  },
  {
    "name": "老和云起",
    "category": "sightseeing",
    "duration_minutes": 120,
    "rating": 4.0,
    "lat": 30.27117,
    "lon": 120.119779,
    "description": "电话: 0571-87179539 | 地址: 西溪路(古荡地铁站A口步行300米) | 类别: 风景名胜;风景名胜;省级景点",
    "city": "杭州"
  },
  {
    "name": "灵隐景区",
    "category": "sightseeing",
    "duration_minutes": 120,
    "rating": 4.0,
    "lat": 30.240882,
    "lon": 120.100804,
    "description": "电话: 0571-87973280;0571-87977767 | 地址: 灵隐路法云弄1号 | 类别: 风景名胜;风景名胜;风景名胜",
    "city": "杭州"
  },
  {
    "name": "浙农·东巢艺术公园",
    "category": "outdoor",
    "duration_minutes": 120,
    "rating": 4.0,
    "lat": 30.174532,
    "lon": 120.25054,
    "description": "电话: 18758286775 | 地址: 北干街道萧杭路689号 | 类别: 风景名胜;风景名胜;风景名胜|商务住宅;产业园区;产业园区",
    "city": "杭州"
  },
  {
    "name": "杭州西湖风景名胜区-九溪烟树",
    "category": "outdoor",
    "duration_minutes": 120,
    "rating": 4.0,
    "lat": 30.202395,
    "lon": 120.11335,
    "description": "地址: 龙井村杭州西湖风景名胜区内(近九溪路) | 类别: 风景名胜;风景名胜;风景名胜",
    "city": "杭州"
  },
  {
    "name": "上铁竞超体育公园",
    "category": "outdoor",
    "duration_minutes": 120,
    "rating": 4.0,
    "lat": 30.283436,
    "lon": 120.219908,
    "description": "地址: 艮山西路与钱塘快速路交叉口西北80米 | 类别: 风景名胜;公园广场;公园",
    "city": "杭州"
  },
  {
    "name": "杭州西湖风景名胜区-北高峰索道",
    "category": "outdoor",
    "duration_minutes": 120,
    "rating": 4.0,
    "lat": 30.243212,
    "lon": 120.106486,
    "description": "电话: 0571-87969729 | 地址: 杭州西湖风景名胜区北高峰 | 类别: 交通设施服务;交通服务相关;交通服务相关",
    "city": "杭州"
  },
  {
    "name": "上天竺法喜讲寺",
    "category": "history",
    "duration_minutes": 120,
    "rating": 4.0,
    "lat": 30.227208,
    "lon": 120.095362,
    "description": "电话: 0571-87986176;0571-87994374 | 地址: 西湖街道西湖街道天竺路338号 | 类别: 风景名胜;风景名胜;寺庙道观",
    "city": "杭州"
  },
  {
    "name": "杭州西湖风景名胜区-苏堤春晓",
    "category": "outdoor",
    "duration_minutes": 120,
    "rating": 4.0,
    "lat": 30.24388,
    "lon": 120.13796,
    "description": "电话: 0571-87179539 | 地址: 杭州西湖风景名胜区内(东北角) | 类别: 风景名胜;风景名胜相关;旅游景点",
    "city": "杭州"
  },
  {
    "name": "圣塘景区",
    "category": "sightseeing",
    "duration_minutes": 120,
    "rating": 4.0,
    "lat": 30.259304,
    "lon": 120.157326,
    "description": "地址: 杭州西湖风景名胜区-湖滨公园(西北角) | 类别: 风景名胜;风景名胜;风景名胜",
    "city": "杭州"
  },
  {
    "name": "九溪十八涧",
    "category": "sightseeing",
    "duration_minutes": 120,
    "rating": 4.0,
    "lat": 30.202349,
    "lon": 120.113356,
    "description": "地址: 杭州西湖风景名胜区九溪烟树南侧 | 类别: 风景名胜;风景名胜;风景名胜",
    "city": "杭州"
  },
  {
    "name": "杭州西湖风景名胜区-抱朴道院",
    "category": "outdoor",
    "duration_minutes": 120,
    "rating": 4.0,
    "lat": 30.259974,
    "lon": 120.142999,
    "description": "电话: 0571-87981201;0571-87981489 | 地址: 杭州西湖风景名胜区宝石山内(东侧) | 类别: 风景名胜;风景名胜;风景名胜",
    "city": "杭州"
  },
  {
    "name": "灰色博物馆(杭州解百A座店)",
    "category": "museum",
    "duration_minutes": 120,
    "rating": 4.0,
    "lat": 30.249501,
    "lon": 120.165634,
    "description": "地址: 解百A座5层 | 类别: 科教文化服务;科教文化场所;科教文化场所",
    "city": "杭州"
  },
  {
    "name": "城东公园",
    "category": "outdoor",
    "duration_minutes": 120,
    "rating": 4.0,
    "lat": 30.273108,
    "lon": 120.188433,
    "description": "地址: 艮山西路401号(近贴沙河) | 类别: 风景名胜;公园广场;公园",
    "city": "杭州"
  },
  {
    "name": "西湖博览会博物馆",
    "category": "museum",
    "duration_minutes": 120,
    "rating": 4.0,
    "lat": 30.257426,
    "lon": 120.145469,
    "description": "地址: 北山路41-42号 | 类别: 科教文化服务;博物馆;博物馆",
    "city": "杭州"
  },
  {
    "name": "杭州宋城",
    "category": "sightseeing",
    "duration_minutes": 120,
    "rating": 4.0,
    "lat": 30.169795,
    "lon": 120.098741,
    "description": "电话: 4008888518 | 地址: 之江路148号 | 类别: 风景名胜;风景名胜;国家级景点",
    "city": "杭州"
  },
  {
    "name": "杭州西湖风景名胜区-苏堤碑",
    "category": "outdoor",
    "duration_minutes": 120,
    "rating": 4.0,
    "lat": 30.251018,
    "lon": 120.135944,
    "description": "电话: 0571-87179539 | 地址: 西湖街道龙井路1号杭州西湖风景名胜区(东北角) | 类别: 风景名胜;风景名胜;风景名胜",
    "city": "杭州"
  },
  {
    "name": "杭州城北体育公园",
    "category": "outdoor",
    "duration_minutes": 120,
    "rating": 4.0,
    "lat": 30.311322,
    "lon": 120.162196,
    "description": "地址: 白石路125号 | 类别: 风景名胜;公园广场;公园",
    "city": "杭州"
  },
  {
    "name": "华家池",
    "category": "sightseeing",
    "duration_minutes": 120,
    "rating": 4.0,
    "lat": 30.271204,
    "lon": 120.19439,
    "description": "地址: 凯旋路268号 | 类别: 风景名胜;风景名胜;风景名胜",
    "city": "杭州"
  },
  {
    "name": "杭州西湖风景名胜区-乌龟潭",
    "category": "outdoor",
    "duration_minutes": 120,
    "rating": 4.0,
    "lat": 30.231408,
    "lon": 120.1334,
    "description": "电话: 0571-87179539 | 地址: 龙井路1号杭州西湖风景名胜区 | 类别: 风景名胜;风景名胜;风景名胜",
    "city": "杭州"
  },
  {
    "name": "杭州乐园(暂停开放)",
    "category": "sightseeing",
    "duration_minutes": 120,
    "rating": 4.0,
    "lat": 30.16085,
    "lon": 120.244865,
    "description": "电话: 4008888518 | 地址: 风情大道2555号 | 类别: 风景名胜;风景名胜相关;旅游景点",
    "city": "杭州"
  },
  {
    "name": "法华寺",
    "category": "history",
    "duration_minutes": 120,
    "rating": 4.0,
    "lat": 30.248278,
    "lon": 120.093959,
    "description": "电话: 0571-85226468 | 地址: 西马路57号 | 类别: 风景名胜;风景名胜;寺庙道观",
    "city": "杭州"
  },
  {
    "name": "江一公园",
    "category": "outdoor",
    "duration_minutes": 120,
    "rating": 4.0,
    "lat": 30.196187,
    "lon": 120.208248,
    "description": "地址: 长河街道龙湖春江郦城7 | 类别: 风景名胜;公园广场;公园",
    "city": "杭州"
  },
  {
    "name": "积义亭",
    "category": "sightseeing",
    "duration_minutes": 120,
    "rating": 4.0,
    "lat": 30.231169,
    "lon": 120.16432,
    "description": "电话: 0571-87035091 | 地址: 清波街道万松岭路吴山景区(南侧) | 类别: 风景名胜;风景名胜相关;旅游景点",
    "city": "杭州"
  },
  {
    "name": "积义亭",
    "category": "sightseeing",
    "duration_minutes": 120,
    "rating": 4.0,
    "lat": 30.231169,
    "lon": 120.16432,
    "description": "电话: 0571-87035091 | 地址: 清波街道万松岭路吴山景区(南侧) | 类别: 风景名胜;风景名胜相关;旅游景点",
    "city": "杭州"
  },
  {
    "name": "太子湾公园-九曜山",
    "category": "outdoor",
    "duration_minutes": 120,
    "rating": 4.0,
    "lat": 30.2203,
    "lon": 120.14184,
    "description": "地址: 虎跑路(近太子湾公园) | 类别: 风景名胜;风景名胜;风景名胜",
    "city": "杭州"
  },
  {
    "name": "杭州西湖风景名胜区-大佛寺遗址",
    "category": "outdoor",
    "duration_minutes": 120,
    "rating": 4.0,
    "lat": 30.260249,
    "lon": 120.150365,
    "description": "电话: 15888863476 | 地址: 北山街25号 | 类别: 风景名胜;风景名胜;风景名胜",
    "city": "杭州"
  },
  {
    "name": "拱宸桥",
    "category": "history",
    "duration_minutes": 120,
    "rating": 4.0,
    "lat": 30.318101,
    "lon": 120.139844,
    "description": "电话: 0571-85190851 | 地址: 桥弄街1号 | 类别: 风景名胜;风景名胜;风景名胜",
    "city": "杭州"
  },
  {
    "name": "杭州西湖风景名胜区-浴鹄湾",
    "category": "outdoor",
    "duration_minutes": 120,
    "rating": 4.0,
    "lat": 30.226033,
    "lon": 120.136251,
    "description": "电话: 13777578768 | 地址: 三台山路赤山埠29号 | 类别: 风景名胜;风景名胜;风景名胜",
    "city": "杭州"
  },
  {
    "name": "钱学森故居",
    "category": "history",
    "duration_minutes": 120,
    "rating": 4.0,
    "lat": 30.252066,
    "lon": 120.177603,
    "description": "电话: 0571-85333110 | 地址: 方谷园2号(万安桥地铁站D口步行430米) | 类别: 风景名胜;风景名胜;纪念馆",
    "city": "杭州"
  },
  {
    "name": "小黄鸭主题乐园(杭州东站店)",
    "category": "sightseeing",
    "duration_minutes": 120,
    "rating": 4.0,
    "lat": 30.299388,
    "lon": 120.206991,
    "description": "电话: 18072790167 | 地址: 笕桥街道东宁路与机场路交叉口西南角浙江铁发新能源停车场内 | 类别: 体育休闲服务;休闲场所;游乐场",
    "city": "杭州"
  },
  {
    "name": "朱炳仁铜雕艺术博物馆",
    "category": "museum",
    "duration_minutes": 120,
    "rating": 4.0,
    "lat": 30.239925,
    "lon": 120.167138,
    "description": "电话: 0571-87814565 | 地址: 河坊街207-221号 | 类别: 科教文化服务;博物馆;博物馆",
    "city": "杭州"
  },
  {
    "name": "运河海底世界",
    "category": "outdoor",
    "duration_minutes": 120,
    "rating": 4.0,
    "lat": 30.275817,
    "lon": 120.162956,
    "description": "电话: 0571-88013280 | 地址: 西湖文化广场运河北岸文化街区2号门B1层 | 类别: 风景名胜;公园广场;水族馆",
    "city": "杭州"
  },
  {
    "name": "钱江龙-射潮广场",
    "category": "outdoor",
    "duration_minutes": 120,
    "rating": 4.0,
    "lat": 30.212535,
    "lon": 120.204278,
    "description": "地址: 闻涛路与光辉路交叉口西100米 | 类别: 风景名胜;公园广场;城市广场",
    "city": "杭州"
  },
  {
    "name": "永福寺",
    "category": "history",
    "duration_minutes": 120,
    "rating": 4.0,
    "lat": 30.238978,
    "lon": 120.097524,
    "description": "电话: 0571-87965671 | 类别: 风景名胜;风景名胜;寺庙道观",
    "city": "杭州"
  },
  {
    "name": "杭州少年儿童公园",
    "category": "outdoor",
    "duration_minutes": 120,
    "rating": 4.0,
    "lat": 30.216132,
    "lon": 120.132938,
    "description": "电话: 0571-87962678 | 地址: 虎跑路60号 | 类别: 风景名胜;公园广场;公园",
    "city": "杭州"
  },
  {
    "name": "杭州天主教堂",
    "category": "sightseeing",
    "duration_minutes": 120,
    "rating": 4.0,
    "lat": 30.267484,
    "lon": 120.167207,
    "description": "电话: 0571-85101803 | 地址: 中山北路415号(近银泰) | 类别: 风景名胜;风景名胜;教堂",
    "city": "杭州"
  },
  {
    "name": "杭州西湖风景名胜区-三公园",
    "category": "outdoor",
    "duration_minutes": 120,
    "rating": 4.0,
    "lat": 30.25457,
    "lon": 120.160749,
    "description": "电话: 0571-87179539 | 地址: 龙井路1号杭州西湖风景名胜区内(东北角) | 类别: 风景名胜;公园广场;公园",
    "city": "杭州"
  },
  {
    "name": "杭州西湖风景名胜区-杨公堤",
    "category": "outdoor",
    "duration_minutes": 120,
    "rating": 4.0,
    "lat": 30.232456,
    "lon": 120.13658,
    "description": "电话: 0571-87179539 | 地址: 西湖街道龙井路1号杭州西湖风景名胜区 | 类别: 风景名胜;风景名胜;风景名胜",
    "city": "杭州"
  },
  {
    "name": "钱塘江大桥",
    "category": "outdoor",
    "duration_minutes": 120,
    "rating": 4.0,
    "lat": 30.188292,
    "lon": 120.141666,
    "description": "地址: 虎跑路 | 类别: 风景名胜;风景名胜;风景名胜|地名地址信息;交通地名;桥",
    "city": "杭州"
  },
  {
    "name": "浙江国际影视中心",
    "category": "outdoor",
    "duration_minutes": 120,
    "rating": 4.0,
    "lat": 30.24751,
    "lon": 120.293763,
    "description": "电话: 0571-81081111;0571-81089853 | 地址: 弘慧路399号(浙江卫视新址) | 类别: 科教文化服务;传媒机构;传媒机构",
    "city": "杭州"
  },
  {
    "name": "浙江省博物馆(之江馆区)",
    "category": "museum",
    "duration_minutes": 120,
    "rating": 4.0,
    "lat": 30.159662,
    "lon": 120.101745,
    "description": "电话: 0571-85391628 | 地址: 之江文化中心 | 类别: 科教文化服务;博物馆;博物馆",
    "city": "杭州"
  },
  {
    "name": "云栖竹径",
    "category": "sightseeing",
    "duration_minutes": 120,
    "rating": 4.0,
    "lat": 30.191297,
    "lon": 120.091816,
    "description": "电话: 0571-87090437 | 地址: 梅灵南路8号 | 类别: 风景名胜;风景名胜;风景名胜",
    "city": "杭州"
  },
  {
    "name": "鼓楼堂",
    "category": "sightseeing",
    "duration_minutes": 120,
    "rating": 4.0,
    "lat": 30.238696,
    "lon": 120.171676,
    "description": "电话: 0571-87807697 | 地址: 清波街道中河中路1号(近鼓楼) | 类别: 风景名胜;风景名胜;教堂",
    "city": "杭州"
  },
  {
    "name": "浙江省博物馆(之江馆区)",
    "category": "museum",
    "duration_minutes": 120,
    "rating": 4.0,
    "lat": 30.159662,
    "lon": 120.101745,
    "description": "电话: 0571-85391628 | 地址: 之江文化中心 | 类别: 科教文化服务;博物馆;博物馆",
    "city": "杭州"
  },
  {
    "name": "云栖竹径",
    "category": "sightseeing",
    "duration_minutes": 120,
    "rating": 4.0,
    "lat": 30.191297,
    "lon": 120.091816,
    "description": "电话: 0571-87090437 | 地址: 梅灵南路8号 | 类别: 风景名胜;风景名胜;风景名胜",
    "city": "杭州"
  },
  {
    "name": "鼓楼堂",
    "category": "sightseeing",
    "duration_minutes": 120,
    "rating": 4.0,
    "lat": 30.238696,
    "lon": 120.171676,
    "description": "电话: 0571-87807697 | 地址: 清波街道中河中路1号(近鼓楼) | 类别: 风景名胜;风景名胜;教堂",
    "city": "杭州"
  },
  {
    "name": "杭州长乔极地海洋公园",
    "category": "outdoor",
    "duration_minutes": 120,
    "rating": 4.0,
    "lat": 30.140851,
    "lon": 120.225664,
    "description": "电话: 0571-82609191;0571-82609090 | 地址: 城厢街道湘湖景区湘湖路777号 | 类别: 风景名胜;风景名胜;国家级景点",
    "city": "杭州"
  },
  {
    "name": "中国茶叶博物馆(双峰馆区)",
    "category": "museum",
    "duration_minutes": 120,
    "rating": 4.0,
    "lat": 30.232381,
    "lon": 120.120532,
    "description": "电话: 0571-87969161 | 地址: 龙井路88号 | 类别: 科教文化服务;博物馆;博物馆",
    "city": "杭州"
  },
  {
    "name": "艺术望江台",
    "category": "outdoor",
    "duration_minutes": 120,
    "rating": 4.0,
    "lat": 30.213378,
    "lon": 120.204999,
    "description": "地址: 射潮广场 | 类别: 风景名胜;风景名胜相关;旅游景点",
    "city": "杭州"
  },
  {
    "name": "拱墅运河体育公园",
    "category": "outdoor",
    "duration_minutes": 120,
    "rating": 4.0,
    "lat": 30.313559,
    "lon": 120.10392,
    "description": "电话: 0571-88070808 | 地址: 丰潭路与天虹街交叉口东北200米 | 类别: 风景名胜;公园广场;公园",
    "city": "杭州"
  },
  {
    "name": "岳王庙-岳墓栖霞",
    "category": "history",
    "duration_minutes": 120,
    "rating": 4.0,
    "lat": 30.252241,
    "lon": 120.134785,
    "description": "电话: 0571-87179603;0571-87996663 | 地址: 杭州西湖风景名胜区内(东北角) | 类别: 风景名胜;风景名胜相关;旅游景点",
    "city": "杭州"
  },
  {
    "name": "杭州西湖风景名胜区-老玉皇宫",
    "category": "outdoor",
    "duration_minutes": 120,
    "rating": 4.0,
    "lat": 30.216453,
    "lon": 120.15288,
    "description": "地址: 南星街道玉皇山1号 | 类别: 风景名胜;风景名胜;风景名胜",
    "city": "杭州"
  },
  {
    "name": "杭州半山国家森林公园",
    "category": "outdoor",
    "duration_minutes": 120,
    "rating": 4.0,
    "lat": 30.36497,
    "lon": 120.193505,
    "description": "电话: 0571-88031581 | 地址: 半山路北 | 类别: 风景名胜;风景名胜;风景名胜",
    "city": "杭州"
  },
  {
    "name": "拱宸桥西历史文化街区",
    "category": "history",
    "duration_minutes": 120,
    "rating": 4.0,
    "lat": 30.316781,
    "lon": 120.137752,
    "description": "地址: 桥西直街1号(拱宸桥西) | 类别: 风景名胜;风景名胜;风景名胜",
    "city": "杭州"
  },
  {
    "name": "思澄堂",
    "category": "sightseeing",
    "duration_minutes": 120,
    "rating": 4.0,
    "lat": 30.251002,
    "lon": 120.172971,
    "description": "电话: 0571-87024262 | 地址: 解放路132号(近中山中路) | 类别: 风景名胜;风景名胜;教堂",
    "city": "杭州"
  },
  {
    "name": "运河广场",
    "category": "outdoor",
    "duration_minutes": 120,
    "rating": 4.0,
    "lat": 30.3178,
    "lon": 120.141431,
    "description": "地址: 金华路34号 | 类别: 风景名胜;公园广场;城市广场",
    "city": "杭州"
  },
  {
    "name": "杭州西湖风景名胜区-五公园",
    "category": "outdoor",
    "duration_minutes": 120,
    "rating": 4.0,
    "lat": 30.256228,
    "lon": 120.159631,
    "description": "电话: 0571-87179539 | 地址: 杭州西湖风景名胜区内(龙翔桥地铁站B出口步行430米) | 类别: 风景名胜;公园广场;公园",
    "city": "杭州"
  },
  {
    "name": "林彪行宫-704工程",
    "category": "museum",
    "duration_minutes": 120,
    "rating": 4.0,
    "lat": 30.233047,
    "lon": 120.125204,
    "description": "地址: 龙井路79号浙江宾馆 | 类别: 科教文化服务;博物馆;博物馆",
    "city": "杭州"
  },
  {
    "name": "毛主席视察小营巷纪念馆",
    "category": "history",
    "duration_minutes": 120,
    "rating": 4.0,
    "lat": 30.253212,
    "lon": 120.177015,
    "description": "地址: 小营巷54-56(万安桥地铁站D口步行350米) | 类别: 风景名胜;风景名胜;纪念馆",
    "city": "杭州"
  },
  {
    "name": "北塘河公园",
    "category": "outdoor",
    "duration_minutes": 120,
    "rating": 4.0,
    "lat": 30.19836,
    "lon": 120.203366,
    "description": "地址: 江虹路(龙湖春江郦城西南侧约50米) | 类别: 风景名胜;公园广场;公园",
    "city": "杭州"
  },
  {
    "name": "中国湿地博物馆",
    "category": "museum",
    "duration_minutes": 120,
    "rating": 4.0,
    "lat": 30.264153,
    "lon": 120.087533,
    "description": "电话: 0571-89514033 | 地址: 天目山路402号 | 类别: 科教文化服务;博物馆;博物馆",
    "city": "杭州"
  },
  {
    "name": "杭州苏东坡纪念馆",
    "category": "history",
    "duration_minutes": 120,
    "rating": 4.0,
    "lat": 30.228939,
    "lon": 120.144024,
    "description": "电话: 0571-87971051 | 地址: 西湖街道南山路2-1号 | 类别: 风景名胜;风景名胜;纪念馆",
    "city": "杭州"
  },
  {
    "name": "杭州西湖风景名胜区-杭州花圃",
    "category": "outdoor",
    "duration_minutes": 120,
    "rating": 4.0,
    "lat": 30.245663,
    "lon": 120.127654,
    "description": "地址: 杨公堤 | 类别: 风景名胜;风景名胜;风景名胜",
    "city": "杭州"
  },
  {
    "name": "杭州西湖风景名胜区-杭州花圃",
    "category": "outdoor",
    "duration_minutes": 120,
    "rating": 4.0,
    "lat": 30.245663,
    "lon": 120.127654,
    "description": "地址: 杨公堤 | 类别: 风景名胜;风景名胜;风景名胜",
    "city": "杭州"
  },
  {
    "name": "西子驿·南屏晚钟",
    "category": "sightseeing",
    "duration_minutes": 120,
    "rating": 4.0,
    "lat": 30.229804,
    "lon": 120.14874,
    "description": "电话: 0571-87179603 | 地址: 西湖街道南山路55号净慈寺内 | 类别: 生活服务;生活服务场所;生活服务场所",
    "city": "杭州"
  },
  {
    "name": "吴山景区-吴山大观",
    "category": "outdoor",
    "duration_minutes": 120,
    "rating": 4.0,
    "lat": 30.236853,
    "lon": 120.165499,
    "description": "电话: 0571-87035091 | 地址: 吴山景区(吴山广场地铁站D口步行480米) | 类别: 风景名胜;风景名胜;风景名胜",
    "city": "杭州"
  },
  {
    "name": "杭州西湖风景名胜区-学士公园",
    "category": "outdoor",
    "duration_minutes": 120,
    "rating": 4.0,
    "lat": 30.235885,
    "lon": 120.155772,
    "description": "电话: 0571-87179539 | 地址: 西湖街道龙井路1号杭州西湖风景名胜区内(东侧) | 类别: 风景名胜;公园广场;公园",
    "city": "杭州"
  },
  {
    "name": "杭州西湖风景名胜区-满陇桂雨",
    "category": "outdoor",
    "duration_minutes": 120,
    "rating": 4.0,
    "lat": 30.219378,
    "lon": 120.13024,
    "description": "电话: 0571-87981770 | 地址: 虎跑路60号虎跑公园内(近钱江1桥) | 类别: 风景名胜;公园广场;公园",
    "city": "杭州"
  },
  {
    "name": "杭州西湖风景名胜区-新横河桥",
    "category": "outdoor",
    "duration_minutes": 120,
    "rating": 4.0,
    "lat": 30.240267,
    "lon": 120.156167,
    "description": "电话: 0571-87179539 | 地址: 杭州西湖风景名胜区内(东北角) | 类别: 风景名胜;风景名胜相关;旅游景点",
    "city": "杭州"
  },
  {
    "name": "吴山景区-药王庙",
    "category": "history",
    "duration_minutes": 120,
    "rating": 4.0,
    "lat": 30.23779,
    "lon": 120.166881,
    "description": "电话: 0571-87035091 | 地址: 吴山景区(东北角) | 类别: 风景名胜;风景名胜;寺庙道观",
    "city": "杭州"
  },
  {
    "name": "钱江世纪城沿江公园绿道观景平台",
    "category": "outdoor",
    "duration_minutes": 120,
    "rating": 4.0,
    "lat": 30.24233,
    "lon": 120.235234,
    "description": "地址: 观澜路1号钱江世纪公园(东北角) | 类别: 风景名胜;风景名胜相关;旅游景点",
    "city": "杭州"
  },
  {
    "name": "金沙湖公园",
    "category": "outdoor",
    "duration_minutes": 120,
    "rating": 4.0,
    "lat": 30.308018,
    "lon": 120.319745,
    "description": "地址: 金沙湖大道 | 类别: 风景名胜;公园广场;公园",
    "city": "杭州"
  },
  {
    "name": "杭州西湖风景名胜区-神舟基地",
    "category": "outdoor",
    "duration_minutes": 120,
    "rating": 4.0,
    "lat": 30.24075,
    "lon": 120.133103,
    "description": "电话: 0571-87179539 | 地址: 西湖街道龙井路1号杭州西湖风景名胜区(东北角) | 类别: 风景名胜;风景名胜相关;旅游景点",
    "city": "杭州"
  },
  {
    "name": "未来城市乐园",
    "category": "sightseeing",
    "duration_minutes": 120,
    "rating": 4.0,
    "lat": 30.296419,
    "lon": 120.212401,
    "description": "电话: 0571-87028728 | 地址: 东宁路677号东宁金座 | 类别: 风景名胜;风景名胜相关;旅游景点",
    "city": "杭州"
  },
  {
    "name": "江湖汇观亭",
    "category": "outdoor",
    "duration_minutes": 120,
    "rating": 4.0,
    "lat": 30.232665,
    "lon": 120.166582,
    "description": "地址: 太庙巷与察院前巷交叉口西220米 | 类别: 公共设施;公共厕所;公共厕所",
    "city": "杭州"
  },
  {
    "name": "杭州市·天林广场",
    "category": "sightseeing",
    "duration_minutes": 120,
    "rating": 4.0,
    "lat": 30.21628,
    "lon": 120.270441,
    "description": "地址: 振宁路与市心北路交叉口东北100米 | 类别: 购物服务;商场;普通商场",
    "city": "杭州"
  },
  {
    "name": "太庙广场",
    "category": "history",
    "duration_minutes": 120,
    "rating": 4.0,
    "lat": 30.232788,
    "lon": 120.169936,
    "description": "地址: 大马弄1303号 | 类别: 风景名胜;风景名胜;风景名胜",
    "city": "杭州"
  },
  {
    "name": "三潭印月码头",
    "category": "sightseeing",
    "duration_minutes": 120,
    "rating": 4.0,
    "lat": 30.238665,
    "lon": 120.143674,
    "description": "电话: 0571-87179539 | 地址: 杭州西湖风景名胜区内(东北角) | 类别: 交通设施服务;交通服务相关;交通服务相关",
    "city": "杭州"
  },
  {
    "name": "白马湖公园",
    "category": "outdoor",
    "duration_minutes": 120,
    "rating": 4.0,
    "lat": 30.159792,
    "lon": 120.206749,
    "description": "电话: 0571-87020902 | 地址: 长河街道长江路158号 | 类别: 风景名胜;风景名胜;风景名胜",
    "city": "杭州"
  },
  {
    "name": "萧山人民广场",
    "category": "outdoor",
    "duration_minutes": 120,
    "rating": 4.0,
    "lat": 30.182049,
    "lon": 120.264271,
    "description": "地址: 金城路785号(人民广场地铁站B口步行160米) | 类别: 风景名胜;公园广场;城市广场",
    "city": "杭州"
  },
  {
    "name": "杭州开元森泊度假乐园",
    "category": "sightseeing",
    "duration_minutes": 120,
    "rating": 4.0,
    "lat": 30.132039,
    "lon": 120.22379,
    "description": "电话: 0571-83989888 | 地址: 湘湖路1515号 | 类别: 体育休闲服务;度假疗养场所;度假村",
    "city": "杭州"
  },
  {
    "name": "中国动漫博物馆",
    "category": "museum",
    "duration_minutes": 120,
    "rating": 4.0,
    "lat": 30.16208,
    "lon": 120.205558,
    "description": "电话: 0571-86056757 | 地址: 白马湖路375号 | 类别: 科教文化服务;博物馆;博物馆",
    "city": "杭州"
  },
  {
    "name": "游卡文化公司",
    "category": "sightseeing",
    "duration_minutes": 120,
    "rating": 4.0,
    "lat": 30.195194,
    "lon": 120.205272,
    "description": "地址: 众创路308号 | 类别: 公司企业;公司;公司",
    "city": "杭州"
  }
]