[
  {
    "name": "\"上天桥\"摩崖石刻",
    "category": "history",
    "duration_minutes": 60,
    "rating": 4.0,
    "lat": 39.6040115,
    "lon": 115.7075766,
    "description": "A popular history spot in Beijing.",
    "city": "Beijing"
  },
  {
    "name": "\"仙仁飞\"摩崖石刻",
    "category": "history",
    "duration_minutes": 60,
    "rating": 4.0,
    "lat": 39.6040993,
    "lon": 115.7075373,
    "description": "A popular history spot in Beijing.",
    "city": "Beijing"
  },
  {
    "name": "\"南界\"摩崖石刻",
    "category": "history",
    "duration_minutes": 60,
    "rating": 4.0,
    "lat": 40.0696393,
    "lon": 116.0595956,
    "description": "A popular history spot in Beijing.",
    "city": "Beijing"
  },
  {
    "name": "\"雷音壑\"摩崖石刻",
    "category": "history",
    "duration_minutes": 60,
    "rating": 4.0,
    "lat": 39.9196869,
    "lon": 116.0632487,
    "description": "A popular history spot in Beijing.",
    "city": "Beijing"
  },
  {
    "name": "1022救援处",
    "category": "history",
    "duration_minutes": 60,
    "rating": 4.0,
    "lat": 40.1057551,
    "lon": 116.0714505,
    "description": "A popular history spot in Beijing.",
    "city": "Beijing"
  },
  {
    "name": "164背斜",
    "category": "sightseeing",
    "duration_minutes": 60,
    "rating": 4.0,
    "lat": 39.6905623,
    "lon": 115.9385989,
    "description": "A popular sightseeing spot in Beijing.",
    "city": "Beijing"
  },
  {
    "name": "1x3 Gallery",
    "category": "sightseeing",
    "duration_minutes": 60,
    "rating": 4.0,
    "lat": 39.9859323,
    "lon": 116.4853541,
    "description": "A popular sightseeing spot in Beijing.",
    "city": "Beijing"
  },
  {
    "name": "2008 Summer Olympics",
    "category": "sightseeing",
    "duration_minutes": 60,
    "rating": 4.0,
    "lat": 40.260602,
    "lon": 117.107226,
    "description": "A popular sightseeing spot in Beijing.",
    "city": "Beijing"
  },
  {
    "name": "2号观景平台",
    "category": "outdoor",
    "duration_minutes": 60,
    "rating": 4.0,
    "lat": 40.0173546,
    "lon": 116.194236,
    "description": "A popular outdoor spot in Beijing.",
    "city": "Beijing"
  },
  {
    "name": "3D ТV",
    "category": "sightseeing",
    "duration_minutes": 60,
    "rating": 4.0,
    "lat": 39.9129812,
    "lon": 116.404797,
    "description": "A popular sightseeing spot in Beijing.",
    "city": "Beijing"
  },
  {
    "name": "3号观景平台",
    "category": "outdoor",
    "duration_minutes": 60,
    "rating": 4.0,
    "lat": 40.016761,
    "lon": 116.1965708,
    "description": "A popular outdoor spot in Beijing.",
    "city": "Beijing"
  },
  {
    "name": "4号观景平台",
    "category": "outdoor",
    "duration_minutes": 60,
    "rating": 4.0,
    "lat": 40.0155901,
    "lon": 116.1964193,
    "description": "A popular outdoor spot in Beijing.",
    "city": "Beijing"
  },
  {
    "name": "5号观景平台",
    "category": "outdoor",
    "duration_minutes": 60,
    "rating": 4.0,
    "lat": 40.0149561,
    "lon": 116.198652,
    "description": "A popular outdoor spot in Beijing.",
    "city": "Beijing"
  },
  {
    "name": "751普辣斯巨幕光影馆",
    "category": "sightseeing",
    "duration_minutes": 60,
    "rating": 4.0,
    "lat": 39.9837878,
    "lon": 116.4946499,
    "description": "A popular sightseeing spot in Beijing.",
    "city": "Beijing"
  },
  {
    "name": "798 CUBE",
    "category": "sightseeing",
    "duration_minutes": 60,
    "rating": 4.0,
    "lat": 39.9857536,
    "lon": 116.4887999,
    "description": "A popular sightseeing spot in Beijing.",
    "city": "Beijing"
  },
  {
    "name": "798东壁画",
    "category": "sightseeing",
    "duration_minutes": 60,
    "rating": 4.0,
    "lat": 39.983116,
    "lon": 116.4906734,
    "description": "A popular sightseeing spot in Beijing.",
    "city": "Beijing"
  },
  {
    "name": "798艺术区",
    "category": "sightseeing",
    "duration_minutes": 60,
    "rating": 4.0,
    "lat": 39.9829396,
    "lon": 116.4897833,
    "description": "A popular sightseeing spot in Beijing.",
    "city": "Beijing"
  },
  {
    "name": "798西壁画",
    "category": "sightseeing",
    "duration_minutes": 60,
    "rating": 4.0,
    "lat": 39.9828829,
    "lon": 116.4877979,
    "description": "A popular sightseeing spot in Beijing.",
    "city": "Beijing"
  },
  {
    "name": "81美术馆",
    "category": "museum",
    "duration_minutes": 60,
    "rating": 4.0,
    "lat": 39.9695028,
    "lon": 116.2725656,
    "description": "A popular museum spot in Beijing.",
    "city": "Beijing"
  },
  {
    "name": "8K-001机车",
    "category": "history",
    "duration_minutes": 60,
    "rating": 4.0,
    "lat": 39.838088,
    "lon": 116.2405551,
    "description": "A popular history spot in Beijing.",
    "city": "Beijing"
  },
  {
    "name": "93号院博物馆",
    "category": "museum",
    "duration_minutes": 60,
    "rating": 4.0,
    "lat": 39.8913107,
    "lon": 116.3812936,
    "description": "A popular museum spot in Beijing.",
    "city": "Beijing"
  },
  {
    "name": "Abu Simbel Temples",
    "category": "sightseeing",
    "duration_minutes": 60,
    "rating": 4.0,
    "lat": 39.8074302,
    "lon": 116.2809266,
    "description": "A popular sightseeing spot in Beijing.",
    "city": "Beijing"
  },
  {
    "name": "Arc de Triomphe",
    "category": "sightseeing",
    "duration_minutes": 60,
    "rating": 4.0,
    "lat": 39.8094849,
    "lon": 116.2814807,
    "description": "A popular sightseeing spot in Beijing.",
    "city": "Beijing"
  },
  {
    "name": "Arrow Factory",
    "category": "museum",
    "duration_minutes": 60,
    "rating": 4.0,
    "lat": 39.9451479,
    "lon": 116.405453,
    "description": "A popular museum spot in Beijing.",
    "city": "Beijing"
  },
  {
    "name": "Art·Des艺术空间",
    "category": "sightseeing",
    "duration_minutes": 60,
    "rating": 4.0,
    "lat": 39.9271701,
    "lon": 116.4368964,
    "description": "A popular sightseeing spot in Beijing.",
    "city": "Beijing"
  },
  {
    "name": "BISU",
    "category": "history",
    "duration_minutes": 60,
    "rating": 4.0,
    "lat": 39.9112219,
    "lon": 116.558825,
    "description": "A popular history spot in Beijing.",
    "city": "Beijing"
  },
  {
    "name": "Beijing Imperial Pharmacy",
    "category": "sightseeing",
    "duration_minutes": 60,
    "rating": 4.0,
    "lat": 40.040189,
    "lon": 116.36237,
    "description": "A popular sightseeing spot in Beijing.",
    "city": "Beijing"
  },
  {
    "name": "Beijing Planetarium",
    "category": "museum",
    "duration_minutes": 60,
    "rating": 4.0,
    "lat": 39.9360594,
    "lon": 116.330344,
    "description": "A popular museum spot in Beijing.",
    "city": "Beijing"
  },
  {
    "name": "Beijing Youth Daily",
    "category": "history",
    "duration_minutes": 60,
    "rating": 4.0,
    "lat": 40.0021458,
    "lon": 116.1991644,
    "description": "A popular history spot in Beijing.",
    "city": "Beijing"
  },
  {
    "name": "Bell tower",
    "category": "sightseeing",
    "duration_minutes": 60,
    "rating": 4.0,
    "lat": 39.9410286,
    "lon": 116.3896033,
    "description": "A popular sightseeing spot in Beijing.",
    "city": "Beijing"
  },
  {
    "name": "Buddha Statue",
    "category": "outdoor",
    "duration_minutes": 60,
    "rating": 4.0,
    "lat": 39.9707356,
    "lon": 116.1542342,
    "description": "A popular outdoor spot in Beijing.",
    "city": "Beijing"
  },
  {
    "name": "Canal to Olympic area",
    "category": "sightseeing",
    "duration_minutes": 60,
    "rating": 4.0,
    "lat": 39.9621654,
    "lon": 116.4274961,
    "description": "A popular sightseeing spot in Beijing.",
    "city": "Beijing"
  },
  {
    "name": "Cats and dogs space",
    "category": "outdoor",
    "duration_minutes": 60,
    "rating": 4.0,
    "lat": 39.9819586,
    "lon": 116.4916328,
    "description": "A popular outdoor spot in Beijing.",
    "city": "Beijing"
  },
  {
    "name": "Chabad",
    "category": "sightseeing",
    "duration_minutes": 60,
    "rating": 4.0,
    "lat": 39.9694053,
    "lon": 116.470964,
    "description": "A popular sightseeing spot in Beijing.",
    "city": "Beijing"
  },
  {
    "name": "Chabad school and mikvah",
    "category": "sightseeing",
    "duration_minutes": 60,
    "rating": 4.0,
    "lat": 39.9084192,
    "lon": 116.4314737,
    "description": "A popular sightseeing spot in Beijing.",
    "city": "Beijing"
  },
  {
    "name": "Chess Park",
    "category": "sightseeing",
    "duration_minutes": 60,
    "rating": 4.0,
    "lat": 40.0284417,
    "lon": 116.4011186,
    "description": "A popular sightseeing spot in Beijing.",
    "city": "Beijing"
  },
  {
    "name": "China Microphone Museum",
    "category": "museum",
    "duration_minutes": 60,
    "rating": 4.0,
    "lat": 39.9851031,
    "lon": 116.4841465,
    "description": "A popular museum spot in Beijing.",
    "city": "Beijing"
  },
  {
    "name": "Chinese Stone Museum",
    "category": "museum",
    "duration_minutes": 60,
    "rating": 4.0,
    "lat": 40.4323765,
    "lon": 116.5586314,
    "description": "A popular museum spot in Beijing.",
    "city": "Beijing"
  },
  {
    "name": "Chongcui Yan",
    "category": "sightseeing",
    "duration_minutes": 60,
    "rating": 4.0,
    "lat": 39.9907983,
    "lon": 116.1814675,
    "description": "A popular sightseeing spot in Beijing.",
    "city": "Beijing"
  },
  {
    "name": "Class JS 2-8-2 Locomotive",
    "category": "history",
    "duration_minutes": 60,
    "rating": 4.0,
    "lat": 39.9408199,
    "lon": 116.338494,
    "description": "A popular history spot in Beijing.",
    "city": "Beijing"
  },
  {
    "name": "Coliseum",
    "category": "sightseeing",
    "duration_minutes": 60,
    "rating": 4.0,
    "lat": 39.8084828,
    "lon": 116.2815869,
    "description": "A popular sightseeing spot in Beijing.",
    "city": "Beijing"
  },
  {
    "name": "Drum tower",
    "category": "sightseeing",
    "duration_minutes": 60,
    "rating": 4.0,
    "lat": 39.9393421,
    "lon": 116.3897443,
    "description": "A popular sightseeing spot in Beijing.",
    "city": "Beijing"
  },
  {
    "name": "Duan Qirui Government Former Site",
    "category": "museum",
    "duration_minutes": 60,
    "rating": 4.0,
    "lat": 39.9329213,
    "lon": 116.4087373,
    "description": "A popular museum spot in Beijing.",
    "city": "Beijing"
  },
  {
    "name": "Egyptian pyramids",
    "category": "sightseeing",
    "duration_minutes": 60,
    "rating": 4.0,
    "lat": 39.8074106,
    "lon": 116.2816065,
    "description": "A popular sightseeing spot in Beijing.",
    "city": "Beijing"
  },
  {
    "name": "Eiffel Tower",
    "category": "sightseeing",
    "duration_minutes": 60,
    "rating": 4.0,
    "lat": 39.8092398,
    "lon": 116.280439,
    "description": "A popular sightseeing spot in Beijing.",
    "city": "Beijing"
  },
  {
    "name": "El Tajin",
    "category": "sightseeing",
    "duration_minutes": 60,
    "rating": 4.0,
    "lat": 39.8077014,
    "lon": 116.2779086,
    "description": "A popular sightseeing spot in Beijing.",
    "city": "Beijing"
  },
  {
    "name": "Encuéntrate con México",
    "category": "museum",
    "duration_minutes": 60,
    "rating": 4.0,
    "lat": 39.9434315,
    "lon": 116.4708167,
    "description": "A popular museum spot in Beijing.",
    "city": "Beijing"
  },
  {
    "name": "Fahaisi (Fahai Temple)",
    "category": "museum",
    "duration_minutes": 60,
    "rating": 4.0,
    "lat": 39.9399801,
    "lon": 116.1533947,
    "description": "Astonishing Ming frescoes. Ticket to view paintings is ￥100, ￥20 to view just other temple buildings. paintings are a must. Entry times to view frescoes, 9.40, 10.40, 11.40, 12.50, 13.50, 14.50, 15.50, 20 people max st one time.",
    "city": "Beijing"
  },
  {
    "name": "Faurschou Foundation",
    "category": "museum",
    "duration_minutes": 60,
    "rating": 4.0,
    "lat": 39.9855987,
    "lon": 116.4894067,
    "description": "A popular museum spot in Beijing.",
    "city": "Beijing"
  },
  {
    "name": "Former Bridge",
    "category": "sightseeing",
    "duration_minutes": 60,
    "rating": 4.0,
    "lat": 40.0088786,
    "lon": 116.3031498,
    "description": "A popular sightseeing spot in Beijing.",
    "city": "Beijing"
  },
  {
    "name": "Gallery Yang",
    "category": "sightseeing",
    "duration_minutes": 60,
    "rating": 4.0,
    "lat": 39.984081,
    "lon": 116.4894728,
    "description": "A popular sightseeing spot in Beijing.",
    "city": "Beijing"
  },
  {
    "name": "Ghost Street Food",
    "category": "sightseeing",
    "duration_minutes": 60,
    "rating": 4.0,
    "lat": 39.9398551,
    "lon": 116.4265401,
    "description": "A popular sightseeing spot in Beijing.",
    "city": "Beijing"
  },
  {
    "name": "Ghost street",
    "category": "sightseeing",
    "duration_minutes": 60,
    "rating": 4.0,
    "lat": 39.9398848,
    "lon": 116.4236883,
    "description": "A popular sightseeing spot in Beijing.",
    "city": "Beijing"
  },
  {
    "name": "Giant Stone",
    "category": "history",
    "duration_minutes": 60,
    "rating": 4.0,
    "lat": 39.9321894,
    "lon": 116.4494482,
    "description": "A popular history spot in Beijing.",
    "city": "Beijing"
  },
  {
    "name": "Glass Ladder",
    "category": "sightseeing",
    "duration_minutes": 60,
    "rating": 4.0,
    "lat": 40.4362853,
    "lon": 116.5619857,
    "description": "A popular sightseeing spot in Beijing.",
    "city": "Beijing"
  },
  {
    "name": "Great Wall",
    "category": "museum",
    "duration_minutes": 60,
    "rating": 4.0,
    "lat": 40.4309411,
    "lon": 116.5644116,
    "description": "A popular museum spot in Beijing.",
    "city": "Beijing"
  },
  {
    "name": "Great Wall of China",
    "category": "sightseeing",
    "duration_minutes": 60,
    "rating": 4.0,
    "lat": 39.8093552,
    "lon": 116.2823983,
    "description": "A popular sightseeing spot in Beijing.",
    "city": "Beijing"
  },
  {
    "name": "Hagia Sophia",
    "category": "sightseeing",
    "duration_minutes": 60,
    "rating": 4.0,
    "lat": 39.8085892,
    "lon": 116.2822537,
    "description": "A popular sightseeing spot in Beijing.",
    "city": "Beijing"
  },
  {
    "name": "Henkel",
    "category": "history",
    "duration_minutes": 60,
    "rating": 4.0,
    "lat": 40.4402598,
    "lon": 116.5593906,
    "description": "A popular history spot in Beijing.",
    "city": "Beijing"
  },
  {
    "name": "Himalayan Tower",
    "category": "sightseeing",
    "duration_minutes": 60,
    "rating": 4.0,
    "lat": 40.001448,
    "lon": 116.2070058,
    "description": "A popular sightseeing spot in Beijing.",
    "city": "Beijing"
  },
  {
    "name": "Houhai Lake Hutong Alley",
    "category": "sightseeing",
    "duration_minutes": 60,
    "rating": 4.0,
    "lat": 39.9439782,
    "lon": 116.3746202,
    "description": "A popular sightseeing spot in Beijing.",
    "city": "Beijing"
  },
  {
    "name": "Jing'an Market",
    "category": "sightseeing",
    "duration_minutes": 60,
    "rating": 4.0,
    "lat": 39.9554149,
    "lon": 116.4399693,
    "description": "A popular sightseeing spot in Beijing.",
    "city": "Beijing"
  },
  {
    "name": "Jinshanling east entry",
    "category": "sightseeing",
    "duration_minutes": 60,
    "rating": 4.0,
    "lat": 40.6778836,
    "lon": 117.257055,
    "description": "A popular sightseeing spot in Beijing.",
    "city": "Beijing"
  },
  {
    "name": "Karnak Temple",
    "category": "sightseeing",
    "duration_minutes": 60,
    "rating": 4.0,
    "lat": 39.8077296,
    "lon": 116.2809962,
    "description": "A popular sightseeing spot in Beijing.",
    "city": "Beijing"
  },
  {
    "name": "L1",
    "category": "sightseeing",
    "duration_minutes": 60,
    "rating": 4.0,
    "lat": 40.0825026,
    "lon": 116.5149218,
    "description": "A popular sightseeing spot in Beijing.",
    "city": "Beijing"
  },
  {
    "name": "L2",
    "category": "sightseeing",
    "duration_minutes": 60,
    "rating": 4.0,
    "lat": 40.0839288,
    "lon": 116.5142983,
    "description": "A popular sightseeing spot in Beijing.",
    "city": "Beijing"
  },
  {
    "name": "Leaning Tower of Pisa",
    "category": "sightseeing",
    "duration_minutes": 60,
    "rating": 4.0,
    "lat": 39.8087727,
    "lon": 116.2813673,
    "description": "A popular sightseeing spot in Beijing.",
    "city": "Beijing"
  },
  {
    "name": "Lighthouse of Alexandria",
    "category": "sightseeing",
    "duration_minutes": 60,
    "rating": 4.0,
    "lat": 39.807854,
    "lon": 116.2822452,
    "description": "A popular sightseeing spot in Beijing.",
    "city": "Beijing"
  },
  {
    "name": "Lincoln Memorial",
    "category": "sightseeing",
    "duration_minutes": 60,
    "rating": 4.0,
    "lat": 39.8084453,
    "lon": 116.2783642,
    "description": "A popular sightseeing spot in Beijing.",
    "city": "Beijing"
  },
  {
    "name": "Lookoff",
    "category": "outdoor",
    "duration_minutes": 60,
    "rating": 4.0,
    "lat": 40.502318,
    "lon": 116.7788938,
    "description": "A popular outdoor spot in Beijing.",
    "city": "Beijing"
  },
  {
    "name": "Lumin Art Space",
    "category": "sightseeing",
    "duration_minutes": 60,
    "rating": 4.0,
    "lat": 39.9851027,
    "lon": 116.4845085,
    "description": "A popular sightseeing spot in Beijing.",
    "city": "Beijing"
  },
  {
    "name": "MIGOO宠物营地",
    "category": "outdoor",
    "duration_minutes": 60,
    "rating": 4.0,
    "lat": 40.294099,
    "lon": 116.6680242,
    "description": "A popular outdoor spot in Beijing.",
    "city": "Beijing"
  },
  {
    "name": "Manhattan Island",
    "category": "sightseeing",
    "duration_minutes": 60,
    "rating": 4.0,
    "lat": 39.8095344,
    "lon": 116.2788872,
    "description": "A popular sightseeing spot in Beijing.",
    "city": "Beijing"
  },
  {
    "name": "Mao Zedong Statue",
    "category": "history",
    "duration_minutes": 60,
    "rating": 4.0,
    "lat": 39.9327123,
    "lon": 116.3065027,
    "description": "A popular history spot in Beijing.",
    "city": "Beijing"
  },
  {
    "name": "Mirador",
    "category": "sightseeing",
    "duration_minutes": 60,
    "rating": 4.0,
    "lat": 40.2403331,
    "lon": 117.2519681,
    "description": "A popular sightseeing spot in Beijing.",
    "city": "Beijing"
  },
  {
    "name": "Mountain Art Beijing Frank Lin Art Center",
    "category": "sightseeing",
    "duration_minutes": 60,
    "rating": 4.0,
    "lat": 39.9851155,
    "lon": 116.484791,
    "description": "A popular sightseeing spot in Beijing.",
    "city": "Beijing"
  },
  {
    "name": "Muraille de Chine Mutianyau",
    "category": "outdoor",
    "duration_minutes": 60,
    "rating": 4.0,
    "lat": 40.4307653,
    "lon": 116.5642741,
    "description": "A popular outdoor spot in Beijing.",
    "city": "Beijing"
  },
  {
    "name": "Nanluoguxiang street",
    "category": "sightseeing",
    "duration_minutes": 60,
    "rating": 4.0,
    "lat": 39.9321487,
    "lon": 116.3968298,
    "description": "A popular sightseeing spot in Beijing.",
    "city": "Beijing"
  },
  {
    "name": "Nanshan Ski Resort",
    "category": "sightseeing",
    "duration_minutes": 60,
    "rating": 4.0,
    "lat": 40.334353,
    "lon": 116.8557717,
    "description": "A popular sightseeing spot in Beijing.",
    "city": "Beijing"
  },
  {
    "name": "Neuschwanstein Castle",
    "category": "sightseeing",
    "duration_minutes": 60,
    "rating": 4.0,
    "lat": 39.810246,
    "lon": 116.2805974,
    "description": "A popular sightseeing spot in Beijing.",
    "city": "Beijing"
  },
  {
    "name": "Notre Dame de Paris",
    "category": "sightseeing",
    "duration_minutes": 60,
    "rating": 4.0,
    "lat": 39.8087809,
    "lon": 116.2802693,
    "description": "A popular sightseeing spot in Beijing.",
    "city": "Beijing"
  },
  {
    "name": "Pace Beijing",
    "category": "sightseeing",
    "duration_minutes": 60,
    "rating": 4.0,
    "lat": 39.9856241,
    "lon": 116.4893853,
    "description": "A popular sightseeing spot in Beijing.",
    "city": "Beijing"
  },
  {
    "name": "Paleozoological Museum of China",
    "category": "museum",
    "duration_minutes": 60,
    "rating": 4.0,
    "lat": 39.9362349,
    "lon": 116.3278976,
    "description": "A popular museum spot in Beijing.",
    "city": "Beijing"
  },
  {
    "name": "Panjiayuan Flea Market",
    "category": "sightseeing",
    "duration_minutes": 60,
    "rating": 4.0,
    "lat": 39.9074927,
    "lon": 116.4311908,
    "description": "A popular sightseeing spot in Beijing.",
    "city": "Beijing"
  },
  {
    "name": "Parthenon",
    "category": "sightseeing",
    "duration_minutes": 60,
    "rating": 4.0,
    "lat": 39.808404,
    "lon": 116.2819819,
    "description": "A popular sightseeing spot in Beijing.",
    "city": "Beijing"
  },
  {
    "name": "Patrick J. McGovern 碑",
    "category": "history",
    "duration_minutes": 60,
    "rating": 4.0,
    "lat": 39.9607839,
    "lon": 116.359602,
    "description": "A popular history spot in Beijing.",
    "city": "Beijing"
  },
  {
    "name": "Peking Man Museum",
    "category": "museum",
    "duration_minutes": 60,
    "rating": 4.0,
    "lat": 39.6866276,
    "lon": 115.9308062,
    "description": "A popular museum spot in Beijing.",
    "city": "Beijing"
  },
  {
    "name": "Phoenix-Hanzhang Art Space",
    "category": "sightseeing",
    "duration_minutes": 60,
    "rating": 4.0,
    "lat": 39.9853111,
    "lon": 116.4876049,
    "description": "A popular sightseeing spot in Beijing.",
    "city": "Beijing"
  },
  {
    "name": "Phra Thinang Chakri Maha Prasat",
    "category": "sightseeing",
    "duration_minutes": 60,
    "rating": 4.0,
    "lat": 39.8084211,
    "lon": 116.284572,
    "description": "A popular sightseeing spot in Beijing.",
    "city": "Beijing"
  },
  {
    "name": "Polar Bear Gallery",
    "category": "sightseeing",
    "duration_minutes": 60,
    "rating": 4.0,
    "lat": 39.9842392,
    "lon": 116.4884145,
    "description": "A popular sightseeing spot in Beijing.",
    "city": "Beijing"
  },
  {
    "name": "RES",
    "category": "outdoor",
    "duration_minutes": 60,
    "rating": 4.0,
    "lat": 40.2102279,
    "lon": 116.224594,
    "description": "A popular outdoor spot in Beijing.",
    "city": "Beijing"
  },
  {
    "name": "RE睿·三高炉数字博物馆",
    "category": "museum",
    "duration_minutes": 60,
    "rating": 4.0,
    "lat": 39.9188075,
    "lon": 116.149524,
    "description": "A popular museum spot in Beijing.",
    "city": "Beijing"
  },
  {
    "name": "Red Square",
    "category": "sightseeing",
    "duration_minutes": 60,
    "rating": 4.0,
    "lat": 39.8112746,
    "lon": 116.2826867,
    "description": "A popular sightseeing spot in Beijing.",
    "city": "Beijing"
  },
  {
    "name": "Ritan view point",
    "category": "sightseeing",
    "duration_minutes": 60,
    "rating": 4.0,
    "lat": 39.9135905,
    "lon": 116.436799,
    "description": "A popular sightseeing spot in Beijing.",
    "city": "Beijing"
  },
  {
    "name": "Sacred Way exit",
    "category": "sightseeing",
    "duration_minutes": 60,
    "rating": 4.0,
    "lat": 40.2645043,
    "lon": 116.2242216,
    "description": "A popular sightseeing spot in Beijing.",
    "city": "Beijing"
  },
  {
    "name": "Simatai Great Wall Admission Ticket Office",
    "category": "sightseeing",
    "duration_minutes": 60,
    "rating": 4.0,
    "lat": 40.644662,
    "lon": 117.2617746,
    "description": "A popular sightseeing spot in Beijing.",
    "city": "Beijing"
  },
  {
    "name": "Site of Mongolian-Tibetan school",
    "category": "sightseeing",
    "duration_minutes": 60,
    "rating": 4.0,
    "lat": 39.9094931,
    "lon": 116.3680904,
    "description": "A popular sightseeing spot in Beijing.",
    "city": "Beijing"
  },
  {
    "name": "Song Art Gallery",
    "category": "museum",
    "duration_minutes": 60,
    "rating": 4.0,
    "lat": 40.0244693,
    "lon": 116.5816145,
    "description": "A popular museum spot in Beijing.",
    "city": "Beijing"
  },
  {
    "name": "St. Peter's Basilica",
    "category": "sightseeing",
    "duration_minutes": 60,
    "rating": 4.0,
    "lat": 39.8085943,
    "lon": 116.2810672,
    "description": "A popular sightseeing spot in Beijing.",
    "city": "Beijing"
  },
  {
    "name": "St. Stephen's Cathedral",
    "category": "sightseeing",
    "duration_minutes": 60,
    "rating": 4.0,
    "lat": 39.8104267,
    "lon": 116.2815168,
    "description": "A popular sightseeing spot in Beijing.",
    "city": "Beijing"
  },
  {
    "name": "Stone",
    "category": "sightseeing",
    "duration_minutes": 60,
    "rating": 4.0,
    "lat": 40.0110614,
    "lon": 116.2921554,
    "description": "A popular sightseeing spot in Beijing.",
    "city": "Beijing"
  },
  {
    "name": "Stonehenge",
    "category": "sightseeing",
    "duration_minutes": 60,
    "rating": 4.0,
    "lat": 39.8097201,
    "lon": 116.2800943,
    "description": "A popular sightseeing spot in Beijing.",
    "city": "Beijing"
  },
  {
    "name": "Summer Palace ticket office",
    "category": "sightseeing",
    "duration_minutes": 60,
    "rating": 4.0,
    "lat": 40.0011774,
    "lon": 116.267962,
    "description": "summer palace beijing",
    "city": "Beijing"
  },
  {
    "name": "Sun Art Space",
    "category": "sightseeing",
    "duration_minutes": 60,
    "rating": 4.0,
    "lat": 39.984055,
    "lon": 116.4893406,
    "description": "A popular sightseeing spot in Beijing.",
    "city": "Beijing"
  },
  {
    "name": "Sydney Opera House",
    "category": "sightseeing",
    "duration_minutes": 60,
    "rating": 4.0,
    "lat": 39.8078321,
    "lon": 116.2844542,
    "description": "A popular sightseeing spot in Beijing.",
    "city": "Beijing"
  },
  {
    "name": "Tabula Rasa Gallery",
    "category": "sightseeing",
    "duration_minutes": 60,
    "rating": 4.0,
    "lat": 39.9863216,
    "lon": 116.4914401,
    "description": "A popular sightseeing spot in Beijing.",
    "city": "Beijing"
  },
  {
    "name": "Taj Mahal",
    "category": "sightseeing",
    "duration_minutes": 60,
    "rating": 4.0,
    "lat": 39.808949,
    "lon": 116.2836424,
    "description": "A popular sightseeing spot in Beijing.",
    "city": "Beijing"
  },
  {
    "name": "Tang Contemporary Art",
    "category": "sightseeing",
    "duration_minutes": 60,
    "rating": 4.0,
    "lat": 39.9850837,
    "lon": 116.488078,
    "description": "A popular sightseeing spot in Beijing.",
    "city": "Beijing"
  },
  {
    "name": "Terrace of Collecting Morning Dew",
    "category": "sightseeing",
    "duration_minutes": 60,
    "rating": 4.0,
    "lat": 39.9194302,
    "lon": 116.3937621,
    "description": "A popular sightseeing spot in Beijing.",
    "city": "Beijing"
  },
  {
    "name": "The First Sound Gallery",
    "category": "sightseeing",
    "duration_minutes": 60,
    "rating": 4.0,
    "lat": 39.9851039,
    "lon": 116.4843115,
    "description": "A popular sightseeing spot in Beijing.",
    "city": "Beijing"
  },
  {
    "name": "The Hall of Princess Hejia",
    "category": "sightseeing",
    "duration_minutes": 60,
    "rating": 4.0,
    "lat": 39.9248864,
    "lon": 116.3947795,
    "description": "A popular sightseeing spot in Beijing.",
    "city": "Beijing"
  },
  {
    "name": "The Ming Tombs (Sacred Road)",
    "category": "sightseeing",
    "duration_minutes": 60,
    "rating": 4.0,
    "lat": 40.2557464,
    "lon": 116.2185167,
    "description": "A popular sightseeing spot in Beijing.",
    "city": "Beijing"
  },
  {
    "name": "The Ming Tombs (Sacred way)",
    "category": "sightseeing",
    "duration_minutes": 60,
    "rating": 4.0,
    "lat": 40.2554087,
    "lon": 116.2182858,
    "description": "A popular sightseeing spot in Beijing.",
    "city": "Beijing"
  },
  {
    "name": "Tianmenshan Scenic Spot",
    "category": "sightseeing",
    "duration_minutes": 60,
    "rating": 4.0,
    "lat": 40.5916991,
    "lon": 116.7804162,
    "description": "A popular sightseeing spot in Beijing.",
    "city": "Beijing"
  },
  {
    "name": "Totem Poles of Mexico",
    "category": "sightseeing",
    "duration_minutes": 60,
    "rating": 4.0,
    "lat": 39.8076185,
    "lon": 116.2787303,
    "description": "A popular sightseeing spot in Beijing.",
    "city": "Beijing"
  },
  {
    "name": "Tower",
    "category": "history",
    "duration_minutes": 60,
    "rating": 4.0,
    "lat": 40.4530291,
    "lon": 116.5403805,
    "description": "A popular history spot in Beijing.",
    "city": "Beijing"
  },
  {
    "name": "Tower 15",
    "category": "history",
    "duration_minutes": 60,
    "rating": 4.0,
    "lat": 40.4417378,
    "lon": 116.5579932,
    "description": "A popular history spot in Beijing.",
    "city": "Beijing"
  },
  {
    "name": "Tower 16",
    "category": "history",
    "duration_minutes": 60,
    "rating": 4.0,
    "lat": 40.4440853,
    "lon": 116.5566217,
    "description": "A popular history spot in Beijing.",
    "city": "Beijing"
  },
  {
    "name": "Tower 17",
    "category": "sightseeing",
    "duration_minutes": 60,
    "rating": 4.0,
    "lat": 40.443508,
    "lon": 116.556945,
    "description": "A popular sightseeing spot in Beijing.",
    "city": "Beijing"
  },
  {
    "name": "Tower 18",
    "category": "history",
    "duration_minutes": 60,
    "rating": 4.0,
    "lat": 40.4461302,
    "lon": 116.5545876,
    "description": "A popular history spot in Beijing.",
    "city": "Beijing"
  },
  {
    "name": "Tower 19",
    "category": "history",
    "duration_minutes": 60,
    "rating": 4.0,
    "lat": 40.4469733,
    "lon": 116.5551874,
    "description": "A popular history spot in Beijing.",
    "city": "Beijing"
  },
  {
    "name": "Tower 20",
    "category": "history",
    "duration_minutes": 60,
    "rating": 4.0,
    "lat": 40.448138,
    "lon": 116.5538377,
    "description": "A popular history spot in Beijing.",
    "city": "Beijing"
  },
  {
    "name": "Tower 21",
    "category": "history",
    "duration_minutes": 60,
    "rating": 4.0,
    "lat": 40.4493277,
    "lon": 116.5533243,
    "description": "A popular history spot in Beijing.",
    "city": "Beijing"
  },
  {
    "name": "Tower 22",
    "category": "history",
    "duration_minutes": 60,
    "rating": 4.0,
    "lat": 40.4499295,
    "lon": 116.5511428,
    "description": "A popular history spot in Beijing.",
    "city": "Beijing"
  },
  {
    "name": "Tower 23",
    "category": "history",
    "duration_minutes": 60,
    "rating": 4.0,
    "lat": 40.4505594,
    "lon": 116.5492626,
    "description": "A popular history spot in Beijing.",
    "city": "Beijing"
  },
  {
    "name": "Train",
    "category": "history",
    "duration_minutes": 60,
    "rating": 4.0,
    "lat": 39.9827607,
    "lon": 116.4913905,
    "description": "A popular history spot in Beijing.",
    "city": "Beijing"
  },
  {
    "name": "Triumph Art Space",
    "category": "sightseeing",
    "duration_minutes": 60,
    "rating": 4.0,
    "lat": 39.9851021,
    "lon": 116.486726,
    "description": "A popular sightseeing spot in Beijing.",
    "city": "Beijing"
  },
  {
    "name": "US Capitol",
    "category": "sightseeing",
    "duration_minutes": 60,
    "rating": 4.0,
    "lat": 39.8088896,
    "lon": 116.2778487,
    "description": "A popular sightseeing spot in Beijing.",
    "city": "Beijing"
  },
  {
    "name": "Washington Monument",
    "category": "sightseeing",
    "duration_minutes": 60,
    "rating": 4.0,
    "lat": 39.8086374,
    "lon": 116.2781264,
    "description": "A popular sightseeing spot in Beijing.",
    "city": "Beijing"
  },
  {
    "name": "Waterfall",
    "category": "sightseeing",
    "duration_minutes": 60,
    "rating": 4.0,
    "lat": 40.5278894,
    "lon": 115.8219356,
    "description": "A popular sightseeing spot in Beijing.",
    "city": "Beijing"
  },
  {
    "name": "White House",
    "category": "sightseeing",
    "duration_minutes": 60,
    "rating": 4.0,
    "lat": 39.8084956,
    "lon": 116.2778346,
    "description": "A popular sightseeing spot in Beijing.",
    "city": "Beijing"
  },
  {
    "name": "Xinjian Commune Fine Art Studio",
    "category": "sightseeing",
    "duration_minutes": 60,
    "rating": 4.0,
    "lat": 39.9853989,
    "lon": 116.4876049,
    "description": "A popular sightseeing spot in Beijing.",
    "city": "Beijing"
  },
  {
    "name": "Xishanqingxue",
    "category": "history",
    "duration_minutes": 60,
    "rating": 4.0,
    "lat": 39.9903673,
    "lon": 116.1777153,
    "description": "A popular history spot in Beijing.",
    "city": "Beijing"
  },
  {
    "name": "X战车",
    "category": "sightseeing",
    "duration_minutes": 60,
    "rating": 4.0,
    "lat": 39.8647724,
    "lon": 116.4886808,
    "description": "A popular sightseeing spot in Beijing.",
    "city": "Beijing"
  },
  {
    "name": "YZ22B 337945",
    "category": "history",
    "duration_minutes": 60,
    "rating": 4.0,
    "lat": 39.8908796,
    "lon": 116.509998,
    "description": "A popular history spot in Beijing.",
    "city": "Beijing"
  },
  {
    "name": "YZ22B 338805",
    "category": "history",
    "duration_minutes": 60,
    "rating": 4.0,
    "lat": 39.8907315,
    "lon": 116.5102945,
    "description": "A popular history spot in Beijing.",
    "city": "Beijing"
  },
  {
    "name": "YZ22B 338811",
    "category": "history",
    "duration_minutes": 60,
    "rating": 4.0,
    "lat": 39.8904763,
    "lon": 116.5106593,
    "description": "A popular history spot in Beijing.",
    "city": "Beijing"
  },
  {
    "name": "YZ22B 338999",
    "category": "history",
    "duration_minutes": 60,
    "rating": 4.0,
    "lat": 39.8907016,
    "lon": 116.51124,
    "description": "A popular history spot in Beijing.",
    "city": "Beijing"
  },
  {
    "name": "YZ22C 339051",
    "category": "history",
    "duration_minutes": 60,
    "rating": 4.0,
    "lat": 39.8902988,
    "lon": 116.5108609,
    "description": "A popular history spot in Beijing.",
    "city": "Beijing"
  },
  {
    "name": "Yingbi",
    "category": "sightseeing",
    "duration_minutes": 60,
    "rating": 4.0,
    "lat": 39.9436517,
    "lon": 116.4109087,
    "description": "A popular sightseeing spot in Beijing.",
    "city": "Beijing"
  },
  {
    "name": "Yunlong Natural Scenic Spot",
    "category": "sightseeing",
    "duration_minutes": 60,
    "rating": 4.0,
    "lat": 40.4858376,
    "lon": 116.7860477,
    "description": "A popular sightseeing spot in Beijing.",
    "city": "Beijing"
  },
  {
    "name": "Yutai Gate",
    "category": "history",
    "duration_minutes": 60,
    "rating": 4.0,
    "lat": 39.9885687,
    "lon": 116.1721611,
    "description": "A popular history spot in Beijing.",
    "city": "Beijing"
  },
  {
    "name": "Zhengyang Bridge",
    "category": "sightseeing",
    "duration_minutes": 60,
    "rating": 4.0,
    "lat": 39.896922,
    "lon": 116.3917816,
    "description": "A popular sightseeing spot in Beijing.",
    "city": "Beijing"
  },
  {
    "name": "baochao hutong",
    "category": "sightseeing",
    "duration_minutes": 60,
    "rating": 4.0,
    "lat": 39.9432239,
    "lon": 116.3940451,
    "description": "A popular sightseeing spot in Beijing.",
    "city": "Beijing"
  },
  {
    "name": "leaky",
    "category": "outdoor",
    "duration_minutes": 60,
    "rating": 4.0,
    "lat": 40.195501,
    "lon": 116.2115572,
    "description": "A popular outdoor spot in Beijing.",
    "city": "Beijing"
  },
  {
    "name": "petrified tree",
    "category": "history",
    "duration_minutes": 60,
    "rating": 4.0,
    "lat": 39.8819897,
    "lon": 116.3931354,
    "description": "A popular history spot in Beijing.",
    "city": "Beijing"
  },
  {
    "name": "“五星”羊圈",
    "category": "sightseeing",
    "duration_minutes": 60,
    "rating": 4.0,
    "lat": 39.6951982,
    "lon": 115.8200631,
    "description": "A popular sightseeing spot in Beijing.",
    "city": "Beijing"
  },
  {
    "name": "“仙人台”石刻遗迹",
    "category": "history",
    "duration_minutes": 60,
    "rating": 4.0,
    "lat": 39.7692278,
    "lon": 115.9218765,
    "description": "A popular history spot in Beijing.",
    "city": "Beijing"
  },
  {
    "name": "“修真观”石刻",
    "category": "history",
    "duration_minutes": 60,
    "rating": 4.0,
    "lat": 40.0600199,
    "lon": 116.0906757,
    "description": "A popular history spot in Beijing.",
    "city": "Beijing"
  },
  {
    "name": "“兰”字石刻",
    "category": "history",
    "duration_minutes": 60,
    "rating": 4.0,
    "lat": 40.074718,
    "lon": 116.0840663,
    "description": "A popular history spot in Beijing.",
    "city": "Beijing"
  },
  {
    "name": "“凤窝”摩崖石刻",
    "category": "history",
    "duration_minutes": 60,
    "rating": 4.0,
    "lat": 40.0366768,
    "lon": 116.1058128,
    "description": "寨口村南山的绝壁上，刻着繁体楷书“鳳窩”二字，字高近1米，笔力雄浑。落款：歲己巳（sì）清明日，倬（zhuō）盫（ān）爲沅叔書。 经考证，作者倬盫便是近现代书法家邵章，其曾为京城九门题写门额。此处石刻刻于1929年，于2001年被史地民俗专家张文大发现，于2020年认定为海淀区文物普查登记项目。",
    "city": "Beijing"
  },
  {
    "name": "“凤窝”摩崖石刻文物普查登记牌",
    "category": "history",
    "duration_minutes": 60,
    "rating": 4.0,
    "lat": 40.036694,
    "lon": 116.1058125,
    "description": "A popular history spot in Beijing.",
    "city": "Beijing"
  },
  {
    "name": "“刘和珍”浮雕",
    "category": "history",
    "duration_minutes": 60,
    "rating": 4.0,
    "lat": 39.9591024,
    "lon": 116.3595153,
    "description": "A popular history spot in Beijing.",
    "city": "Beijing"
  },
  {
    "name": "“卧游”石刻",
    "category": "history",
    "duration_minutes": 60,
    "rating": 4.0,
    "lat": 39.9179857,
    "lon": 116.0606407,
    "description": "A popular history spot in Beijing.",
    "city": "Beijing"
  },
  {
    "name": "“善来金阶”石刻",
    "category": "history",
    "duration_minutes": 60,
    "rating": 4.0,
    "lat": 40.0677093,
    "lon": 116.0802113,
    "description": "A popular history spot in Beijing.",
    "city": "Beijing"
  },
  {
    "name": "“如来愁”摩崖石刻",
    "category": "history",
    "duration_minutes": 60,
    "rating": 4.0,
    "lat": 39.6039628,
    "lon": 115.7076274,
    "description": "A popular history spot in Beijing.",
    "city": "Beijing"
  },
  {
    "name": "“妙峰古道”石刻",
    "category": "history",
    "duration_minutes": 60,
    "rating": 4.0,
    "lat": 40.0663389,
    "lon": 116.0982743,
    "description": "A popular history spot in Beijing.",
    "city": "Beijing"
  },
  {
    "name": "“妙高峰南界”石刻",
    "category": "history",
    "duration_minutes": 60,
    "rating": 4.0,
    "lat": 40.0781252,
    "lon": 116.0815829,
    "description": "A popular history spot in Beijing.",
    "city": "Beijing"
  },
  {
    "name": "“居庸尽忠”石刻",
    "category": "history",
    "duration_minutes": 60,
    "rating": 4.0,
    "lat": 40.2880789,
    "lon": 116.0547878,
    "description": "A popular history spot in Beijing.",
    "city": "Beijing"
  },
  {
    "name": "“师垂典则，范示群伦”刻石",
    "category": "history",
    "duration_minutes": 60,
    "rating": 4.0,
    "lat": 39.9585512,
    "lon": 116.363722,
    "description": "A popular history spot in Beijing.",
    "city": "Beijing"
  },
  {
    "name": "“师范”碑",
    "category": "history",
    "duration_minutes": 60,
    "rating": 4.0,
    "lat": 39.9580636,
    "lon": 116.3586237,
    "description": "A popular history spot in Beijing.",
    "city": "Beijing"
  },
  {
    "name": "“御制旌忠”碑",
    "category": "history",
    "duration_minutes": 60,
    "rating": 4.0,
    "lat": 40.2671995,
    "lon": 116.1916539,
    "description": "A popular history spot in Beijing.",
    "city": "Beijing"
  },
  {
    "name": "“振兴中华”石碑",
    "category": "history",
    "duration_minutes": 60,
    "rating": 4.0,
    "lat": 39.9913184,
    "lon": 116.3049201,
    "description": "A popular history spot in Beijing.",
    "city": "Beijing"
  },
  {
    "name": "“挹翠”石刻",
    "category": "history",
    "duration_minutes": 60,
    "rating": 4.0,
    "lat": 39.9934244,
    "lon": 116.3029433,
    "description": "A popular history spot in Beijing.",
    "city": "Beijing"
  },
  {
    "name": "“救死扶伤”纪念坛简介",
    "category": "history",
    "duration_minutes": 60,
    "rating": 4.0,
    "lat": 40.0396886,
    "lon": 116.1920516,
    "description": "A popular history spot in Beijing.",
    "city": "Beijing"
  },
  {
    "name": "“敕建”碑",
    "category": "history",
    "duration_minutes": 60,
    "rating": 4.0,
    "lat": 40.2672021,
    "lon": 116.1918021,
    "description": "A popular history spot in Beijing.",
    "city": "Beijing"
  },
  {
    "name": "“断桥残雪“石坊楣",
    "category": "history",
    "duration_minutes": 60,
    "rating": 4.0,
    "lat": 39.9959694,
    "lon": 116.3036026,
    "description": "A popular history spot in Beijing.",
    "city": "Beijing"
  },
  {
    "name": "“曲径通幽”石刻",
    "category": "history",
    "duration_minutes": 60,
    "rating": 4.0,
    "lat": 39.5918593,
    "lon": 115.7357236,
    "description": "A popular history spot in Beijing.",
    "city": "Beijing"
  },
  {
    "name": "“有佛”摩崖石刻",
    "category": "history",
    "duration_minutes": 60,
    "rating": 4.0,
    "lat": 40.0428673,
    "lon": 116.0840038,
    "description": "A popular history spot in Beijing.",
    "city": "Beijing"
  },
  {
    "name": "“柳浪闻莺“石坊楣",
    "category": "history",
    "duration_minutes": 60,
    "rating": 4.0,
    "lat": 39.995206,
    "lon": 116.3009569,
    "description": "A popular history spot in Beijing.",
    "city": "Beijing"
  },
  {
    "name": "“桃花坞西界“摩崖石刻",
    "category": "history",
    "duration_minutes": 60,
    "rating": 4.0,
    "lat": 39.917044,
    "lon": 116.0526093,
    "description": "A popular history spot in Beijing.",
    "city": "Beijing"
  },
  {
    "name": "“樱桃沟”石刻",
    "category": "history",
    "duration_minutes": 60,
    "rating": 4.0,
    "lat": 39.9193646,
    "lon": 116.062325,
    "description": "A popular history spot in Beijing.",
    "city": "Beijing"
  },
  {
    "name": "“流芳百世”纪念碑",
    "category": "history",
    "duration_minutes": 60,
    "rating": 4.0,
    "lat": 40.3858337,
    "lon": 116.2051165,
    "description": "A popular history spot in Beijing.",
    "city": "Beijing"
  },
  {
    "name": "“燕宫太液”石刻",
    "category": "history",
    "duration_minutes": 60,
    "rating": 4.0,
    "lat": 39.9936189,
    "lon": 116.3037793,
    "description": "A popular history spot in Beijing.",
    "city": "Beijing"
  },
  {
    "name": "“爱我中华修我长城”碑",
    "category": "history",
    "duration_minutes": 60,
    "rating": 4.0,
    "lat": 40.348787,
    "lon": 116.0042249,
    "description": "A popular history spot in Beijing.",
    "city": "Beijing"
  },
  {
    "name": "“爱我长城修我长城”纪念碑",
    "category": "history",
    "duration_minutes": 60,
    "rating": 4.0,
    "lat": 40.3543653,
    "lon": 116.0072755,
    "description": "A popular history spot in Beijing.",
    "city": "Beijing"
  },
  {
    "name": "“王承恩墓”碑",
    "category": "history",
    "duration_minutes": 60,
    "rating": 4.0,
    "lat": 40.2672174,
    "lon": 116.1920757,
    "description": "A popular history spot in Beijing.",
    "city": "Beijing"
  },
  {
    "name": "“界”字石刻",
    "category": "history",
    "duration_minutes": 60,
    "rating": 4.0,
    "lat": 40.0602129,
    "lon": 116.0908477,
    "description": "A popular history spot in Beijing.",
    "city": "Beijing"
  },
  {
    "name": "“瞻云妙”石刻",
    "category": "history",
    "duration_minutes": 60,
    "rating": 4.0,
    "lat": 40.067105,
    "lon": 116.0773354,
    "description": "A popular history spot in Beijing.",
    "city": "Beijing"
  },
  {
    "name": "“积雪岩”摩崖石刻",
    "category": "history",
    "duration_minutes": 60,
    "rating": 4.0,
    "lat": 39.6456121,
    "lon": 115.7778958,
    "description": "A popular history spot in Beijing.",
    "city": "Beijing"
  },
  {
    "name": "“红色大庄科”石碑",
    "category": "history",
    "duration_minutes": 60,
    "rating": 4.0,
    "lat": 40.3844631,
    "lon": 116.2500591,
    "description": "A popular history spot in Beijing.",
    "city": "Beijing"
  },
  {
    "name": "“醇亲王到此”摩崖碑",
    "category": "history",
    "duration_minutes": 60,
    "rating": 4.0,
    "lat": 39.992433,
    "lon": 116.031718,
    "description": "A popular history spot in Beijing.",
    "city": "Beijing"
  },
  {
    "name": "“金山圣泉”石碑",
    "category": "history",
    "duration_minutes": 60,
    "rating": 4.0,
    "lat": 40.0671501,
    "lon": 116.0815409,
    "description": "A popular history spot in Beijing.",
    "city": "Beijing"
  },
  {
    "name": "“飞云岩”石刻",
    "category": "history",
    "duration_minutes": 60,
    "rating": 4.0,
    "lat": 39.886197,
    "lon": 116.0723378,
    "description": "A popular history spot in Beijing.",
    "city": "Beijing"
  },
  {
    "name": "“飞泉”石刻",
    "category": "history",
    "duration_minutes": 60,
    "rating": 4.0,
    "lat": 39.9182064,
    "lon": 116.0614935,
    "description": "A popular history spot in Beijing.",
    "city": "Beijing"
  },
  {
    "name": "“鹫峰”石刻",
    "category": "history",
    "duration_minutes": 60,
    "rating": 4.0,
    "lat": 40.0594302,
    "lon": 116.090136,
    "description": "A popular history spot in Beijing.",
    "city": "Beijing"
  },
  {
    "name": "“鹫峰修真观”石刻",
    "category": "history",
    "duration_minutes": 60,
    "rating": 4.0,
    "lat": 40.0597707,
    "lon": 116.0904252,
    "description": "A popular history spot in Beijing.",
    "city": "Beijing"
  },
  {
    "name": "“龙泉寺东界”石刻",
    "category": "history",
    "duration_minutes": 60,
    "rating": 4.0,
    "lat": 40.0763411,
    "lon": 116.0831588,
    "description": "A popular history spot in Beijing.",
    "city": "Beijing"
  },
  {
    "name": "“龙泉寺北界”石刻",
    "category": "history",
    "duration_minutes": 60,
    "rating": 4.0,
    "lat": 40.0781053,
    "lon": 116.0815859,
    "description": "A popular history spot in Beijing.",
    "city": "Beijing"
  },
  {
    "name": "“𣑯源”摩崖石刻",
    "category": "history",
    "duration_minutes": 60,
    "rating": 4.0,
    "lat": 40.0751857,
    "lon": 116.0857206,
    "description": "A popular history spot in Beijing.",
    "city": "Beijing"
  },
  {
    "name": "”念佛“摩崖石刻",
    "category": "history",
    "duration_minutes": 60,
    "rating": 4.0,
    "lat": 39.8781429,
    "lon": 116.0686514,
    "description": "A popular history spot in Beijing.",
    "city": "Beijing"
  },
  {
    "name": "”朝阳庵“摩崖石刻",
    "category": "history",
    "duration_minutes": 60,
    "rating": 4.0,
    "lat": 40.0950115,
    "lon": 116.0721505,
    "description": "A popular history spot in Beijing.",
    "city": "Beijing"
  },
  {
    "name": "”赤藻玉液“摩崖石刻",
    "category": "history",
    "duration_minutes": 60,
    "rating": 4.0,
    "lat": 40.1130154,
    "lon": 116.0792465,
    "description": "A popular history spot in Beijing.",
    "city": "Beijing"
  },
  {
    "name": "”青麟峡“摩崖石刻",
    "category": "history",
    "duration_minutes": 60,
    "rating": 4.0,
    "lat": 39.921701,
    "lon": 116.0583402,
    "description": "A popular history spot in Beijing.",
    "city": "Beijing"
  },
  {
    "name": "”龙泉寺南界“摩崖石刻",
    "category": "history",
    "duration_minutes": 60,
    "rating": 4.0,
    "lat": 40.0724144,
    "lon": 116.0770394,
    "description": "A popular history spot in Beijing.",
    "city": "Beijing"
  },
  {
    "name": "《礼记》摩崖石刻",
    "category": "history",
    "duration_minutes": 60,
    "rating": 4.0,
    "lat": 40.0498279,
    "lon": 116.1586095,
    "description": "A popular history spot in Beijing.",
    "city": "Beijing"
  },
  {
    "name": "《般若波罗蜜多心经》石碑",
    "category": "history",
    "duration_minutes": 60,
    "rating": 4.0,
    "lat": 40.3373745,
    "lon": 116.0313567,
    "description": "A popular history spot in Beijing.",
    "city": "Beijing"
  },
  {
    "name": "一二九纪念碑",
    "category": "history",
    "duration_minutes": 60,
    "rating": 4.0,
    "lat": 39.959881,
    "lon": 116.361581,
    "description": "A popular history spot in Beijing.",
    "city": "Beijing"
  },
  {
    "name": "一二九运动纪念碑",
    "category": "history",
    "duration_minutes": 60,
    "rating": 4.0,
    "lat": 39.9346511,
    "lon": 116.3779657,
    "description": "A popular history spot in Beijing.",
    "city": "Beijing"
  },
  {
    "name": "一二山",
    "category": "sightseeing",
    "duration_minutes": 60,
    "rating": 4.0,
    "lat": 39.976195,
    "lon": 116.1620878,
    "description": "A popular sightseeing spot in Beijing.",
    "city": "Beijing"
  },
  {
    "name": "一代天骄—成吉思汗石碑",
    "category": "history",
    "duration_minutes": 60,
    "rating": 4.0,
    "lat": 40.4016019,
    "lon": 115.9709497,
    "description": "A popular history spot in Beijing.",
    "city": "Beijing"
  },
  {
    "name": "一带双桥",
    "category": "outdoor",
    "duration_minutes": 60,
    "rating": 4.0,
    "lat": 40.4185911,
    "lon": 116.6307981,
    "description": "A popular outdoor spot in Beijing.",
    "city": "Beijing"
  },
  {
    "name": "一片石",
    "category": "outdoor",
    "duration_minutes": 60,
    "rating": 4.0,
    "lat": 39.9695834,
    "lon": 116.1712775,
    "description": "A popular outdoor spot in Beijing.",
    "city": "Beijing"
  },
  {
    "name": "一盆水",
    "category": "history",
    "duration_minutes": 60,
    "rating": 4.0,
    "lat": 40.015459,
    "lon": 116.1879436,
    "description": "A popular history spot in Beijing.",
    "city": "Beijing"
  },
  {
    "name": "一线天",
    "category": "sightseeing",
    "duration_minutes": 60,
    "rating": 4.0,
    "lat": 40.0027828,
    "lon": 115.6284144,
    "description": "A popular sightseeing spot in Beijing.",
    "city": "Beijing"
  },
  {
    "name": "一线天石缝",
    "category": "sightseeing",
    "duration_minutes": 60,
    "rating": 4.0,
    "lat": 40.1296736,
    "lon": 116.0958252,
    "description": "A popular sightseeing spot in Beijing.",
    "city": "Beijing"
  },
  {
    "name": "一镜衔天",
    "category": "outdoor",
    "duration_minutes": 60,
    "rating": 4.0,
    "lat": 39.7699348,
    "lon": 116.2654186,
    "description": "A popular outdoor spot in Beijing.",
    "city": "Beijing"
  },
  {
    "name": "七〇六大厂房",
    "category": "sightseeing",
    "duration_minutes": 60,
    "rating": 4.0,
    "lat": 39.985607,
    "lon": 116.4889636,
    "description": "A popular sightseeing spot in Beijing.",
    "city": "Beijing"
  },
  {
    "name": "七仙指路",
    "category": "outdoor",
    "duration_minutes": 60,
    "rating": 4.0,
    "lat": 40.4334503,
    "lon": 116.6213463,
    "description": "A popular outdoor spot in Beijing.",
    "city": "Beijing"
  },
  {
    "name": "七夕桥",
    "category": "sightseeing",
    "duration_minutes": 60,
    "rating": 4.0,
    "lat": 39.6259703,
    "lon": 115.5736364,
    "description": "A popular sightseeing spot in Beijing.",
    "city": "Beijing"
  },
  {
    "name": "七彩山鸡",
    "category": "outdoor",
    "duration_minutes": 60,
    "rating": 4.0,
    "lat": 40.3415891,
    "lon": 115.9896221,
    "description": "A popular outdoor spot in Beijing.",
    "city": "Beijing"
  },
  {
    "name": "七星石",
    "category": "history",
    "duration_minutes": 60,
    "rating": 4.0,
    "lat": 39.8815656,
    "lon": 116.4101183,
    "description": "A popular history spot in Beijing.",
    "city": "Beijing"
  },
  {
    "name": "七王坟石刻群",
    "category": "history",
    "duration_minutes": 60,
    "rating": 4.0,
    "lat": 40.0803455,
    "lon": 116.0762235,
    "description": "A popular history spot in Beijing.",
    "city": "Beijing"
  },
  {
    "name": "七神庙遗址",
    "category": "history",
    "duration_minutes": 60,
    "rating": 4.0,
    "lat": 39.9409627,
    "lon": 115.9875372,
    "description": "A popular history spot in Beijing.",
    "city": "Beijing"
  },
  {
    "name": "七道拐",
    "category": "sightseeing",
    "duration_minutes": 60,
    "rating": 4.0,
    "lat": 39.9137342,
    "lon": 115.7891638,
    "description": "A popular sightseeing spot in Beijing.",
    "city": "Beijing"
  },
  {
    "name": "万亩松",
    "category": "sightseeing",
    "duration_minutes": 60,
    "rating": 4.0,
    "lat": 39.6951566,
    "lon": 115.7696375,
    "description": "A popular sightseeing spot in Beijing.",
    "city": "Beijing"
  },
  {
    "name": "万佛堂、孔水洞石刻及塔文保碑",
    "category": "history",
    "duration_minutes": 60,
    "rating": 4.0,
    "lat": 39.7892301,
    "lon": 115.9815226,
    "description": "A popular history spot in Beijing.",
    "city": "Beijing"
  },
  {
    "name": "万佛堂古井",
    "category": "history",
    "duration_minutes": 60,
    "rating": 4.0,
    "lat": 39.8982829,
    "lon": 116.070496,
    "description": "A popular history spot in Beijing.",
    "city": "Beijing"
  },
  {
    "name": "万佛堂古桥",
    "category": "history",
    "duration_minutes": 60,
    "rating": 4.0,
    "lat": 39.898947,
    "lon": 116.0706051,
    "description": "A popular history spot in Beijing.",
    "city": "Beijing"
  },
  {
    "name": "万佛寺石碑",
    "category": "history",
    "duration_minutes": 60,
    "rating": 4.0,
    "lat": 39.898843,
    "lon": 116.0699009,
    "description": "A popular history spot in Beijing.",
    "city": "Beijing"
  },
  {
    "name": "万佛楼石碑",
    "category": "history",
    "duration_minutes": 60,
    "rating": 4.0,
    "lat": 39.9281386,
    "lon": 116.3787093,
    "description": "A popular history spot in Beijing.",
    "city": "Beijing"
  },
  {
    "name": "万历宝座",
    "category": "history",
    "duration_minutes": 60,
    "rating": 4.0,
    "lat": 40.295192,
    "lon": 116.2155937,
    "description": "A popular history spot in Beijing.",
    "city": "Beijing"
  },
  {
    "name": "万寿山昆明湖碑",
    "category": "history",
    "duration_minutes": 60,
    "rating": 4.0,
    "lat": 39.9977307,
    "lon": 116.2685776,
    "description": "A popular history spot in Beijing.",
    "city": "Beijing"
  },
  {
    "name": "万方安和",
    "category": "sightseeing",
    "duration_minutes": 60,
    "rating": 4.0,
    "lat": 40.0055691,
    "lon": 116.2866903,
    "description": "A popular sightseeing spot in Beijing.",
    "city": "Beijing"
  },
  {
    "name": "万泉漱玉",
    "category": "sightseeing",
    "duration_minutes": 60,
    "rating": 4.0,
    "lat": 39.9847163,
    "lon": 116.2889567,
    "description": "A popular sightseeing spot in Beijing.",
    "city": "Beijing"
  },
  {
    "name": "万里长城·八达岭文保碑",
    "category": "history",
    "duration_minutes": 60,
    "rating": 4.0,
    "lat": 40.3542974,
    "lon": 116.0064367,
    "description": "A popular history spot in Beijing.",
    "city": "Beijing"
  },
  {
    "name": "万顷园景区（废弃）",
    "category": "sightseeing",
    "duration_minutes": 60,
    "rating": 4.0,
    "lat": 39.8670398,
    "lon": 115.7899406,
    "description": "A popular sightseeing spot in Beijing.",
    "city": "Beijing"
  },
  {
    "name": "三一八惨案发生地",
    "category": "history",
    "duration_minutes": 60,
    "rating": 4.0,
    "lat": 39.9322611,
    "lon": 116.4090729,
    "description": "A popular history spot in Beijing.",
    "city": "Beijing"
  },
  {
    "name": "三一八殉难烈士纪念碑",
    "category": "history",
    "duration_minutes": 60,
    "rating": 4.0,
    "lat": 39.9584373,
    "lon": 116.3565993,
    "description": "A popular history spot in Beijing.",
    "city": "Beijing"
  },
  {
    "name": "三十三台阶",
    "category": "sightseeing",
    "duration_minutes": 60,
    "rating": 4.0,
    "lat": 40.3377041,
    "lon": 116.0312441,
    "description": "A popular sightseeing spot in Beijing.",
    "city": "Beijing"
  },
  {
    "name": "三十三台阶及五尊神仙雕像简介牌",
    "category": "history",
    "duration_minutes": 60,
    "rating": 4.0,
    "lat": 40.3376559,
    "lon": 116.03132,
    "description": "A popular history spot in Beijing.",
    "city": "Beijing"
  },
  {
    "name": "三座桥-右桥",
    "category": "history",
    "duration_minutes": 60,
    "rating": 4.0,
    "lat": 40.3214516,
    "lon": 116.2174845,
    "description": "A popular history spot in Beijing.",
    "city": "Beijing"
  },
  {
    "name": "三座门",
    "category": "history",
    "duration_minutes": 60,
    "rating": 4.0,
    "lat": 40.3226846,
    "lon": 116.216985,
    "description": "A popular history spot in Beijing.",
    "city": "Beijing"
  },
  {
    "name": "三朝遗想",
    "category": "outdoor",
    "duration_minutes": 60,
    "rating": 4.0,
    "lat": 39.9955092,
    "lon": 116.2503934,
    "description": "A popular outdoor spot in Beijing.",
    "city": "Beijing"
  },
  {
    "name": "三清洞文物普查登记牌",
    "category": "history",
    "duration_minutes": 60,
    "rating": 4.0,
    "lat": 40.0904827,
    "lon": 116.0782202,
    "description": "A popular history spot in Beijing.",
    "city": "Beijing"
  },
  {
    "name": "三片石",
    "category": "sightseeing",
    "duration_minutes": 60,
    "rating": 4.0,
    "lat": 39.9983822,
    "lon": 116.1707163,
    "description": "A popular sightseeing spot in Beijing.",
    "city": "Beijing"
  },
  {
    "name": "三界碑",
    "category": "outdoor",
    "duration_minutes": 60,
    "rating": 4.0,
    "lat": 40.226578,
    "lon": 117.3832891,
    "description": "A popular outdoor spot in Beijing.",
    "city": "Beijing"
  },
  {
    "name": "三盆水",
    "category": "sightseeing",
    "duration_minutes": 60,
    "rating": 4.0,
    "lat": 39.7477381,
    "lon": 115.8965402,
    "description": "A popular sightseeing spot in Beijing.",
    "city": "Beijing"
  },
  {
    "name": "三缸",
    "category": "sightseeing",
    "duration_minutes": 60,
    "rating": 4.0,
    "lat": 39.9429925,
    "lon": 115.9315301,
    "description": "A popular sightseeing spot in Beijing.",
    "city": "Beijing"
  },
  {
    "name": "三蟾问路",
    "category": "sightseeing",
    "duration_minutes": 60,
    "rating": 4.0,
    "lat": 40.0111621,
    "lon": 116.1774967,
    "description": "A popular sightseeing spot in Beijing.",
    "city": "Beijing"
  },
  {
    "name": "三角城东端",
    "category": "outdoor",
    "duration_minutes": 60,
    "rating": 4.0,
    "lat": 39.7484119,
    "lon": 115.6716447,
    "description": "A popular outdoor spot in Beijing.",
    "city": "Beijing"
  },
  {
    "name": "三角城北端",
    "category": "outdoor",
    "duration_minutes": 60,
    "rating": 4.0,
    "lat": 39.7512874,
    "lon": 115.6714499,
    "description": "A popular outdoor spot in Beijing.",
    "city": "Beijing"
  },
  {
    "name": "三角城西端",
    "category": "outdoor",
    "duration_minutes": 60,
    "rating": 4.0,
    "lat": 39.7469357,
    "lon": 115.6622877,
    "description": "A popular outdoor spot in Beijing.",
    "city": "Beijing"
  },
  {
    "name": "三连断崖",
    "category": "sightseeing",
    "duration_minutes": 60,
    "rating": 4.0,
    "lat": 39.9111452,
    "lon": 115.9295003,
    "description": "A popular sightseeing spot in Beijing.",
    "city": "Beijing"
  },
  {
    "name": "三迭水",
    "category": "sightseeing",
    "duration_minutes": 60,
    "rating": 4.0,
    "lat": 39.8649003,
    "lon": 116.1157535,
    "description": "A popular sightseeing spot in Beijing.",
    "city": "Beijing"
  },
  {
    "name": "三迭潭",
    "category": "sightseeing",
    "duration_minutes": 60,
    "rating": 4.0,
    "lat": 40.351823,
    "lon": 116.1856201,
    "description": "A popular sightseeing spot in Beijing.",
    "city": "Beijing"
  },
  {
    "name": "三通石缝",
    "category": "sightseeing",
    "duration_minutes": 60,
    "rating": 4.0,
    "lat": 40.1151872,
    "lon": 116.0770863,
    "description": "A popular sightseeing spot in Beijing.",
    "city": "Beijing"
  },
  {
    "name": "三里屯",
    "category": "sightseeing",
    "duration_minutes": 60,
    "rating": 4.0,
    "lat": 39.9352006,
    "lon": 116.4492262,
    "description": "A popular sightseeing spot in Beijing.",
    "city": "Beijing"
  },
  {
    "name": "三里屯酒吧街",
    "category": "sightseeing",
    "duration_minutes": 60,
    "rating": 4.0,
    "lat": 39.9339929,
    "lon": 116.4493583,
    "description": "A popular sightseeing spot in Beijing.",
    "city": "Beijing"
  },
  {
    "name": "三院遗址",
    "category": "history",
    "duration_minutes": 60,
    "rating": 4.0,
    "lat": 40.0031323,
    "lon": 116.3174702,
    "description": "A popular history spot in Beijing.",
    "city": "Beijing"
  },
  {
    "name": "上下天光",
    "category": "sightseeing",
    "duration_minutes": 60,
    "rating": 4.0,
    "lat": 40.0054721,
    "lon": 116.2894568,
    "description": "A popular sightseeing spot in Beijing.",
    "city": "Beijing"
  },
  {
    "name": "上关城文保碑",
    "category": "history",
    "duration_minutes": 60,
    "rating": 4.0,
    "lat": 40.313161,
    "lon": 116.0413076,
    "description": "A popular history spot in Beijing.",
    "city": "Beijing"
  },
  {
    "name": "上关锁钥碑",
    "category": "history",
    "duration_minutes": 60,
    "rating": 4.0,
    "lat": 40.3106675,
    "lon": 116.0457467,
    "description": "A popular history spot in Beijing.",
    "city": "Beijing"
  },
  {
    "name": "上古遗风",
    "category": "sightseeing",
    "duration_minutes": 60,
    "rating": 4.0,
    "lat": 39.9592378,
    "lon": 116.1684933,
    "description": "A popular sightseeing spot in Beijing.",
    "city": "Beijing"
  },
  {
    "name": "上善若水",
    "category": "sightseeing",
    "duration_minutes": 60,
    "rating": 4.0,
    "lat": 39.8420388,
    "lon": 115.7205258,
    "description": "A popular sightseeing spot in Beijing.",
    "city": "Beijing"
  },
  {
    "name": "上宅文化陈列馆",
    "category": "museum",
    "duration_minutes": 60,
    "rating": 4.0,
    "lat": 40.1868811,
    "lon": 117.295897,
    "description": "A popular museum spot in Beijing.",
    "city": "Beijing"
  },
  {
    "name": "上寺遗址",
    "category": "history",
    "duration_minutes": 60,
    "rating": 4.0,
    "lat": 39.6042114,
    "lon": 115.7078764,
    "description": "A popular history spot in Beijing.",
    "city": "Beijing"
  },
  {
    "name": "上平台茶棚",
    "category": "history",
    "duration_minutes": 60,
    "rating": 4.0,
    "lat": 40.0526175,
    "lon": 116.0663631,
    "description": "A popular history spot in Beijing.",
    "city": "Beijing"
  },
  {
    "name": "上方寺上层遗址",
    "category": "history",
    "duration_minutes": 60,
    "rating": 4.0,
    "lat": 40.1126123,
    "lon": 116.0695041,
    "description": "A popular history spot in Beijing.",
    "city": "Beijing"
  },
  {
    "name": "上方寺古井",
    "category": "history",
    "duration_minutes": 60,
    "rating": 4.0,
    "lat": 40.1126876,
    "lon": 116.0701672,
    "description": "A popular history spot in Beijing.",
    "city": "Beijing"
  },
  {
    "name": "上方寺遗址",
    "category": "history",
    "duration_minutes": 60,
    "rating": 4.0,
    "lat": 40.1127617,
    "lon": 116.0715014,
    "description": "A popular history spot in Beijing.",
    "city": "Beijing"
  },
  {
    "name": "上游1339",
    "category": "history",
    "duration_minutes": 60,
    "rating": 4.0,
    "lat": 39.8900685,
    "lon": 116.5110451,
    "description": "A popular history spot in Beijing.",
    "city": "Beijing"
  },
  {
    "name": "上龙潭",
    "category": "sightseeing",
    "duration_minutes": 60,
    "rating": 4.0,
    "lat": 40.3610784,
    "lon": 116.1868408,
    "description": "A popular sightseeing spot in Beijing.",
    "city": "Beijing"
  },
  {
    "name": "下行第一崖",
    "category": "sightseeing",
    "duration_minutes": 60,
    "rating": 4.0,
    "lat": 39.908814,
    "lon": 115.8988993,
    "description": "A popular sightseeing spot in Beijing.",
    "city": "Beijing"
  },
  {
    "name": "下行第三崖",
    "category": "sightseeing",
    "duration_minutes": 60,
    "rating": 4.0,
    "lat": 39.9054502,
    "lon": 115.8971408,
    "description": "A popular sightseeing spot in Beijing.",
    "city": "Beijing"
  },
  {
    "name": "下行第二崖",
    "category": "sightseeing",
    "duration_minutes": 60,
    "rating": 4.0,
    "lat": 39.9076037,
    "lon": 115.898619,
    "description": "A popular sightseeing spot in Beijing.",
    "city": "Beijing"
  },
  {
    "name": "下行第四崖",
    "category": "sightseeing",
    "duration_minutes": 60,
    "rating": 4.0,
    "lat": 39.9040799,
    "lon": 115.8963832,
    "description": "A popular sightseeing spot in Beijing.",
    "city": "Beijing"
  },
  {
    "name": "下马碑",
    "category": "history",
    "duration_minutes": 60,
    "rating": 4.0,
    "lat": 39.922652,
    "lon": 116.3611373,
    "description": "A popular history spot in Beijing.",
    "city": "Beijing"
  },
  {
    "name": "下龙潭",
    "category": "sightseeing",
    "duration_minutes": 60,
    "rating": 4.0,
    "lat": 40.3592397,
    "lon": 116.1843113,
    "description": "A popular sightseeing spot in Beijing.",
    "city": "Beijing"
  },
  {
    "name": "不到长城非好汉石壁",
    "category": "sightseeing",
    "duration_minutes": 60,
    "rating": 4.0,
    "lat": 40.3556602,
    "lon": 116.0033273,
    "description": "A popular sightseeing spot in Beijing.",
    "city": "Beijing"
  },
  {
    "name": "不死葫芦套",
    "category": "sightseeing",
    "duration_minutes": 60,
    "rating": 4.0,
    "lat": 40.1214995,
    "lon": 116.0793048,
    "description": "A popular sightseeing spot in Beijing.",
    "city": "Beijing"
  },
  {
    "name": "世界公园",
    "category": "outdoor",
    "duration_minutes": 60,
    "rating": 4.0,
    "lat": 39.8087122,
    "lon": 116.2815946,
    "description": "A popular outdoor spot in Beijing.",
    "city": "Beijing"
  },
  {
    "name": "世界园艺展示区",
    "category": "sightseeing",
    "duration_minutes": 60,
    "rating": 4.0,
    "lat": 40.4407056,
    "lon": 115.9533166,
    "description": "A popular sightseeing spot in Beijing.",
    "city": "Beijing"
  },
  {
    "name": "世界妇女友谊林",
    "category": "history",
    "duration_minutes": 60,
    "rating": 4.0,
    "lat": 40.3034754,
    "lon": 116.6189752,
    "description": "A popular history spot in Beijing.",
    "city": "Beijing"
  },
  {
    "name": "世界语林",
    "category": "history",
    "duration_minutes": 60,
    "rating": 4.0,
    "lat": 39.9423989,
    "lon": 116.471433,
    "description": "A popular history spot in Beijing.",
    "city": "Beijing"
  },
  {
    "name": "世祖庙匾额",
    "category": "history",
    "duration_minutes": 60,
    "rating": 4.0,
    "lat": 40.401488,
    "lon": 115.9709263,
    "description": "A popular history spot in Beijing.",
    "city": "Beijing"
  },
  {
    "name": "世纪喷泉广场",
    "category": "sightseeing",
    "duration_minutes": 60,
    "rating": 4.0,
    "lat": 39.9364341,
    "lon": 116.4769673,
    "description": "A popular sightseeing spot in Beijing.",
    "city": "Beijing"
  },
  {
    "name": "世艺花舞",
    "category": "sightseeing",
    "duration_minutes": 60,
    "rating": 4.0,
    "lat": 40.4400528,
    "lon": 115.9531372,
    "description": "A popular sightseeing spot in Beijing.",
    "city": "Beijing"
  },
  {
    "name": "丛林飞车",
    "category": "sightseeing",
    "duration_minutes": 60,
    "rating": 4.0,
    "lat": 39.8680985,
    "lon": 116.4873641,
    "description": "A popular sightseeing spot in Beijing.",
    "city": "Beijing"
  },
  {
    "name": "丛林驿站",
    "category": "sightseeing",
    "duration_minutes": 60,
    "rating": 4.0,
    "lat": 39.8674398,
    "lon": 116.4870573,
    "description": "A popular sightseeing spot in Beijing.",
    "city": "Beijing"
  },
  {
    "name": "东井",
    "category": "history",
    "duration_minutes": 60,
    "rating": 4.0,
    "lat": 40.0617166,
    "lon": 116.1146835,
    "description": "A popular history spot in Beijing.",
    "city": "Beijing"
  },
  {
    "name": "东北虎园",
    "category": "outdoor",
    "duration_minutes": 60,
    "rating": 4.0,
    "lat": 40.3390873,
    "lon": 115.9914567,
    "description": "A popular outdoor spot in Beijing.",
    "city": "Beijing"
  },
  {
    "name": "东山古道文保碑",
    "category": "history",
    "duration_minutes": 60,
    "rating": 4.0,
    "lat": 40.0071949,
    "lon": 116.1548824,
    "description": "A popular history spot in Beijing.",
    "city": "Beijing"
  },
  {
    "name": "东山村原住民遗址",
    "category": "history",
    "duration_minutes": 60,
    "rating": 4.0,
    "lat": 40.0072439,
    "lon": 116.1529131,
    "description": "A popular history spot in Beijing.",
    "city": "Beijing"
  },
  {
    "name": "东峰庵遗址",
    "category": "history",
    "duration_minutes": 60,
    "rating": 4.0,
    "lat": 40.300118,
    "lon": 116.149802,
    "description": "A popular history spot in Beijing.",
    "city": "Beijing"
  },
  {
    "name": "东张各庄村1号",
    "category": "history",
    "duration_minutes": 60,
    "rating": 4.0,
    "lat": 39.7086096,
    "lon": 116.7972995,
    "description": "A popular history spot in Beijing.",
    "city": "Beijing"
  },
  {
    "name": "东方佛石刻",
    "category": "history",
    "duration_minutes": 60,
    "rating": 4.0,
    "lat": 39.8970795,
    "lon": 116.071788,
    "description": "A popular history spot in Beijing.",
    "city": "Beijing"
  },
  {
    "name": "东方红2-0023号机车",
    "category": "history",
    "duration_minutes": 60,
    "rating": 4.0,
    "lat": 39.9814145,
    "lon": 116.3330433,
    "description": "A popular history spot in Beijing.",
    "city": "Beijing"
  },
  {
    "name": "东方红5 0369",
    "category": "history",
    "duration_minutes": 60,
    "rating": 4.0,
    "lat": 39.8906226,
    "lon": 116.510466,
    "description": "A popular history spot in Beijing.",
    "city": "Beijing"
  },
  {
    "name": "东棉花胡同",
    "category": "sightseeing",
    "duration_minutes": 60,
    "rating": 4.0,
    "lat": 39.9342264,
    "lon": 116.3997081,
    "description": "A popular sightseeing spot in Beijing.",
    "city": "Beijing"
  },
  {
    "name": "东湖港景区",
    "category": "sightseeing",
    "duration_minutes": 60,
    "rating": 4.0,
    "lat": 39.6675006,
    "lon": 115.5173547,
    "description": "A popular sightseeing spot in Beijing.",
    "city": "Beijing"
  },
  {
    "name": "东湾汇德",
    "category": "outdoor",
    "duration_minutes": 60,
    "rating": 4.0,
    "lat": 40.4142763,
    "lon": 116.6384516,
    "description": "A popular outdoor spot in Beijing.",
    "city": "Beijing"
  },
  {
    "name": "东灰岭东古城",
    "category": "history",
    "duration_minutes": 60,
    "rating": 4.0,
    "lat": 40.4852331,
    "lon": 116.1929432,
    "description": "A popular history spot in Beijing.",
    "city": "Beijing"
  },
  {
    "name": "东灰岭西古城",
    "category": "history",
    "duration_minutes": 60,
    "rating": 4.0,
    "lat": 40.4848284,
    "lon": 116.1886042,
    "description": "A popular history spot in Beijing.",
    "city": "Beijing"
  },
  {
    "name": "东碑",
    "category": "history",
    "duration_minutes": 60,
    "rating": 4.0,
    "lat": 40.0502897,
    "lon": 116.1327488,
    "description": "A popular history spot in Beijing.",
    "city": "Beijing"
  },
  {
    "name": "东胡林人遗址",
    "category": "history",
    "duration_minutes": 60,
    "rating": 4.0,
    "lat": 39.9852755,
    "lon": 115.7425553,
    "description": "A popular history spot in Beijing.",
    "city": "Beijing"
  },
  {
    "name": "东风4-0002“毛泽东号”机车",
    "category": "history",
    "duration_minutes": 60,
    "rating": 4.0,
    "lat": 39.8366741,
    "lon": 116.2421683,
    "description": "A popular history spot in Beijing.",
    "city": "Beijing"
  },
  {
    "name": "东风4-1893“毛泽东号”机车",
    "category": "history",
    "duration_minutes": 60,
    "rating": 4.0,
    "lat": 39.8404851,
    "lon": 116.2392572,
    "description": "A popular history spot in Beijing.",
    "city": "Beijing"
  },
  {
    "name": "丝绸之路",
    "category": "sightseeing",
    "duration_minutes": 60,
    "rating": 4.0,
    "lat": 39.9069175,
    "lon": 116.404783,
    "description": "A popular sightseeing spot in Beijing.",
    "city": "Beijing"
  },
  {
    "name": "两爬动物观景区",
    "category": "outdoor",
    "duration_minutes": 60,
    "rating": 4.0,
    "lat": 40.1020581,
    "lon": 116.1765242,
    "description": "A popular outdoor spot in Beijing.",
    "city": "Beijing"
  },
  {
    "name": "中共中央图书馆旧址",
    "category": "museum",
    "duration_minutes": 60,
    "rating": 4.0,
    "lat": 39.9889548,
    "lon": 116.1870179,
    "description": "A popular museum spot in Beijing.",
    "city": "Beijing"
  },
  {
    "name": "中关村第一家民营科技企业创业史记",
    "category": "history",
    "duration_minutes": 60,
    "rating": 4.0,
    "lat": 40.0192814,
    "lon": 116.3094747,
    "description": "A popular history spot in Beijing.",
    "city": "Beijing"
  },
  {
    "name": "中华圣经会旧址",
    "category": "sightseeing",
    "duration_minutes": 60,
    "rating": 4.0,
    "lat": 39.9129887,
    "lon": 116.411369,
    "description": "A popular sightseeing spot in Beijing.",
    "city": "Beijing"
  },
  {
    "name": "中华第一条铁路涵洞",
    "category": "sightseeing",
    "duration_minutes": 60,
    "rating": 4.0,
    "lat": 40.3465815,
    "lon": 116.0162807,
    "description": "A popular sightseeing spot in Beijing.",
    "city": "Beijing"
  },
  {
    "name": "中厅",
    "category": "museum",
    "duration_minutes": 60,
    "rating": 4.0,
    "lat": 40.2880612,
    "lon": 116.0668893,
    "description": "A popular museum spot in Beijing.",
    "city": "Beijing"
  },
  {
    "name": "中国人偶博物馆",
    "category": "museum",
    "duration_minutes": 60,
    "rating": 4.0,
    "lat": 39.8328147,
    "lon": 116.7359984,
    "description": "A popular museum spot in Beijing.",
    "city": "Beijing"
  },
  {
    "name": "中国人民大学博物馆",
    "category": "museum",
    "duration_minutes": 60,
    "rating": 4.0,
    "lat": 39.9686321,
    "lon": 116.3070804,
    "description": "A popular museum spot in Beijing.",
    "city": "Beijing"
  },
  {
    "name": "中国人民抗日战争纪念馆",
    "category": "museum",
    "duration_minutes": 60,
    "rating": 4.0,
    "lat": 39.8503658,
    "lon": 116.2207769,
    "description": "A popular museum spot in Beijing.",
    "city": "Beijing"
  },
  {
    "name": "中国人民革命军事博物馆",
    "category": "museum",
    "duration_minutes": 60,
    "rating": 4.0,
    "lat": 39.9082545,
    "lon": 116.3178602,
    "description": "A popular museum spot in Beijing.",
    "city": "Beijing"
  },
  {
    "name": "中国共产党历史展览馆",
    "category": "museum",
    "duration_minutes": 60,
    "rating": 4.0,
    "lat": 40.0023663,
    "lon": 116.3930317,
    "description": "A popular museum spot in Beijing.",
    "city": "Beijing"
  },
  {
    "name": "中国农业大学饲料博物馆",
    "category": "museum",
    "duration_minutes": 60,
    "rating": 4.0,
    "lat": 40.0292115,
    "lon": 116.2788963,
    "description": "A popular museum spot in Beijing.",
    "city": "Beijing"
  },
  {
    "name": "中国冰川博物馆",
    "category": "museum",
    "duration_minutes": 60,
    "rating": 4.0,
    "lat": 39.9362881,
    "lon": 116.155674,
    "description": "A popular museum spot in Beijing.",
    "city": "Beijing"
  },
  {
    "name": "中国化工博物馆",
    "category": "museum",
    "duration_minutes": 60,
    "rating": 4.0,
    "lat": 39.9833085,
    "lon": 116.3027596,
    "description": "A popular museum spot in Beijing.",
    "city": "Beijing"
  },
  {
    "name": "中国华侨历史博物馆",
    "category": "museum",
    "duration_minutes": 60,
    "rating": 4.0,
    "lat": 39.9415315,
    "lon": 116.4188757,
    "description": "A popular museum spot in Beijing.",
    "city": "Beijing"
  },
  {
    "name": "中国印刷博物馆",
    "category": "museum",
    "duration_minutes": 60,
    "rating": 4.0,
    "lat": 39.7419714,
    "lon": 116.3252954,
    "description": "A popular museum spot in Beijing.",
    "city": "Beijing"
  },
  {
    "name": "中国古植物馆",
    "category": "museum",
    "duration_minutes": 60,
    "rating": 4.0,
    "lat": 39.989467,
    "lon": 116.2107587,
    "description": "A popular museum spot in Beijing.",
    "city": "Beijing"
  },
  {
    "name": "中国国家博物馆",
    "category": "museum",
    "duration_minutes": 60,
    "rating": 4.0,
    "lat": 39.9037114,
    "lon": 116.3954437,
    "description": "A popular museum spot in Beijing.",
    "city": "Beijing"
  },
  {
    "name": "中国国家版本馆中央总馆文瀚阁",
    "category": "museum",
    "duration_minutes": 60,
    "rating": 4.0,
    "lat": 40.258787,
    "lon": 116.4694616,
    "description": "A popular museum spot in Beijing.",
    "city": "Beijing"
  },
  {
    "name": "中国国家画院美术馆",
    "category": "sightseeing",
    "duration_minutes": 60,
    "rating": 4.0,
    "lat": 39.9370553,
    "lon": 116.3046,
    "description": "A popular sightseeing spot in Beijing.",
    "city": "Beijing"
  },
  {
    "name": "中国地质博物馆",
    "category": "museum",
    "duration_minutes": 60,
    "rating": 4.0,
    "lat": 39.9218619,
    "lon": 116.3661091,
    "description": "A popular museum spot in Beijing.",
    "city": "Beijing"
  },
  {
    "name": "中国妇女儿童博物馆",
    "category": "museum",
    "duration_minutes": 60,
    "rating": 4.0,
    "lat": 39.9090825,
    "lon": 116.4172824,
    "description": "A popular museum spot in Beijing.",
    "city": "Beijing"
  },
  {
    "name": "中国工艺美术馆",
    "category": "sightseeing",
    "duration_minutes": 60,
    "rating": 4.0,
    "lat": 40.0023293,
    "lon": 116.3912417,
    "description": "A popular sightseeing spot in Beijing.",
    "city": "Beijing"
  },
  {
    "name": "中国当代艺术档案",
    "category": "museum",
    "duration_minutes": 60,
    "rating": 4.0,
    "lat": 39.9835226,
    "lon": 116.4902521,
    "description": "A popular museum spot in Beijing.",
    "city": "Beijing"
  },
  {
    "name": "中国房山世界地质公园十渡博物馆",
    "category": "museum",
    "duration_minutes": 60,
    "rating": 4.0,
    "lat": 39.6343608,
    "lon": 115.5862552,
    "description": "A popular museum spot in Beijing.",
    "city": "Beijing"
  },
  {
    "name": "中国新民主主义革命纪念馆",
    "category": "museum",
    "duration_minutes": 60,
    "rating": 4.0,
    "lat": 39.9232736,
    "lon": 116.3990922,
    "description": "A popular museum spot in Beijing.",
    "city": "Beijing"
  },
  {
    "name": "中国核工业科技馆",
    "category": "museum",
    "duration_minutes": 60,
    "rating": 4.0,
    "lat": 39.7333527,
    "lon": 116.0544405,
    "description": "A popular museum spot in Beijing.",
    "city": "Beijing"
  },
  {
    "name": "中国民兵武器装备陈列馆",
    "category": "museum",
    "duration_minutes": 60,
    "rating": 4.0,
    "lat": 39.9365858,
    "lon": 116.6644591,
    "description": "A popular museum spot in Beijing.",
    "city": "Beijing"
  },
  {
    "name": "中国民族博物馆",
    "category": "museum",
    "duration_minutes": 60,
    "rating": 4.0,
    "lat": 39.9721664,
    "lon": 116.3031921,
    "description": "A popular museum spot in Beijing.",
    "city": "Beijing"
  },
  {
    "name": "中国民航博物馆",
    "category": "museum",
    "duration_minutes": 60,
    "rating": 4.0,
    "lat": 40.0168469,
    "lon": 116.5326174,
    "description": "A popular museum spot in Beijing.",
    "city": "Beijing"
  },
  {
    "name": "中国海关博物馆",
    "category": "museum",
    "duration_minutes": 60,
    "rating": 4.0,
    "lat": 39.9058338,
    "lon": 116.4268666,
    "description": "A popular museum spot in Beijing.",
    "city": "Beijing"
  },
  {
    "name": "中国消防博物馆",
    "category": "museum",
    "duration_minutes": 60,
    "rating": 4.0,
    "lat": 39.869998,
    "lon": 116.3461821,
    "description": "A popular museum spot in Beijing.",
    "city": "Beijing"
  },
  {
    "name": "中国现代文学馆",
    "category": "museum",
    "duration_minutes": 60,
    "rating": 4.0,
    "lat": 39.9833379,
    "lon": 116.4237823,
    "description": "A popular museum spot in Beijing.",
    "city": "Beijing"
  },
  {
    "name": "中国电信博物馆",
    "category": "museum",
    "duration_minutes": 60,
    "rating": 4.0,
    "lat": 39.9771607,
    "lon": 116.3487465,
    "description": "A popular museum spot in Beijing.",
    "city": "Beijing"
  },
  {
    "name": "中国电影博物馆",
    "category": "museum",
    "duration_minutes": 60,
    "rating": 4.0,
    "lat": 39.9950135,
    "lon": 116.5149167,
    "description": "A popular museum spot in Beijing.",
    "city": "Beijing"
  },
  {
    "name": "中国电影旅游拍摄基地",
    "category": "outdoor",
    "duration_minutes": 60,
    "rating": 4.0,
    "lat": 40.2864612,
    "lon": 116.665897,
    "description": "A popular outdoor spot in Beijing.",
    "city": "Beijing"
  },
  {
    "name": "中国科学技术馆",
    "category": "museum",
    "duration_minutes": 60,
    "rating": 4.0,
    "lat": 40.0045649,
    "lon": 116.3921967,
    "description": "A popular museum spot in Beijing.",
    "city": "Beijing"
  },
  {
    "name": "中国科学技术馆旧址",
    "category": "museum",
    "duration_minutes": 60,
    "rating": 4.0,
    "lat": 39.9686202,
    "lon": 116.3865019,
    "description": "A popular museum spot in Beijing.",
    "city": "Beijing"
  },
  {
    "name": "中国科学院大学 石刻",
    "category": "history",
    "duration_minutes": 60,
    "rating": 4.0,
    "lat": 40.4071186,
    "lon": 116.6757248,
    "description": "A popular history spot in Beijing.",
    "city": "Beijing"
  },
  {
    "name": "中国科学院大学校史馆",
    "category": "museum",
    "duration_minutes": 60,
    "rating": 4.0,
    "lat": 40.4067973,
    "lon": 116.6735546,
    "description": "A popular museum spot in Beijing.",
    "city": "Beijing"
  },
  {
    "name": "中国第一历史档案馆新馆",
    "category": "museum",
    "duration_minutes": 60,
    "rating": 4.0,
    "lat": 39.8973638,
    "lon": 116.404649,
    "description": "A popular museum spot in Beijing.",
    "city": "Beijing"
  },
  {
    "name": "中国紫檀博物馆",
    "category": "museum",
    "duration_minutes": 60,
    "rating": 4.0,
    "lat": 39.90945,
    "lon": 116.5201679,
    "description": "A popular museum spot in Beijing.",
    "city": "Beijing"
  },
  {
    "name": "中国美术馆",
    "category": "museum",
    "duration_minutes": 60,
    "rating": 4.0,
    "lat": 39.9238436,
    "lon": 116.4027592,
    "description": "A popular museum spot in Beijing.",
    "city": "Beijing"
  },
  {
    "name": "中国考古博物馆",
    "category": "museum",
    "duration_minutes": 60,
    "rating": 4.0,
    "lat": 39.997627,
    "lon": 116.3924775,
    "description": "A popular museum spot in Beijing.",
    "city": "Beijing"
  },
  {
    "name": "中国航空博物馆",
    "category": "museum",
    "duration_minutes": 60,
    "rating": 4.0,
    "lat": 40.1837124,
    "lon": 116.3603581,
    "description": "A popular museum spot in Beijing.",
    "city": "Beijing"
  },
  {
    "name": "中国营造学社纪念馆",
    "category": "museum",
    "duration_minutes": 60,
    "rating": 4.0,
    "lat": 39.998242,
    "lon": 116.3273782,
    "description": "A popular museum spot in Beijing.",
    "city": "Beijing"
  },
  {
    "name": "中国蜜蜂博物馆",
    "category": "museum",
    "duration_minutes": 60,
    "rating": 4.0,
    "lat": 40.005584,
    "lon": 116.1995503,
    "description": "A popular museum spot in Beijing.",
    "city": "Beijing"
  },
  {
    "name": "中国西瓜博物馆",
    "category": "museum",
    "duration_minutes": 60,
    "rating": 4.0,
    "lat": 39.6333986,
    "lon": 116.3171345,
    "description": "A popular museum spot in Beijing.",
    "city": "Beijing"
  },
  {
    "name": "中国钱币博物馆",
    "category": "museum",
    "duration_minutes": 60,
    "rating": 4.0,
    "lat": 39.9007157,
    "lon": 116.388693,
    "description": "A popular museum spot in Beijing.",
    "city": "Beijing"
  },
  {
    "name": "中国铁道博物馆（东郊展馆）",
    "category": "museum",
    "duration_minutes": 60,
    "rating": 4.0,
    "lat": 39.9966049,
    "lon": 116.5096658,
    "description": "A popular museum spot in Beijing.",
    "city": "Beijing"
  },
  {
    "name": "中国铁道博物馆（正阳门展馆）",
    "category": "museum",
    "duration_minutes": 60,
    "rating": 4.0,
    "lat": 39.8984657,
    "lon": 116.3941525,
    "description": "A popular museum spot in Beijing.",
    "city": "Beijing"
  },
  {
    "name": "中国长城博物馆",
    "category": "museum",
    "duration_minutes": 60,
    "rating": 4.0,
    "lat": 40.3566277,
    "lon": 116.003824,
    "description": "A popular museum spot in Beijing.",
    "city": "Beijing"
  },
  {
    "name": "中央电视塔",
    "category": "sightseeing",
    "duration_minutes": 60,
    "rating": 4.0,
    "lat": 39.9181765,
    "lon": 116.3002994,
    "description": "A popular sightseeing spot in Beijing.",
    "city": "Beijing"
  },
  {
    "name": "中央礼品文物管理中心",
    "category": "museum",
    "duration_minutes": 60,
    "rating": 4.0,
    "lat": 39.8965824,
    "lon": 116.4048464,
    "description": "A popular museum spot in Beijing.",
    "city": "Beijing"
  },
  {
    "name": "中新友谊纪念碑",
    "category": "history",
    "duration_minutes": 60,
    "rating": 4.0,
    "lat": 40.3541244,
    "lon": 116.0053902,
    "description": "A popular history spot in Beijing.",
    "city": "Beijing"
  },
  {
    "name": "中方佛上石刻",
    "category": "history",
    "duration_minutes": 60,
    "rating": 4.0,
    "lat": 39.8995757,
    "lon": 116.0709194,
    "description": "A popular history spot in Beijing.",
    "city": "Beijing"
  },
  {
    "name": "中方佛下石刻",
    "category": "history",
    "duration_minutes": 60,
    "rating": 4.0,
    "lat": 39.8998489,
    "lon": 116.0703808,
    "description": "A popular history spot in Beijing.",
    "city": "Beijing"
  },
  {
    "name": "中日佛教友谊林",
    "category": "history",
    "duration_minutes": 60,
    "rating": 4.0,
    "lat": 39.9593178,
    "lon": 116.1793482,
    "description": "A popular history spot in Beijing.",
    "city": "Beijing"
  },
  {
    "name": "中法大学旧址",
    "category": "museum",
    "duration_minutes": 60,
    "rating": 4.0,
    "lat": 39.926687,
    "lon": 116.4007945,
    "description": "A popular museum spot in Beijing.",
    "city": "Beijing"
  },
  {
    "name": "中泰友谊亭",
    "category": "sightseeing",
    "duration_minutes": 60,
    "rating": 4.0,
    "lat": 39.9427006,
    "lon": 116.4724844,
    "description": "A popular sightseeing spot in Beijing.",
    "city": "Beijing"
  },
  {
    "name": "中泰友谊纪念碑",
    "category": "history",
    "duration_minutes": 60,
    "rating": 4.0,
    "lat": 40.3541212,
    "lon": 116.0052969,
    "description": "A popular history spot in Beijing.",
    "city": "Beijing"
  },
  {
    "name": "中间美术馆",
    "category": "sightseeing",
    "duration_minutes": 60,
    "rating": 4.0,
    "lat": 39.9528861,
    "lon": 116.2249865,
    "description": "https://baike.baidu.com/item/%E4%B8%AD%E9%97%B4%E7%BE%8E%E6%9C%AF%E9%A6%86",
    "city": "Beijing"
  },
  {
    "name": "临展厅",
    "category": "museum",
    "duration_minutes": 60,
    "rating": 4.0,
    "lat": 39.6082352,
    "lon": 115.7675251,
    "description": "A popular museum spot in Beijing.",
    "city": "Beijing"
  },
  {
    "name": "临渊观鱼",
    "category": "outdoor",
    "duration_minutes": 60,
    "rating": 4.0,
    "lat": 40.1022547,
    "lon": 116.1735871,
    "description": "A popular outdoor spot in Beijing.",
    "city": "Beijing"
  },
  {
    "name": "临湖映眺",
    "category": "outdoor",
    "duration_minutes": 60,
    "rating": 4.0,
    "lat": 40.1024256,
    "lon": 116.1768634,
    "description": "A popular outdoor spot in Beijing.",
    "city": "Beijing"
  },
  {
    "name": "临空听泉",
    "category": "outdoor",
    "duration_minutes": 60,
    "rating": 4.0,
    "lat": 40.4167789,
    "lon": 116.6307928,
    "description": "A popular outdoor spot in Beijing.",
    "city": "Beijing"
  },
  {
    "name": "丹枫凝露",
    "category": "outdoor",
    "duration_minutes": 60,
    "rating": 4.0,
    "lat": 40.3822672,
    "lon": 116.6394638,
    "description": "A popular outdoor spot in Beijing.",
    "city": "Beijing"
  },
  {
    "name": "丹棱晴波",
    "category": "sightseeing",
    "duration_minutes": 60,
    "rating": 4.0,
    "lat": 39.985534,
    "lon": 116.2881941,
    "description": "A popular sightseeing spot in Beijing.",
    "city": "Beijing"
  },
  {
    "name": "丹霞岭",
    "category": "sightseeing",
    "duration_minutes": 60,
    "rating": 4.0,
    "lat": 40.0493416,
    "lon": 116.0775785,
    "description": "A popular sightseeing spot in Beijing.",
    "city": "Beijing"
  },
  {
    "name": "之字道",
    "category": "sightseeing",
    "duration_minutes": 60,
    "rating": 4.0,
    "lat": 39.6963344,
    "lon": 115.7886875,
    "description": "A popular sightseeing spot in Beijing.",
    "city": "Beijing"
  },
  {
    "name": "乌龙峡谷",
    "category": "sightseeing",
    "duration_minutes": 60,
    "rating": 4.0,
    "lat": 40.6963169,
    "lon": 116.4527184,
    "description": "A popular sightseeing spot in Beijing.",
    "city": "Beijing"
  },
  {
    "name": "乌龟石",
    "category": "sightseeing",
    "duration_minutes": 60,
    "rating": 4.0,
    "lat": 40.1197728,
    "lon": 116.0888475,
    "description": "A popular sightseeing spot in Beijing.",
    "city": "Beijing"
  },
  {
    "name": "乌龟石断崖",
    "category": "sightseeing",
    "duration_minutes": 60,
    "rating": 4.0,
    "lat": 40.1197111,
    "lon": 116.0883398,
    "description": "A popular sightseeing spot in Beijing.",
    "city": "Beijing"
  },
  {
    "name": "乐谷小镇",
    "category": "sightseeing",
    "duration_minutes": 60,
    "rating": 4.0,
    "lat": 39.6165574,
    "lon": 115.6593072,
    "description": "A popular sightseeing spot in Beijing.",
    "city": "Beijing"
  },
  {
    "name": "乐谷银滩",
    "category": "outdoor",
    "duration_minutes": 60,
    "rating": 4.0,
    "lat": 39.6177896,
    "lon": 115.6632981,
    "description": "A popular outdoor spot in Beijing.",
    "city": "Beijing"
  },
  {
    "name": "乐高小镇",
    "category": "outdoor",
    "duration_minutes": 60,
    "rating": 4.0,
    "lat": 39.9359055,
    "lon": 116.4764097,
    "description": "A popular outdoor spot in Beijing.",
    "city": "Beijing"
  },
  {
    "name": "乘凉石",
    "category": "sightseeing",
    "duration_minutes": 60,
    "rating": 4.0,
    "lat": 40.1136631,
    "lon": 116.0832105,
    "description": "A popular sightseeing spot in Beijing.",
    "city": "Beijing"
  },
  {
    "name": "九九盘道",
    "category": "sightseeing",
    "duration_minutes": 60,
    "rating": 4.0,
    "lat": 40.052958,
    "lon": 116.0674636,
    "description": "A popular sightseeing spot in Beijing.",
    "city": "Beijing"
  },
  {
    "name": "九女缸",
    "category": "sightseeing",
    "duration_minutes": 60,
    "rating": 4.0,
    "lat": 40.0991141,
    "lon": 116.076132,
    "description": "A popular sightseeing spot in Beijing.",
    "city": "Beijing"
  },
  {
    "name": "九子抱母",
    "category": "sightseeing",
    "duration_minutes": 60,
    "rating": 4.0,
    "lat": 40.0515362,
    "lon": 116.0991665,
    "description": "A popular sightseeing spot in Beijing.",
    "city": "Beijing"
  },
  {
    "name": "九曲听琴",
    "category": "outdoor",
    "duration_minutes": 60,
    "rating": 4.0,
    "lat": 40.4199532,
    "lon": 116.6277357,
    "description": "A popular outdoor spot in Beijing.",
    "city": "Beijing"
  },
  {
    "name": "九洲清晏",
    "category": "sightseeing",
    "duration_minutes": 60,
    "rating": 4.0,
    "lat": 40.002875,
    "lon": 116.2905356,
    "description": "A popular sightseeing spot in Beijing.",
    "city": "Beijing"
  },
  {
    "name": "九洲花境",
    "category": "sightseeing",
    "duration_minutes": 60,
    "rating": 4.0,
    "lat": 40.4422407,
    "lon": 115.9431175,
    "description": "A popular sightseeing spot in Beijing.",
    "city": "Beijing"
  },
  {
    "name": "九溪叠翠",
    "category": "sightseeing",
    "duration_minutes": 60,
    "rating": 4.0,
    "lat": 39.8630848,
    "lon": 116.1114567,
    "description": "A popular sightseeing spot in Beijing.",
    "city": "Beijing"
  },
  {
    "name": "九龙壁",
    "category": "sightseeing",
    "duration_minutes": 60,
    "rating": 4.0,
    "lat": 39.917101,
    "lon": 116.3941884,
    "description": "A popular sightseeing spot in Beijing.",
    "city": "Beijing"
  },
  {
    "name": "乡村村史陈列馆",
    "category": "museum",
    "duration_minutes": 60,
    "rating": 4.0,
    "lat": 40.3033181,
    "lon": 116.7113934,
    "description": "A popular museum spot in Beijing.",
    "city": "Beijing"
  },
  {
    "name": "书法室",
    "category": "sightseeing",
    "duration_minutes": 60,
    "rating": 4.0,
    "lat": 39.9936962,
    "lon": 116.3176305,
    "description": "A popular sightseeing spot in Beijing.",
    "city": "Beijing"
  },
  {
    "name": "书画频道",
    "category": "museum",
    "duration_minutes": 60,
    "rating": 4.0,
    "lat": 40.0161839,
    "lon": 116.393164,
    "description": "A popular museum spot in Beijing.",
    "city": "Beijing"
  },
  {
    "name": "书院赋石碑",
    "category": "history",
    "duration_minutes": 60,
    "rating": 4.0,
    "lat": 40.0648862,
    "lon": 116.1021287,
    "description": "A popular history spot in Beijing.",
    "city": "Beijing"
  },
  {
    "name": "乳峰庵遗址",
    "category": "history",
    "duration_minutes": 60,
    "rating": 4.0,
    "lat": 39.7142721,
    "lon": 115.8151694,
    "description": "A popular history spot in Beijing.",
    "city": "Beijing"
  },
  {
    "name": "乾隆半月台诗碑",
    "category": "history",
    "duration_minutes": 60,
    "rating": 4.0,
    "lat": 39.9956664,
    "lon": 116.2984207,
    "description": "A popular history spot in Beijing.",
    "city": "Beijing"
  },
  {
    "name": "乾隆石屏风",
    "category": "history",
    "duration_minutes": 60,
    "rating": 4.0,
    "lat": 39.9944889,
    "lon": 116.3039782,
    "description": "A popular history spot in Beijing.",
    "city": "Beijing"
  },
  {
    "name": "乾隆碑",
    "category": "history",
    "duration_minutes": 60,
    "rating": 4.0,
    "lat": 40.051001,
    "lon": 116.0983163,
    "description": "A popular history spot in Beijing.",
    "city": "Beijing"
  },
  {
    "name": "乾隆诗碑",
    "category": "history",
    "duration_minutes": 60,
    "rating": 4.0,
    "lat": 40.0412588,
    "lon": 116.1928823,
    "description": "A popular history spot in Beijing.",
    "city": "Beijing"
  },
  {
    "name": "二十八盘",
    "category": "sightseeing",
    "duration_minutes": 60,
    "rating": 4.0,
    "lat": 39.8482626,
    "lon": 115.7297279,
    "description": "A popular sightseeing spot in Beijing.",
    "city": "Beijing"
  },
  {
    "name": "二司古城",
    "category": "history",
    "duration_minutes": 60,
    "rating": 4.0,
    "lat": 40.4538043,
    "lon": 116.1047155,
    "description": "A popular history spot in Beijing.",
    "city": "Beijing"
  },
  {
    "name": "二校门",
    "category": "sightseeing",
    "duration_minutes": 60,
    "rating": 4.0,
    "lat": 39.9997127,
    "lon": 116.3182903,
    "description": "A popular sightseeing spot in Beijing.",
    "city": "Beijing"
  },
  {
    "name": "二缸",
    "category": "sightseeing",
    "duration_minutes": 60,
    "rating": 4.0,
    "lat": 39.9429916,
    "lon": 115.931188,
    "description": "A popular sightseeing spot in Beijing.",
    "city": "Beijing"
  },
  {
    "name": "二锅头酒博物馆",
    "category": "museum",
    "duration_minutes": 60,
    "rating": 4.0,
    "lat": 40.3248142,
    "lon": 116.6591608,
    "description": "A popular museum spot in Beijing.",
    "city": "Beijing"
  },
  {
    "name": "于成龙雕塑",
    "category": "sightseeing",
    "duration_minutes": 60,
    "rating": 4.0,
    "lat": 39.8834422,
    "lon": 116.7392835,
    "description": "A popular sightseeing spot in Beijing.",
    "city": "Beijing"
  },
  {
    "name": "云会门",
    "category": "sightseeing",
    "duration_minutes": 60,
    "rating": 4.0,
    "lat": 39.7128123,
    "lon": 115.8202335,
    "description": "A popular sightseeing spot in Beijing.",
    "city": "Beijing"
  },
  {
    "name": "云岫亭",
    "category": "sightseeing",
    "duration_minutes": 60,
    "rating": 4.0,
    "lat": 40.0594375,
    "lon": 116.0894552,
    "description": "A popular sightseeing spot in Beijing.",
    "city": "Beijing"
  },
  {
    "name": "云樵氏石刻",
    "category": "history",
    "duration_minutes": 60,
    "rating": 4.0,
    "lat": 39.9196386,
    "lon": 116.0596291,
    "description": "A popular history spot in Beijing.",
    "city": "Beijing"
  },
  {
    "name": "云水谣景区",
    "category": "sightseeing",
    "duration_minutes": 60,
    "rating": 4.0,
    "lat": 40.2388791,
    "lon": 115.9534723,
    "description": "A popular sightseeing spot in Beijing.",
    "city": "Beijing"
  },
  {
    "name": "云聚寺遗址",
    "category": "history",
    "duration_minutes": 60,
    "rating": 4.0,
    "lat": 40.0453793,
    "lon": 116.0426246,
    "description": "A popular history spot in Beijing.",
    "city": "Beijing"
  },
  {
    "name": "云豹岩",
    "category": "sightseeing",
    "duration_minutes": 60,
    "rating": 4.0,
    "lat": 40.0025743,
    "lon": 116.1762719,
    "description": "A popular sightseeing spot in Beijing.",
    "city": "Beijing"
  },
  {
    "name": "五供山",
    "category": "sightseeing",
    "duration_minutes": 60,
    "rating": 4.0,
    "lat": 40.1317152,
    "lon": 115.7583752,
    "description": "A popular sightseeing spot in Beijing.",
    "city": "Beijing"
  },
  {
    "name": "五四广场",
    "category": "history",
    "duration_minutes": 60,
    "rating": 4.0,
    "lat": 40.0021357,
    "lon": 116.3252385,
    "description": "A popular history spot in Beijing.",
    "city": "Beijing"
  },
  {
    "name": "五四纪念碑",
    "category": "history",
    "duration_minutes": 60,
    "rating": 4.0,
    "lat": 39.9594745,
    "lon": 116.3595441,
    "description": "A popular history spot in Beijing.",
    "city": "Beijing"
  },
  {
    "name": "五星峡断崖",
    "category": "sightseeing",
    "duration_minutes": 60,
    "rating": 4.0,
    "lat": 39.6566839,
    "lon": 115.7646268,
    "description": "A popular sightseeing spot in Beijing.",
    "city": "Beijing"
  },
  {
    "name": "五桂头山洞文保碑",
    "category": "history",
    "duration_minutes": 60,
    "rating": 4.0,
    "lat": 40.3320717,
    "lon": 116.0331758,
    "description": "A popular history spot in Beijing.",
    "city": "Beijing"
  },
  {
    "name": "五炷香",
    "category": "sightseeing",
    "duration_minutes": 60,
    "rating": 4.0,
    "lat": 40.0764191,
    "lon": 116.0791626,
    "description": "A popular sightseeing spot in Beijing.",
    "city": "Beijing"
  },
  {
    "name": "五牌楼",
    "category": "history",
    "duration_minutes": 60,
    "rating": 4.0,
    "lat": 39.8966815,
    "lon": 116.3917945,
    "description": "A popular history spot in Beijing.",
    "city": "Beijing"
  },
  {
    "name": "五畜乐园",
    "category": "outdoor",
    "duration_minutes": 60,
    "rating": 4.0,
    "lat": 39.9924518,
    "lon": 116.0512648,
    "description": "A popular outdoor spot in Beijing.",
    "city": "Beijing"
  },
  {
    "name": "五缸",
    "category": "sightseeing",
    "duration_minutes": 60,
    "rating": 4.0,
    "lat": 39.9427153,
    "lon": 115.9334043,
    "description": "A popular sightseeing spot in Beijing.",
    "city": "Beijing"
  },
  {
    "name": "五贵头弹琴峡文保碑",
    "category": "history",
    "duration_minutes": 60,
    "rating": 4.0,
    "lat": 40.3318767,
    "lon": 116.0338125,
    "description": "A popular history spot in Beijing.",
    "city": "Beijing"
  },
  {
    "name": "五郎影摩崖造像文保碑",
    "category": "history",
    "duration_minutes": 60,
    "rating": 4.0,
    "lat": 40.3313817,
    "lon": 116.0333934,
    "description": "A popular history spot in Beijing.",
    "city": "Beijing"
  },
  {
    "name": "五里坡桃花海",
    "category": "sightseeing",
    "duration_minutes": 60,
    "rating": 4.0,
    "lat": 40.0537761,
    "lon": 115.7283642,
    "description": "A popular sightseeing spot in Beijing.",
    "city": "Beijing"
  },
  {
    "name": "五龙亭",
    "category": "sightseeing",
    "duration_minutes": 60,
    "rating": 4.0,
    "lat": 39.928416,
    "lon": 116.3797536,
    "description": "A popular sightseeing spot in Beijing.",
    "city": "Beijing"
  },
  {
    "name": "亚洲第一桥",
    "category": "sightseeing",
    "duration_minutes": 60,
    "rating": 4.0,
    "lat": 40.0809611,
    "lon": 115.7600185,
    "description": "A popular sightseeing spot in Beijing.",
    "city": "Beijing"
  },
  {
    "name": "亚洲第一桥观光入口",
    "category": "sightseeing",
    "duration_minutes": 60,
    "rating": 4.0,
    "lat": 40.0916555,
    "lon": 115.7500304,
    "description": "A popular sightseeing spot in Beijing.",
    "city": "Beijing"
  },