[
  {
    "name": "哈尔滨冰雪大世界",
    "category": "sightseeing",
    "duration_minutes": 120,
    "rating": 4.0,
    "lat": 45.777005,
    "lon": 126.562459,
    "description": "电话: 4006391999 | 地址: 太阳大道1458号 | 类别: 风景名胜;风景名胜;风景名胜",
    "city": "哈尔滨"
  },
  {
    "name": "哈尔滨中央大街",
    "category": "sightseeing",
    "duration_minutes": 120,
    "rating": 4.0,
    "lat": 45.774835,
    "lon": 126.617682,
    "description": "电话: 0451-87650401;+861056320612,45939625 | 地址: 中央大街1号 | 类别: 购物服务;特色商业街;特色商业街|风景名胜;风景名胜相关;旅游景点",
    "city": "哈尔滨"
  },
  {
    "name": "哈尔滨融创文旅城",
    "category": "sightseeing",
    "duration_minutes": 120,
    "rating": 4.0,
    "lat": 45.807403,
    "lon": 126.499179,
    "description": "电话: 0451-55566666 | 地址: 丰源街与世茂大道交汇处 | 类别: 风景名胜;风景名胜相关;旅游景点",
    "city": "哈尔滨"
  },
  {
    "name": "哈尔滨极地公园",
    "category": "outdoor",
    "duration_minutes": 120,
    "rating": 4.0,
    "lat": 45.785251,
    "lon": 126.586479,
    "description": "电话: 4008007275 | 地址: 太阳大道277号(太阳岛地铁站2号口步行140米) | 类别: 风景名胜;公园广场;公园",
    "city": "哈尔滨"
  },
  {
    "name": "太阳岛风景区",
    "category": "sightseeing",
    "duration_minutes": 120,
    "rating": 4.0,
    "lat": 45.791584,
    "lon": 126.59788,
    "description": "电话: 0451-88192966;0451-88190230 | 地址: 太阳大道3号 | 类别: 风景名胜;风景名胜;国家级景点",
    "city": "哈尔滨"
  },
  {
    "name": "哈尔滨极地公园·极地馆",
    "category": "outdoor",
    "duration_minutes": 120,
    "rating": 4.0,
    "lat": 45.784741,
    "lon": 126.586057,
    "description": "电话: 4008007275 | 地址: 太阳大道277号 | 类别: 风景名胜;公园广场;水族馆",
    "city": "哈尔滨"
  },
  {
    "name": "东北虎林园",
    "category": "sightseeing",
    "duration_minutes": 120,
    "rating": 4.0,
    "lat": 45.817483,
    "lon": 126.60065,
    "description": "电话: 0451-88080098;0451-88080680 | 地址: 松北街88号 | 类别: 风景名胜;风景名胜;风景名胜",
    "city": "哈尔滨"
  },
  {
    "name": "哈尔滨音乐公园",
    "category": "outdoor",
    "duration_minutes": 120,
    "rating": 4.0,
    "lat": 45.749011,
    "lon": 126.548455,
    "description": "地址: 群力街道上江街与友谊西路交汇处 | 类别: 风景名胜;公园广场;公园",
    "city": "哈尔滨"
  },
  {
    "name": "索菲亚广场",
    "category": "outdoor",
    "duration_minutes": 120,
    "rating": 4.0,
    "lat": 45.770624,
    "lon": 126.627081,
    "description": "电话: 0451-84684170 | 地址: 透笼街88号 | 类别: 风景名胜;公园广场;城市广场",
    "city": "哈尔滨"
  },
  {
    "name": "哈尔滨防洪纪念塔广场",
    "category": "outdoor",
    "duration_minutes": 120,
    "rating": 4.0,
    "lat": 45.780655,
    "lon": 126.617118,
    "description": "电话: 0451-84634216 | 地址: 斯大林街3号斯大林公园内(东侧) | 类别: 风景名胜;公园广场;城市广场",
    "city": "哈尔滨"
  },
  {
    "name": "音乐长廊",
    "category": "outdoor",
    "duration_minutes": 120,
    "rating": 4.0,
    "lat": 45.750532,
    "lon": 126.558296,
    "description": "地址: 工农街道群力街道盛和天下S3号楼 | 类别: 风景名胜;公园广场;城市广场",
    "city": "哈尔滨"
  },
  {
    "name": "圣·索菲亚教堂",
    "category": "sightseeing",
    "duration_minutes": 120,
    "rating": 4.0,
    "lat": 45.770125,
    "lon": 126.627215,
    "description": "电话: 0451-87657197 | 地址: 透笼街88号 | 类别: 风景名胜;风景名胜;教堂",
    "city": "哈尔滨"
  },
  {
    "name": "哈尔滨市人民防洪胜利纪念塔",
    "category": "history",
    "duration_minutes": 120,
    "rating": 4.0,
    "lat": 45.780654,
    "lon": 126.617203,
    "description": "电话: 15546429809 | 地址: 友谊路259-7号 | 类别: 风景名胜;风景名胜;风景名胜",
    "city": "哈尔滨"
  },
  {
    "name": "哈尔滨热雪奇迹",
    "category": "sightseeing",
    "duration_minutes": 120,
    "rating": 4.0,
    "lat": 45.8032,
    "lon": 126.500714,
    "description": "电话: 4008959888 | 地址: 世茂大道99号融创茂1楼 | 类别: 体育休闲服务;运动场馆;滑雪场",
    "city": "哈尔滨"
  },
  {
    "name": "银河欢乐世界",
    "category": "sightseeing",
    "duration_minutes": 120,
    "rating": 4.0,
    "lat": 45.800217,
    "lon": 126.496746,
    "description": "电话: 0451-82591111 | 地址: 世茂大道与丰源街交叉口东北100米 | 类别: 体育休闲服务;体育休闲服务场所;体育休闲服务场所",
    "city": "哈尔滨"
  },
  {
    "name": "斯大林公园",
    "category": "outdoor",
    "duration_minutes": 120,
    "rating": 4.0,
    "lat": 45.779383,
    "lon": 126.612799,
    "description": "电话: 0451-84634216 | 地址: 斯大林街3号(近松花江畔) | 类别: 风景名胜;公园广场;公园",
    "city": "哈尔滨"
  },
  {
    "name": "中华巴洛克历史文化街区",
    "category": "sightseeing",
    "duration_minutes": 120,
    "rating": 4.0,
    "lat": 45.781791,
    "lon": 126.640729,
    "description": "电话: 4008528881 | 地址: 南头道街64号 | 类别: 风景名胜;风景名胜;国家级景点|购物服务;购物相关场所;购物相关场所",
    "city": "哈尔滨"
  },
  {
    "name": "太阳岛大熊猫馆",
    "category": "outdoor",
    "duration_minutes": 120,
    "rating": 4.0,
    "lat": 45.78877,
    "lon": 126.595357,
    "description": "地址: 太阳岛冰雪艺术馆附近 | 类别: 风景名胜;公园广场;动物园",
    "city": "哈尔滨"
  },
  {
    "name": "群力音乐公园大雪人",
    "category": "outdoor",
    "duration_minutes": 120,
    "rating": 4.0,
    "lat": 45.75046,
    "lon": 126.558605,
    "description": "地址: 哈尔滨音乐公园内(东侧) | 类别: 风景名胜;风景名胜相关;旅游景点",
    "city": "哈尔滨"
  },
  {
    "name": "关东古巷",
    "category": "sightseeing",
    "duration_minutes": 120,
    "rating": 4.0,
    "lat": 45.734291,
    "lon": 126.566775,
    "description": "地址: 群力新区群力第五大道770号城屿in象1层 | 类别: 购物服务;特色商业街;特色商业街",
    "city": "哈尔滨"
  },
  {
    "name": "江上城堡观光索道",
    "category": "outdoor",
    "duration_minutes": 120,
    "rating": 4.0,
    "lat": 45.7779,
    "lon": 126.610547,
    "description": "电话: 0451-81139999 | 地址: 通江街218号(通江广场) | 类别: 风景名胜;风景名胜相关;旅游景点",
    "city": "哈尔滨"
  },
  {
    "name": "新区中心公园",
    "category": "outdoor",
    "duration_minutes": 120,
    "rating": 4.0,
    "lat": 45.817554,
    "lon": 126.523721,
    "description": "电话: 15546499990 | 地址: 中源大道与江安街交汇处 | 类别: 风景名胜;公园广场;公园",
    "city": "哈尔滨"
  },
  {
    "name": "哈尔滨市博物馆",
    "category": "museum",
    "duration_minutes": 120,
    "rating": 4.0,
    "lat": 45.774276,
    "lon": 126.625528,
    "description": "电话: 0451-51137155 | 地址: 柳树街13号 | 类别: 科教文化服务;博物馆;博物馆",
    "city": "哈尔滨"
  },
  {
    "name": "金河湾湿地植物园",
    "category": "outdoor",
    "duration_minutes": 120,
    "rating": 4.0,
    "lat": 45.783001,
    "lon": 126.498681,
    "description": "地址: 江湾路5000号 | 类别: 风景名胜;公园广场;植物园",
    "city": "哈尔滨"
  },
  {
    "name": "枫叶小镇温泉度假村",
    "category": "sightseeing",
    "duration_minutes": 120,
    "rating": 4.0,
    "lat": 45.825901,
    "lon": 126.467971,
    "description": "电话: 0451-51017777 | 地址: 智谷三街5555号 | 类别: 体育休闲服务;度假疗养场所;度假村|风景名胜;风景名胜相关;旅游景点",
    "city": "哈尔滨"
  },
  {
    "name": "人民广场",
    "category": "outdoor",
    "duration_minutes": 120,
    "rating": 4.0,
    "lat": 45.77365,
    "lon": 126.602915,
    "description": "地址: 经纬街与友谊路交口102号 | 类别: 风景名胜;公园广场;城市广场",
    "city": "哈尔滨"
  },
  {
    "name": "黑龙江省博物馆",
    "category": "museum",
    "duration_minutes": 120,
    "rating": 4.0,
    "lat": 45.757569,
    "lon": 126.640934,
    "description": "电话: 0451-53644151 | 地址: 红军街50号 | 类别: 科教文化服务;博物馆;博物馆",
    "city": "哈尔滨"
  },
  {
    "name": "火车主题广场",
    "category": "outdoor",
    "duration_minutes": 120,
    "rating": 4.0,
    "lat": 45.782819,
    "lon": 126.627199,
    "description": "地址: 斯大林街2-1号 | 类别: 风景名胜;公园广场;城市广场",
    "city": "哈尔滨"
  },
  {
    "name": "沙滩部落",
    "category": "sightseeing",
    "duration_minutes": 120,
    "rating": 4.0,
    "lat": 45.769128,
    "lon": 126.579296,
    "description": "电话: 18945683201 | 地址: 公路大桥辅路1号 | 类别: 体育休闲服务;体育休闲服务场所;体育休闲服务场所",
    "city": "哈尔滨"
  },
  {
    "name": "哈尔滨极地公园·海洋馆",
    "category": "outdoor",
    "duration_minutes": 120,
    "rating": 4.0,
    "lat": 45.78509,
    "lon": 126.58734,
    "description": "地址: 太阳大道277号哈尔滨极地公园内(东侧) | 类别: 风景名胜;公园广场;水族馆",
    "city": "哈尔滨"
  },
  {
    "name": "极乐寺",
    "category": "history",
    "duration_minutes": 120,
    "rating": 4.0,
    "lat": 45.777559,
    "lon": 126.664588,
    "description": "电话: 0451-82534762 | 地址: 燎原街道花园街道东大直街9号 | 类别: 风景名胜;风景名胜;寺庙道观",
    "city": "哈尔滨"
  },
  {
    "name": "哈尔滨市政府广场",
    "category": "outdoor",
    "duration_minutes": 120,
    "rating": 4.0,
    "lat": 45.800794,
    "lon": 126.53645,
    "description": "地址: 松北街道世纪大道与泰山街交叉口西南340米 | 类别: 风景名胜;公园广场;城市广场",
    "city": "哈尔滨"
  },
  {
    "name": "丁香公园",
    "category": "outdoor",
    "duration_minutes": 120,
    "rating": 4.0,
    "lat": 45.743329,
    "lon": 126.566514,
    "description": "地址: 群力大道与景江东路交汇处 | 类别: 风景名胜;公园广场;公园",
    "city": "哈尔滨"
  },
  {
    "name": "哈药六版画博物馆",
    "category": "museum",
    "duration_minutes": 120,
    "rating": 4.0,
    "lat": 45.764998,
    "lon": 126.704433,
    "description": "电话: 0451-55601788 | 地址: 南直路326号 | 类别: 科教文化服务;博物馆;博物馆|公司企业;公司企业;公司企业",
    "city": "哈尔滨"
  },
  {
    "name": "太阳岛风景区俄罗斯风情小镇",
    "category": "sightseeing",
    "duration_minutes": 120,
    "rating": 4.0,
    "lat": 45.787604,
    "lon": 126.602722,
    "description": "电话: 0451-88192966 | 地址: 平原街20号 | 类别: 风景名胜;风景名胜相关;旅游景点",
    "city": "哈尔滨"
  },
  {
    "name": "江北冰雪嘉年华",
    "category": "outdoor",
    "duration_minutes": 120,
    "rating": 4.0,
    "lat": 45.836725,
    "lon": 126.612875,
    "description": "电话: 18646009171 | 地址: 浦南大街288号西南门 | 类别: 体育休闲服务;体育休闲服务场所;体育休闲服务场所",
    "city": "哈尔滨"
  },
  {
    "name": "中东铁路桥头堡",
    "category": "history",
    "duration_minutes": 120,
    "rating": 4.0,
    "lat": 45.783708,
    "lon": 126.625846,
    "description": "地址: 斯大林街2-1号火车主题广场 | 类别: 风景名胜;风景名胜;风景名胜",
    "city": "哈尔滨"
  },
  {
    "name": "太阳岛风景区-太阳岛雪博会",
    "category": "sightseeing",
    "duration_minutes": 120,
    "rating": 4.0,
    "lat": 45.786293,
    "lon": 126.591821,
    "description": "电话: 0451-88192966 | 地址: 太阳大道3号太阳岛风景区内(西南角) | 类别: 风景名胜;风景名胜相关;旅游景点",
    "city": "哈尔滨"
  },
  {
    "name": "群力外滩生态湿地",
    "category": "outdoor",
    "duration_minutes": 120,
    "rating": 4.0,
    "lat": 45.755922,
    "lon": 126.540273,
    "description": "地址: 工农街道星光耀广场 | 类别: 风景名胜;公园广场;公园",
    "city": "哈尔滨"
  },
  {
    "name": "巧克力城堡观光索道",
    "category": "sightseeing",
    "duration_minutes": 120,
    "rating": 4.0,
    "lat": 45.785496,
    "lon": 126.60078,
    "description": "地址: 风景街18号旁 | 类别: 风景名胜;风景名胜相关;旅游景点",
    "city": "哈尔滨"
  },
  {
    "name": "音乐主题广场",
    "category": "outdoor",
    "duration_minutes": 120,
    "rating": 4.0,
    "lat": 45.749015,
    "lon": 126.548512,
    "description": "地址: 哈尔滨音乐公园 | 类别: 风景名胜;公园广场;城市广场",
    "city": "哈尔滨"
  },
  {
    "name": "摩洛哥蓝色小镇",
    "category": "sightseeing",
    "duration_minutes": 120,
    "rating": 4.0,
    "lat": 45.78434,
    "lon": 126.5867,
    "description": "地址: 哈尔滨地铁2号线太阳岛站1号口(哈尔滨极地公园) | 类别: 风景名胜;风景名胜;风景名胜|商务住宅;商务住宅相关;商务住宅相关",
    "city": "哈尔滨"
  },
  {
    "name": "世界欢乐城",
    "category": "sightseeing",
    "duration_minutes": 120,
    "rating": 4.0,
    "lat": 45.881365,
    "lon": 126.53769,
    "description": "电话: 0451-56202666 | 地址: 美术家大街666号 | 类别: 风景名胜;风景名胜相关;旅游景点",
    "city": "哈尔滨"
  },
  {
    "name": "俄罗斯童话博物馆",
    "category": "museum",
    "duration_minutes": 120,
    "rating": 4.0,
    "lat": 45.770095,
    "lon": 126.625207,
    "description": "电话: 15694515777;18245119887 | 地址: 新一百购物商城5楼 | 类别: 科教文化服务;博物馆;博物馆",
    "city": "哈尔滨"
  },
  {
    "name": "清真寺",
    "category": "sightseeing",
    "duration_minutes": 120,
    "rating": 4.0,
    "lat": 45.78737,
    "lon": 126.651665,
    "description": "地址: 十四道街 | 类别: 风景名胜;风景名胜;回教寺",
    "city": "哈尔滨"
  },
  {
    "name": "体育公园",
    "category": "outdoor",
    "duration_minutes": 120,
    "rating": 4.0,
    "lat": 45.735431,
    "lon": 126.546608,
    "description": "地址: 工农街道群力大道与丽江路交叉口东300米 | 类别: 风景名胜;公园广场;公园",
    "city": "哈尔滨"
  },
  {
    "name": "九站公园",
    "category": "outdoor",
    "duration_minutes": 120,
    "rating": 4.0,
    "lat": 45.770097,
    "lon": 126.598557,
    "description": "电话: 0451-84634216 | 地址: 九站街1号 | 类别: 风景名胜;公园广场;公园",
    "city": "哈尔滨"
  },
  {
    "name": "龙塔",
    "category": "history",
    "duration_minutes": 120,
    "rating": 4.0,
    "lat": 45.748517,
    "lon": 126.680189,
    "description": "电话: 0451-82368851;4006137137 | 地址: 长江路178号 | 类别: 风景名胜;风景名胜;国家级景点",
    "city": "哈尔滨"
  },
  {
    "name": "劳动公园",
    "category": "outdoor",
    "duration_minutes": 120,
    "rating": 4.0,
    "lat": 45.698815,
    "lon": 126.666872,
    "description": "电话: 0451-58622231 | 地址: 大庆路街道旭升南街景和社区斜对面 | 类别: 风景名胜;公园广场;公园",
    "city": "哈尔滨"
  },
  {
    "name": "鹿苑",
    "category": "sightseeing",
    "duration_minutes": 120,
    "rating": 4.0,
    "lat": 45.792281,
    "lon": 126.590199,
    "description": "电话: 0451-88192966 | 地址: 太阳岛街道警备路3号太阳岛风景区内(西侧) | 类别: 风景名胜;风景名胜相关;旅游景点",
    "city": "哈尔滨"
  },
  {
    "name": "火车主题广场-中东铁路印象馆",
    "category": "sightseeing",
    "duration_minutes": 120,
    "rating": 4.0,
    "lat": 45.782395,
    "lon": 126.627015,
    "description": "地址: 斯大林街2-1号火车主题广场(西南角) | 类别: 风景名胜;风景名胜相关;旅游景点",
    "city": "哈尔滨"
  },
  {
    "name": "波塞冬旅游度假区",
    "category": "sightseeing",
    "duration_minutes": 120,
    "rating": 4.0,
    "lat": 45.883882,
    "lon": 126.684535,
    "description": "地址: 汇江路153号 | 类别: 体育休闲服务;休闲场所;水上活动中心",
    "city": "哈尔滨"
  },
  {
    "name": "侵华日军第七三一部队遗址",
    "category": "history",
    "duration_minutes": 120,
    "rating": 4.0,
    "lat": 45.609676,
    "lon": 126.636847,
    "description": "电话: 0451-51685222 | 地址: 新疆大街23号(地铁1号线新疆大街站2号出口东向300米) | 类别: 风景名胜;风景名胜;国家级景点",
    "city": "哈尔滨"
  },
  {
    "name": "太阳岛绿色运动公园",
    "category": "outdoor",
    "duration_minutes": 120,
    "rating": 4.0,
    "lat": 45.772135,
    "lon": 126.571046,
    "description": "地址: 雪乡街与冰峰路交叉口南260米 | 类别: 风景名胜;公园广场;公园",
    "city": "哈尔滨"
  },
  {
    "name": "金河公园",
    "category": "outdoor",
    "duration_minutes": 120,
    "rating": 4.0,
    "lat": 45.738878,
    "lon": 126.562119,
    "description": "电话: 0451-83341303 | 地址: 景江东路66号 | 类别: 风景名胜;公园广场;公园",
    "city": "哈尔滨"
  },
  {
    "name": "东北烈士纪念馆",
    "category": "history",
    "duration_minutes": 120,
    "rating": 4.0,
    "lat": 45.765849,
    "lon": 126.642535,
    "description": "电话: 0451-53643712 | 地址: 一曼街241号 | 类别: 风景名胜;风景名胜;纪念馆",
    "city": "哈尔滨"
  },
  {
    "name": "德云社(景阳街店)",
    "category": "sightseeing",
    "duration_minutes": 120,
    "rating": 4.0,
    "lat": 45.781757,
    "lon": 126.638721,
    "description": "电话: 0451-89209000;18545530485 | 地址: 中华巴洛克街区(北马路地铁站4号口步行320米) | 类别: 体育休闲服务;影剧院;剧场",
    "city": "哈尔滨"
  },
  {
    "name": "波塞冬海底世界",
    "category": "outdoor",
    "duration_minutes": 120,
    "rating": 4.0,
    "lat": 45.883709,
    "lon": 126.681883,
    "description": "电话: 0451-51536666 | 地址: 汇江路153号 | 类别: 风景名胜;风景名胜;风景名胜",
    "city": "哈尔滨"
  },
  {
    "name": "哈尔滨文庙",
    "category": "history",
    "duration_minutes": 120,
    "rating": 4.0,
    "lat": 45.775841,
    "lon": 126.674916,
    "description": "电话: 0451-82540093 | 地址: 文庙街25号(近黑河路) | 类别: 风景名胜;风景名胜;寺庙道观",
    "city": "哈尔滨"
  },
  {
    "name": "巧克力星人博物馆",
    "category": "museum",
    "duration_minutes": 120,
    "rating": 4.0,
    "lat": 45.777161,
    "lon": 126.618243,
    "description": "电话: 13520203076;13557573456 | 地址: 中央大街187号 | 类别: 科教文化服务;博物馆;博物馆",
    "city": "哈尔滨"
  },
  {
    "name": "江畔公园",
    "category": "outdoor",
    "duration_minutes": 120,
    "rating": 4.0,
    "lat": 45.786488,
    "lon": 126.634534,
    "description": "地址: 江畔路沿线 | 类别: 风景名胜;公园广场;公园",
    "city": "哈尔滨"
  },
  {
    "name": "松花江湿地",
    "category": "outdoor",
    "duration_minutes": 120,
    "rating": 4.0,
    "lat": 45.796348,
    "lon": 126.530629,
    "description": "地址: 创新一路3001号 | 类别: 风景名胜;风景名胜相关;旅游景点",
    "city": "哈尔滨"
  },
  {
    "name": "太阳岛风景区-松鼠岛",
    "category": "sightseeing",
    "duration_minutes": 120,
    "rating": 4.0,
    "lat": 45.793991,
    "lon": 126.586991,
    "description": "电话: 0451-88192966 | 地址: 警备路3号太阳岛风景区内(西侧) | 类别: 风景名胜;风景名胜相关;旅游景点",
    "city": "哈尔滨"
  },
  {
    "name": "哈尔滨市儿童公园",
    "category": "outdoor",
    "duration_minutes": 120,
    "rating": 4.0,
    "lat": 45.760694,
    "lon": 126.655848,
    "description": "电话: 0451-53638415;0451-53678325 | 地址: 果戈里大街295号(近花园街) | 类别: 风景名胜;公园广场;公园",
    "city": "哈尔滨"
  },
  {
    "name": "哈尔滨市长青公园",
    "category": "outdoor",
    "duration_minutes": 120,
    "rating": 4.0,
    "lat": 45.769836,
    "lon": 126.640335,
    "description": "电话: 0451-88327764 | 地址: 南极街116号 | 类别: 风景名胜;公园广场;公园广场",
    "city": "哈尔滨"
  },
  {
    "name": "侵华日军第七三一部队罪证陈列馆",
    "category": "sightseeing",
    "duration_minutes": 120,
    "rating": 4.0,
    "lat": 45.608868,
    "lon": 126.639431,
    "description": "电话: 0451-51685222;0451-51747773 | 地址: 新疆大街23号(地铁1号线新疆大街站2号口出站) | 类别: 风景名胜;风景名胜;红色景区|科教文化服务;展览馆;展览馆",
    "city": "哈尔滨"
  },
  {
    "name": "哈尔滨工业大学博物馆",
    "category": "museum",
    "duration_minutes": 120,
    "rating": 4.0,
    "lat": 45.751436,
    "lon": 126.638681,
    "description": "电话: 0451-86281516 | 地址: 公司街59号 | 类别: 科教文化服务;博物馆;博物馆",
    "city": "哈尔滨"
  },
  {
    "name": "承德广场",
    "category": "outdoor",
    "duration_minutes": 120,
    "rating": 4.0,
    "lat": 45.778085,
    "lon": 126.642213,
    "description": "地址: 承德街与太古街交叉口东100米 | 类别: 风景名胜;公园广场;城市广场",
    "city": "哈尔滨"
  },
  {
    "name": "太阳岛风景区-雪雕艺术园",
    "category": "sightseeing",
    "duration_minutes": 120,
    "rating": 4.0,
    "lat": 45.789656,
    "lon": 126.595493,
    "description": "电话: 0451-88192966 | 地址: 太阳大道3号太阳岛风景区 | 类别: 科教文化服务;展览馆;展览馆|风景名胜;风景名胜相关;旅游景点",
    "city": "哈尔滨"
  },
  {
    "name": "靖宇公园",
    "category": "outdoor",
    "duration_minutes": 120,
    "rating": 4.0,
    "lat": 45.791831,
    "lon": 126.663404,
    "description": "电话: 0451-88976123 | 地址: 北二十道街136号(近礼化街) | 类别: 风景名胜;公园广场;公园",
    "city": "哈尔滨"
  },
  {
    "name": "外滩雪人码头大雪人",
    "category": "sightseeing",
    "duration_minutes": 120,
    "rating": 4.0,
    "lat": 45.753162,
    "lon": 126.572328,
    "description": "地址: 友谊西路与上江街交叉口北100米 | 类别: 风景名胜;风景名胜相关;旅游景点",
    "city": "哈尔滨"
  },
  {
    "name": "圣清观",
    "category": "history",
    "duration_minutes": 120,
    "rating": 4.0,
    "lat": 45.790881,
    "lon": 126.613665,
    "description": "地址: 太阳大道3号太阳岛风景区 | 类别: 风景名胜;风景名胜;寺庙道观",
    "city": "哈尔滨"
  },
  {
    "name": "天恒山冰雪运动大世界",
    "category": "outdoor",
    "duration_minutes": 120,
    "rating": 4.0,
    "lat": 45.804635,
    "lon": 126.797557,
    "description": "电话: 15802455858 | 地址: 东巨路 | 类别: 体育休闲服务;运动场馆;滑雪场",
    "city": "哈尔滨"
  },
  {
    "name": "哈尔滨音乐博物馆",
    "category": "museum",
    "duration_minutes": 120,
    "rating": 4.0,
    "lat": 45.808683,
    "lon": 126.5885,
    "description": "地址: 滨水大道哈尔滨大剧院 | 类别: 科教文化服务;博物馆;博物馆",
    "city": "哈尔滨"
  },
  {
    "name": "湘江公园",
    "category": "outdoor",
    "duration_minutes": 120,
    "rating": 4.0,
    "lat": 45.744023,
    "lon": 126.68084,
    "description": "电话: 0451-81589666 | 地址: 汉水路408号 | 类别: 风景名胜;风景名胜;风景名胜",
    "city": "哈尔滨"
  },
  {
    "name": "东北林业大学中国(哈尔滨)森林博物馆",
    "category": "museum",
    "duration_minutes": 120,
    "rating": 4.0,
    "lat": 45.717721,
    "lon": 126.632804,
    "description": "地址: 和兴路26号东北林业大学 | 类别: 科教文化服务;博物馆;博物馆",
    "city": "哈尔滨"
  },
  {
    "name": "黛秀湖公园",
    "category": "outdoor",
    "duration_minutes": 120,
    "rating": 4.0,
    "lat": 45.702567,
    "lon": 126.655557,
    "description": "地址: 健康路2号 | 类别: 风景名胜;公园广场;公园",
    "city": "哈尔滨"
  },
  {
    "name": "太阳岛风景区-太阳瀑",
    "category": "sightseeing",
    "duration_minutes": 120,
    "rating": 4.0,
    "lat": 45.796255,
    "lon": 126.592113,
    "description": "电话: 0451-88192966 | 地址: 警备路3号太阳岛风景区内(西北角) | 类别: 风景名胜;风景名胜相关;旅游景点",
    "city": "哈尔滨"
  },
  {
    "name": "萧红故居",
    "category": "history",
    "duration_minutes": 120,
    "rating": 4.0,
    "lat": 45.975832,
    "lon": 126.607396,
    "description": "电话: 0451-57322998 | 地址: 萧红大道226号 | 类别: 风景名胜;风景名胜;纪念馆",
    "city": "哈尔滨"
  },
  {
    "name": "哈尔滨文化公园",
    "category": "outdoor",
    "duration_minutes": 120,
    "rating": 4.0,
    "lat": 45.780506,
    "lon": 126.66872,
    "description": "地址: 南通大街208号(近哈尔滨工程大学) | 类别: 体育休闲服务;休闲场所;游乐场|风景名胜;风景名胜相关;旅游景点",
    "city": "哈尔滨"
  },
  {
    "name": "中东铁路公园(江南段)",
    "category": "outdoor",
    "duration_minutes": 120,
    "rating": 4.0,
    "lat": 45.782525,
    "lon": 126.62664,
    "description": "电话: 0451-84634216 | 地址: 江桥胡同东侧 | 类别: 风景名胜;公园广场;公园",
    "city": "哈尔滨"
  },
  {
    "name": "哈尔滨市道外区古梨园",
    "category": "outdoor",
    "duration_minutes": 120,
    "rating": 4.0,
    "lat": 45.774107,
    "lon": 126.696488,
    "description": "地址: 宏伟路254号 | 类别: 风景名胜;公园广场;公园",
    "city": "哈尔滨"
  },
  {
    "name": "一湖三岛",
    "category": "outdoor",
    "duration_minutes": 120,
    "rating": 4.0,
    "lat": 45.793768,
    "lon": 126.536823,
    "description": "地址: 太阳岛西区外滩湿地公园(东南角) | 类别: 风景名胜;风景名胜;风景名胜",
    "city": "哈尔滨"
  },
  {
    "name": "伯特利教堂",
    "category": "sightseeing",
    "duration_minutes": 120,
    "rating": 4.0,
    "lat": 45.746735,
    "lon": 126.599611,
    "description": "地址: 建国街210号 | 类别: 风景名胜;风景名胜;教堂",
    "city": "哈尔滨"
  },
  {
    "name": "哈尔滨融创乐园(暂停开放)",
    "category": "sightseeing",
    "duration_minutes": 120,
    "rating": 4.0,
    "lat": 45.806609,
    "lon": 126.505013,
    "description": "电话: 4008959888 | 地址: 世茂大道99-1 | 类别: 风景名胜;风景名胜相关;旅游景点",
    "city": "哈尔滨"
  },
  {
    "name": "冰雪大世界梦幻冰雪馆",
    "category": "sightseeing",
    "duration_minutes": 120,
    "rating": 4.0,
    "lat": 45.776029,
    "lon": 126.566354,
    "description": "地址: 雪景街1666号B栋 | 类别: 体育休闲服务;休闲场所;游乐场",
    "city": "哈尔滨"
  },
  {
    "name": "哈尔滨市兆麟公园(暂停开放)",
    "category": "outdoor",
    "duration_minutes": 120,
    "rating": 4.0,
    "lat": 45.777327,
    "lon": 126.622915,
    "description": "电话: 0451-87659225 | 地址: 森林街41号 | 类别: 风景名胜;公园广场;公园",
    "city": "哈尔滨"
  },
  {
    "name": "钻石海",
    "category": "outdoor",
    "duration_minutes": 120,
    "rating": 4.0,
    "lat": 45.76886,
    "lon": 126.579263,
    "description": "地址: 雪景街与冰花路交叉口东南260米 | 类别: 风景名胜;风景名胜相关;旅游景点",
    "city": "哈尔滨"
  },
  {
    "name": "建国公园",
    "category": "outdoor",
    "duration_minutes": 120,
    "rating": 4.0,
    "lat": 45.748113,
    "lon": 126.59914,
    "description": "地址: 建国街237号(近通达街,第四十一中学) | 类别: 风景名胜;公园广场;公园",
    "city": "哈尔滨"
  },
  {
    "name": "外滩雪人码头",
    "category": "sightseeing",
    "duration_minutes": 120,
    "rating": 4.0,
    "lat": 45.754097,
    "lon": 126.573494,
    "description": "地址: 友谊西路与上江街交口 | 类别: 风景名胜;风景名胜相关;旅游景点",
    "city": "哈尔滨"
  },
  {
    "name": "黑龙江省博物馆新馆(暂停开放)",
    "category": "museum",
    "duration_minutes": 120,
    "rating": 4.0,
    "lat": 45.77946,
    "lon": 126.572412,
    "description": "地址: 天马街(冰雪大世界地铁站2A口旁) | 类别: 科教文化服务;博物馆;博物馆",
    "city": "哈尔滨"
  },
  {
    "name": "龙江大舞台旗舰店(原新闻电影院)",
    "category": "outdoor",
    "duration_minutes": 120,
    "rating": 4.0,
    "lat": 45.780148,
    "lon": 126.635377,
    "description": "电话: 13214519855 | 地址: 宝宇天邑环球港A区9-1(北马路地铁站1号口旁) | 类别: 体育休闲服务;影剧院;剧场",
    "city": "哈尔滨"
  },
  {
    "name": "太阳岛西区外滩湿地公园",
    "category": "outdoor",
    "duration_minutes": 120,
    "rating": 4.0,
    "lat": 45.797702,
    "lon": 126.534958,
    "description": "地址: 江湾路哈尔滨市政府大厦对面 | 类别: 风景名胜;公园广场;公园",
    "city": "哈尔滨"
  },
  {
    "name": "星河湾亲子游乐园(枫叶小镇奥莱店)",
    "category": "sightseeing",
    "duration_minutes": 120,
    "rating": 4.0,
    "lat": 45.827745,
    "lon": 126.469054,
    "description": "地址: 智谷三街5555-1号 | 类别: 体育休闲服务;休闲场所;游乐场",
    "city": "哈尔滨"
  },
  {
    "name": "群力国家城市湿地公园",
    "category": "outdoor",
    "duration_minutes": 120,
    "rating": 4.0,
    "lat": 45.728507,
    "lon": 126.552291,
    "description": "地址: 群力第六大道与丽江路交汇附近 | 类别: 风景名胜;公园广场;公园",
    "city": "哈尔滨"
  },
  {
    "name": "圣·伊维尔教堂(暂停开放)",
    "category": "sightseeing",
    "duration_minutes": 120,
    "rating": 4.0,
    "lat": 45.763385,
    "lon": 126.629956,
    "description": "地址: 哈尔滨站北广场(东北角) | 类别: 风景名胜;风景名胜;教堂|生活服务;生活服务场所;生活服务场所",
    "city": "哈尔滨"
  },
  {
    "name": "激情广场-哈尔滨天主教堂",
    "category": "sightseeing",
    "duration_minutes": 120,
    "rating": 4.0,
    "lat": 45.751174,
    "lon": 126.659418,
    "description": "地址: 士课街47号 | 类别: 风景名胜;风景名胜;教堂",
    "city": "哈尔滨"
  },
  {
    "name": "欧亚之窗公园",
    "category": "outdoor",
    "duration_minutes": 120,
    "rating": 4.0,
    "lat": 45.701263,
    "lon": 126.602373,
    "description": "地址: 尤家街与南兴街交叉口东北300米 | 类别: 风景名胜;公园广场;公园",
    "city": "哈尔滨"
  },
  {
    "name": "黑龙江省森林植物园(暂停开放)",
    "category": "outdoor",
    "duration_minutes": 120,
    "rating": 4.0,
    "lat": 45.704145,
    "lon": 126.65015,
    "description": "电话: 0451-86625307 | 地址: 哈平路街道哈平路105号 | 类别: 风景名胜;公园广场;植物园",
    "city": "哈尔滨"
  },
  {
    "name": "雅致永悦汇养生沐浴",
    "category": "sightseeing",
    "duration_minutes": 120,
    "rating": 4.0,
    "lat": 45.745727,
    "lon": 126.683843,
    "description": "电话: 0451-82351666 | 地址: 华山路19号1-3层 | 类别: 生活服务;洗浴推拿场所;洗浴推拿场所",
    "city": "哈尔滨"
  },
  {
    "name": "太阳石广场",
    "category": "outdoor",
    "duration_minutes": 120,
    "rating": 4.0,
    "lat": 45.785725,
    "lon": 126.590769,
    "description": "地址: 太阳大道3号太阳岛风景区(西南角) | 类别: 风景名胜;公园广场;城市广场",
    "city": "哈尔滨"
  },
  {
    "name": "松花江沙滩嘉年华",
    "category": "outdoor",
    "duration_minutes": 120,
    "rating": 4.0,
    "lat": 45.77766,
    "lon": 126.606093,
    "description": "地址: 九站街1-3号 | 类别: 体育休闲服务;休闲场所;游乐场",
    "city": "哈尔滨"
  },
  {
    "name": "东北虎林园-虎园",
    "category": "sightseeing",
    "duration_minutes": 120,
    "rating": 4.0,
    "lat": 45.82018,
    "lon": 126.59217,
    "description": "地址: 松北街道松北街88号东北虎林园内(西侧) | 类别: 风景名胜;风景名胜相关;旅游景点",
    "city": "哈尔滨"
  },
  {
    "name": "激情广场",
    "category": "outdoor",
    "duration_minutes": 120,
    "rating": 4.0,
    "lat": 45.751499,
    "lon": 126.659576,
    "description": "地址: 果戈里大街与革新街交叉口南100米 | 类别: 风景名胜;公园广场;城市广场",
    "city": "哈尔滨"
  },
  {
    "name": "哈尔滨党史纪念馆",
    "category": "history",
    "duration_minutes": 120,
    "rating": 4.0,
    "lat": 45.768253,
    "lon": 126.621947,
    "description": "电话: 0451-87687790 | 地址: 西十五道街33号 | 类别: 风景名胜;风景名胜;纪念馆",
    "city": "哈尔滨"
  },
  {
    "name": "长岭湖旅游区",
    "category": "outdoor",
    "duration_minutes": 120,
    "rating": 4.0,
    "lat": 45.691515,
    "lon": 126.440266,
    "description": "地址: 环湖北路 | 类别: 风景名胜;风景名胜;风景名胜",
    "city": "哈尔滨"
  },
  {
    "name": "黑龙江哈尔滨太阳岛国家湿地公园",
    "category": "outdoor",
    "duration_minutes": 120,
    "rating": 4.0,
    "lat": 45.798161,
    "lon": 126.536666,
    "description": "地址: 政府大厦对面 | 类别: 风景名胜;公园广场;公园",
    "city": "哈尔滨"
  },
  {
    "name": "侵华日军第731部队遗址第二保护区",
    "category": "history",
    "duration_minutes": 120,
    "rating": 4.0,
    "lat": 45.610616,
    "lon": 126.63385,
    "description": "地址: 新疆街派出所东侧 | 类别: 风景名胜;风景名胜;风景名胜",
    "city": "哈尔滨"
  },
  {
    "name": "青年广场",
    "category": "outdoor",
    "duration_minutes": 120,
    "rating": 4.0,
    "lat": 45.762486,
    "lon": 126.640283,
    "description": "地址: 果戈里大街452号 | 类别: 风景名胜;公园广场;城市广场",
    "city": "哈尔滨"
  },
  {
    "name": "母亲广场",
    "category": "outdoor",
    "duration_minutes": 120,
    "rating": 4.0,
    "lat": 45.710585,
    "lon": 126.676921,
    "description": "地址: 进乡街23号 | 类别: 风景名胜;公园广场;城市广场",
    "city": "哈尔滨"
  },
  {
    "name": "润福公园",
    "category": "outdoor",
    "duration_minutes": 120,
    "rating": 4.0,
    "lat": 45.81598,
    "lon": 126.547445,
    "description": "地址: 中源大道辅路与松北大道辅路交叉口东北180米 | 类别: 风景名胜;公园广场;公园",
    "city": "哈尔滨"
  },
  {
    "name": "中国亭园",
    "category": "outdoor",
    "duration_minutes": 120,
    "rating": 4.0,
    "lat": 45.718922,
    "lon": 126.716728,
    "description": "电话: 0451-55169590 | 地址: 油坊街0-1号 | 类别: 风景名胜;公园广场;公园",
    "city": "哈尔滨"
  },
  {
    "name": "尚志公园",
    "category": "outdoor",
    "duration_minutes": 120,
    "rating": 4.0,
    "lat": 45.726699,
    "lon": 126.683051,
    "description": "电话: 0451-55168462 | 地址: 公滨路478号 | 类别: 风景名胜;公园广场;公园",
    "city": "哈尔滨"
  },
  {
    "name": "清滨公园",
    "category": "outdoor",
    "duration_minutes": 120,
    "rating": 4.0,
    "lat": 45.729599,
    "lon": 126.614992,
    "description": "电话: 0451-86301371 | 地址: 西大直街与和兴三道街交口 | 类别: 风景名胜;公园广场;公园",
    "city": "哈尔滨"
  },
  {
    "name": "革新教堂大舞台",
    "category": "sightseeing",
    "duration_minutes": 120,
    "rating": 4.0,
    "lat": 45.751264,
    "lon": 126.659547,
    "description": "地址: 士课街47号激情广场-哈尔滨天主教堂(东北角) | 类别: 体育休闲服务;影剧院;剧场",
    "city": "哈尔滨"
  },
  {
    "name": "黑龙江哈尔滨阿勒锦岛国家湿地公园",
    "category": "outdoor",
    "duration_minutes": 120,
    "rating": 4.0,
    "lat": 45.806681,
    "lon": 126.656215,
    "description": "地址: 松浦大桥附近 | 类别: 风景名胜;公园广场;公园",
    "city": "哈尔滨"
  },
  {
    "name": "极地广场",
    "category": "outdoor",
    "duration_minutes": 120,
    "rating": 4.0,
    "lat": 45.785184,
    "lon": 126.585835,
    "description": "电话: 0451-88190909 | 地址: 太阳岛街道太阳大道277号哈尔滨极地公园内(西侧) | 类别: 风景名胜;公园广场;城市广场",
    "city": "哈尔滨"
  },
  {
    "name": "天恒山",
    "category": "outdoor",
    "duration_minutes": 120,
    "rating": 4.0,
    "lat": 45.790891,
    "lon": 126.792879,
    "description": "地址: 东巨路附近 | 类别: 风景名胜;风景名胜;风景名胜",
    "city": "哈尔滨"
  },
  {
    "name": "雪花摩天轮",
    "category": "sightseeing",
    "duration_minutes": 120,
    "rating": 4.0,
    "lat": 45.776084,
    "lon": 126.55822,
    "description": "地址: 太阳岛街道冰雪大世界(西南角) | 类别: 风景名胜;风景名胜;风景名胜",
    "city": "哈尔滨"
  },
  {
    "name": "雨阳公园",
    "category": "outdoor",
    "duration_minutes": 120,
    "rating": 4.0,
    "lat": 45.722301,
    "lon": 126.550058,
    "description": "电话: 0451-84321427 | 地址: 群力第六大道与丽江路交口 | 类别: 风景名胜;公园广场;公园",
    "city": "哈尔滨"
  },
  {
    "name": "大雪人奇遇乐园",
    "category": "sightseeing",
    "duration_minutes": 120,
    "rating": 4.0,
    "lat": 45.750214,
    "lon": 126.55885,
    "description": "地址: 友谊西路2950号 | 类别: 体育休闲服务;体育休闲服务场所;体育休闲服务场所",
    "city": "哈尔滨"
  },
  {
    "name": "顾乡公园",
    "category": "outdoor",
    "duration_minutes": 120,
    "rating": 4.0,
    "lat": 45.75268,
    "lon": 126.581667,
    "description": "电话: 0451-84819046 | 地址: 河松街243号 | 类别: 风景名胜;公园广场;公园",
    "city": "哈尔滨"
  },
  {
    "name": "雪花广场",
    "category": "outdoor",
    "duration_minutes": 120,
    "rating": 4.0,
    "lat": 45.796314,
    "lon": 126.507149,
    "description": "地址: 雪花南三路与创新二路交叉口东120米 | 类别: 风景名胜;公园广场;城市广场",
    "city": "哈尔滨"
  },
  {
    "name": "索菲亚教堂景区-综合办公楼",
    "category": "sightseeing",
    "duration_minutes": 120,
    "rating": 4.0,
    "lat": 45.771205,
    "lon": 126.626958,
    "description": "地址: 透笼街88号 | 类别: 风景名胜;风景名胜相关;旅游景点",
    "city": "哈尔滨"
  },
  {
    "name": "呼兰河口湿地公园",
    "category": "outdoor",
    "duration_minutes": 120,
    "rating": 4.0,
    "lat": 45.947771,
    "lon": 126.733494,
    "description": "电话: 4000124600 | 地址: 东岗村香蒲大堤 | 类别: 风景名胜;风景名胜;风景名胜",
    "city": "哈尔滨"
  },
  {
    "name": "哈尔滨冰雪大世界文创旗舰店",
    "category": "sightseeing",
    "duration_minutes": 120,
    "rating": 4.0,
    "lat": 45.774613,
    "lon": 126.565816,
    "description": "地址: 冰雪大世界南门外100米 | 类别: 风景名胜;风景名胜;风景名胜",
    "city": "哈尔滨"
  },
  {
    "name": "澜悦汇",
    "category": "sightseeing",
    "duration_minutes": 120,
    "rating": 4.0,
    "lat": 45.764997,
    "lon": 126.677384,
    "description": "电话: 0451-88828888 | 地址: 先锋路328号 | 类别: 生活服务;洗浴推拿场所;洗浴推拿场所",
    "city": "哈尔滨"
  },
  {
    "name": "国宝重器·聚首冰城海外回流文物哈尔滨特展",
    "category": "outdoor",
    "duration_minutes": 120,
    "rating": 4.0,
    "lat": 45.740617,
    "lon": 126.558744,
    "description": "地址: 景江西路与群力第二大道交叉口西南80米 | 类别: 科教文化服务;科教文化场所;科教文化场所",
    "city": "哈尔滨"
  },
  {
    "name": "安阳河园",
    "category": "outdoor",
    "duration_minutes": 120,
    "rating": 4.0,
    "lat": 45.738903,
    "lon": 126.577313,
    "description": "地址: 康安街道安阳路 | 类别: 风景名胜;公园广场;公园",
    "city": "哈尔滨"
  },
  {
    "name": "水阁云天",
    "category": "sightseeing",
    "duration_minutes": 120,
    "rating": 4.0,
    "lat": 45.791488,
    "lon": 126.595469,
    "description": "电话: 0451-88192966 | 地址: 江北临江路24号太阳岛风景区内 | 类别: 风景名胜;风景名胜相关;旅游景点",
    "city": "哈尔滨"
  },
  {
    "name": "哈尔滨松花江冰雪欢乐营(暂停开放)",
    "category": "outdoor",
    "duration_minutes": 120,
    "rating": 4.0,
    "lat": 45.781054,
    "lon": 126.616704,
    "description": "电话: 15245011332 | 地址: 防洪纪念塔后 | 类别: 风景名胜;风景名胜相关;旅游景点",
    "city": "哈尔滨"
  },
  {
    "name": "哈尔滨市南岗博物馆",
    "category": "museum",
    "duration_minutes": 120,
    "rating": 4.0,
    "lat": 45.75273,
    "lon": 126.640936,
    "description": "电话: 0451-83117558 | 地址: 花园街道联发街1号 | 类别: 科教文化服务;博物馆;博物馆",
    "city": "哈尔滨"
  },
  {
    "name": "太阳岛风景区-太阳石",
    "category": "sightseeing",
    "duration_minutes": 120,
    "rating": 4.0,
    "lat": 45.785716,
    "lon": 126.590718,
    "description": "电话: 0451-88192966 | 地址: 警备路3号太阳岛风景区内(西南角) | 类别: 风景名胜;风景名胜;风景名胜",
    "city": "哈尔滨"
  },
  {
    "name": "霁虹广场",
    "category": "outdoor",
    "duration_minutes": 120,
    "rating": 4.0,
    "lat": 45.764879,
    "lon": 126.638033,
    "description": "地址: 一曼街(哈尔滨站地铁站2号口步行360米) | 类别: 风景名胜;公园广场;公园",
    "city": "哈尔滨"
  },
  {
    "name": "极乐寺-塔院",
    "category": "history",
    "duration_minutes": 120,
    "rating": 4.0,
    "lat": 45.778121,
    "lon": 126.666107,
    "description": "电话: 0451-82534762 | 地址: 黑龙汇东大直街9号 | 类别: 风景名胜;风景名胜;风景名胜",
    "city": "哈尔滨"
  },
  {
    "name": "中东铁路公园(江北段)",
    "category": "outdoor",
    "duration_minutes": 120,
    "rating": 4.0,
    "lat": 45.807967,
    "lon": 126.607838,
    "description": "地址: 滨水大道与剧院二路交叉口东160米 | 类别: 风景名胜;公园广场;公园",
    "city": "哈尔滨"
  },
  {
    "name": "建筑艺术广场",
    "category": "outdoor",
    "duration_minutes": 120,
    "rating": 4.0,
    "lat": 45.770608,
    "lon": 126.626984,
    "description": "电话: 0451-84686904 | 地址: 透笼街88号 | 类别: 风景名胜;公园广场;城市广场",
    "city": "哈尔滨"
  },
  {
    "name": "哈尔滨新区航天公园",
    "category": "outdoor",
    "duration_minutes": 120,
    "rating": 4.0,
    "lat": 45.803334,
    "lon": 126.468959,
    "description": "电话: 0451-88192936 | 地址: 黄灿路与智谷大街交口 | 类别: 风景名胜;公园广场;公园",
    "city": "哈尔滨"
  },
  {
    "name": "安重根义士纪念馆",
    "category": "history",
    "duration_minutes": 120,
    "rating": 4.0,
    "lat": 45.761168,
    "lon": 126.632638,
    "description": "电话: 15504618506 | 地址: 哈尔滨火车站南广场 | 类别: 风景名胜;风景名胜;纪念馆",
    "city": "哈尔滨"
  },
  {
    "name": "黑龙江省地质博物馆",
    "category": "museum",
    "duration_minutes": 120,
    "rating": 4.0,
    "lat": 45.744661,
    "lon": 126.696151,
    "description": "电话: 0451-55603152;0451-55603668 | 地址: 红旗大街263号 | 类别: 科教文化服务;博物馆;博物馆",
    "city": "哈尔滨"
  },
  {
    "name": "道外巴洛克博物馆",
    "category": "museum",
    "duration_minutes": 120,
    "rating": 4.0,
    "lat": 45.782283,
    "lon": 126.64231,
    "description": "地址: 靖宇南二道街中华巴洛克五号院 | 类别: 科教文化服务;博物馆;博物馆",
    "city": "哈尔滨"
  },
  {
    "name": "名都滑雪场",
    "category": "sightseeing",
    "duration_minutes": 120,
    "rating": 4.0,
    "lat": 45.664157,
    "lon": 126.657416,
    "description": "电话: 17646632991 | 地址: 三合路名都滑雪场 | 类别: 体育休闲服务;运动场馆;滑雪场",
    "city": "哈尔滨"
  },
  {
    "name": "太阳岛风景区大雪人",
    "category": "sightseeing",
    "duration_minutes": 120,
    "rating": 4.0,
    "lat": 45.785725,
    "lon": 126.600767,
    "description": "地址: 太阳大道3号太阳岛风景区(东南角) | 类别: 风景名胜;风景名胜相关;旅游景点",
    "city": "哈尔滨"
  },
  {
    "name": "太阳岛风景区-天鹅湖",
    "category": "outdoor",
    "duration_minutes": 120,
    "rating": 4.0,
    "lat": 45.797157,
    "lon": 126.590231,
    "description": "电话: 0451-88192966 | 地址: 太阳大道1号太阳岛风景区(西北角) | 类别: 风景名胜;风景名胜相关;旅游景点",
    "city": "哈尔滨"
  },
  {
    "name": "淘学企鹅馆",
    "category": "outdoor",
    "duration_minutes": 120,
    "rating": 4.0,
    "lat": 45.785432,
    "lon": 126.585502,
    "description": "电话: 0451-88190909 | 地址: 太阳大道277号(太阳岛地铁站1号口步行180米) | 类别: 风景名胜;公园广场;水族馆",
    "city": "哈尔滨"
  },
  {
    "name": "长青寺",
    "category": "history",
    "duration_minutes": 120,
    "rating": 4.0,
    "lat": 45.789608,
    "lon": 126.684345,
    "description": "地址: 大街街道太平后道太平大街168号 | 类别: 风景名胜;风景名胜;寺庙道观",
    "city": "哈尔滨"
  },
  {
    "name": "iTA家庭育乐成长中心(银泰城店)",
    "category": "sightseeing",
    "duration_minutes": 120,
    "rating": 4.0,
    "lat": 45.735485,
    "lon": 126.539258,
    "description": "地址: 群力大道2399号银泰城购物中心F1层 | 类别: 体育休闲服务;休闲场所;游乐场",
    "city": "哈尔滨"
  },
  {
    "name": "新阳广场",
    "category": "sightseeing",
    "duration_minutes": 120,
    "rating": 4.0,
    "lat": 45.766967,
    "lon": 126.621094,
    "description": "地址: 经纬街新阳路转盘道绿地 | 类别: 风景名胜;风景名胜;风景名胜",
    "city": "哈尔滨"
  },
  {
    "name": "南极站",
    "category": "sightseeing",
    "duration_minutes": 120,
    "rating": 4.0,
    "lat": 45.785181,
    "lon": 126.585473,
    "description": "电话: 0451-88190909 | 地址: 太阳大道277号哈尔滨极地公园内(西侧) | 类别: 风景名胜;风景名胜相关;旅游景点",
    "city": "哈尔滨"
  },
  {
    "name": "刘少奇革命活动旧址",
    "category": "sightseeing",
    "duration_minutes": 120,
    "rating": 4.0,
    "lat": 45.755287,
    "lon": 126.605241,
    "description": "地址: 河广街15号 | 类别: 风景名胜;风景名胜相关;旅游景点",
    "city": "哈尔滨"
  },
  {
    "name": "普照寺",
    "category": "history",
    "duration_minutes": 120,
    "rating": 4.0,
    "lat": 45.779128,
    "lon": 126.666578,
    "description": "电话: 0451-82522635 | 地址: 东大直街3号(工程大学地铁站2号口步行490米) | 类别: 风景名胜;风景名胜;寺庙道观",
    "city": "哈尔滨"
  },
  {
    "name": "哈利路亚教堂",
    "category": "sightseeing",
    "duration_minutes": 120,
    "rating": 4.0,
    "lat": 45.72429,
    "lon": 126.695222,
    "description": "电话: 0451-55159752 | 地址: 升永街2号 | 类别: 风景名胜;风景名胜;教堂",
    "city": "哈尔滨"
  },
  {
    "name": "哈尔滨国防教育广场",
    "category": "outdoor",
    "duration_minutes": 120,
    "rating": 4.0,
    "lat": 45.762811,
    "lon": 126.592251,
    "description": "电话: 0451-84271591 | 地址: 九站街1号九站公园(西南角) | 类别: 风景名胜;公园广场;城市广场",
    "city": "哈尔滨"
  },
  {
    "name": "铁道兵启航纪念塔",
    "category": "history",
    "duration_minutes": 120,
    "rating": 4.0,
    "lat": 45.795614,
    "lon": 126.618978,
    "description": "地址: 中东铁路桥附近 | 类别: 风景名胜;风景名胜;纪念馆",
    "city": "哈尔滨"
  },
  {
    "name": "上坞沙滩浴场",
    "category": "sightseeing",
    "duration_minutes": 120,
    "rating": 4.0,
    "lat": 45.770739,
    "lon": 126.581986,
    "description": "电话: 18944501191 | 地址: 松花江公路大桥 | 类别: 体育休闲服务;体育休闲服务场所;体育休闲服务场所",
    "city": "哈尔滨"
  },
  {
    "name": "哈尔滨文化中心公园",
    "category": "outdoor",
    "duration_minutes": 120,
    "rating": 4.0,
    "lat": 45.813034,
    "lon": 126.588236,
    "description": "电话: 0451-88192936 | 地址: 哈尔滨大剧院对面,东北虎林园西侧 | 类别: 风景名胜;公园广场;公园",
    "city": "哈尔滨"
  },
  {
    "name": "鞑靼清真寺(暂停开放)",
    "category": "sightseeing",
    "duration_minutes": 120,
    "rating": 4.0,
    "lat": 45.773014,
    "lon": 126.614043,
    "description": "地址: 通江街106号NICE融合菜近通江街108号 | 类别: 风景名胜;风景名胜;风景名胜",
    "city": "哈尔滨"
  },
  {
    "name": "哈尔滨圣母守护教堂",
    "category": "sightseeing",
    "duration_minutes": 120,
    "rating": 4.0,
    "lat": 45.763799,
    "lon": 126.650731,
    "description": "地址: 东大直街268号 | 类别: 风景名胜;风景名胜;教堂",
    "city": "哈尔滨"
  },
  {
    "name": "驯鹿部落",
    "category": "sightseeing",
    "duration_minutes": 120,
    "rating": 4.0,
    "lat": 45.7808,
    "lon": 126.615659,
    "description": "地址: 冰雪大世界内 | 类别: 风景名胜;风景名胜;风景名胜",
    "city": "哈尔滨"
  },
  {
    "name": "哈尔滨烈士陵园",
    "category": "sightseeing",
    "duration_minutes": 120,
    "rating": 4.0,
    "lat": 45.723833,
    "lon": 126.654731,
    "description": "电话: 0451-82114763;0451-86267308 | 地址: 体育街1号(近中医学院) | 类别: 生活服务;丧葬设施;陵园|风景名胜;风景名胜;红色景区",
    "city": "哈尔滨"
  },
  {
    "name": "世纪广场",
    "category": "sightseeing",
    "duration_minutes": 120,
    "rating": 4.0,
    "lat": 45.751366,
    "lon": 126.6842,
    "description": "地址: 顺益街21-25号 | 类别: 商务住宅;住宅区;住宅小区",
    "city": "哈尔滨"
  },
  {
    "name": "太阳岛风景区-东北抗日联军纪念园",
    "category": "history",
    "duration_minutes": 120,
    "rating": 4.0,
    "lat": 45.790589,
    "lon": 126.608067,
    "description": "电话: 0451-88192966 | 地址: 警备路3号太阳岛风景区内(东侧) | 类别: 风景名胜;风景名胜;纪念馆",
    "city": "哈尔滨"
  },
  {
    "name": "通江广场",
    "category": "outdoor",
    "duration_minutes": 120,
    "rating": 4.0,
    "lat": 45.778972,
    "lon": 126.61131,
    "description": "电话: 0451-84634216 | 地址: 斯大林街3号斯大林公园内(西侧) | 类别: 风景名胜;公园广场;城市广场",
    "city": "哈尔滨"
  },
  {
    "name": "毛主席宝像传奇",
    "category": "sightseeing",
    "duration_minutes": 120,
    "rating": 4.0,
    "lat": 45.761885,
    "lon": 126.601982,
    "description": "地址: 上海街与爱建路交叉口 | 类别: 风景名胜;风景名胜相关;旅游景点",
    "city": "哈尔滨"
  },
  {
    "name": "东北抗日联军博物馆(暂停开放)",
    "category": "museum",
    "duration_minutes": 120,
    "rating": 4.0,
    "lat": 45.766318,
    "lon": 126.643006,
    "description": "电话: 0451-53640948 | 地址: 一曼街241号 | 类别: 科教文化服务;博物馆;博物馆",
    "city": "哈尔滨"
  },
  {
    "name": "太阳岛寒地野生动物园",
    "category": "outdoor",
    "duration_minutes": 120,
    "rating": 4.0,
    "lat": 45.795989,
    "lon": 126.58846,
    "description": "电话: 0451-88192966;15776765116 | 地址: 太阳岛风景区松鼠岛 | 类别: 风景名胜;公园广场;动物园",
    "city": "哈尔滨"
  },
  {
    "name": "哈尔滨冰雪文化博物馆",
    "category": "museum",
    "duration_minutes": 120,
    "rating": 4.0,
    "lat": 45.627163,
    "lon": 126.636679,
    "description": "地址: 松花路9号中国云谷园区内A2号楼 | 类别: 科教文化服务;博物馆;博物馆",
    "city": "哈尔滨"
  },
  {
    "name": "黑龙江饶河东北黑蜂国家级自然保护区",
    "category": "outdoor",
    "duration_minutes": 120,
    "rating": 4.0,
    "lat": 45.747766,
    "lon": 126.609261,
    "description": "地址: 光华街22-4号附近 | 类别: 风景名胜;风景名胜;国家级景点",
    "city": "哈尔滨"
  },
  {
    "name": "泽园广场",
    "category": "outdoor",
    "duration_minutes": 120,
    "rating": 4.0,
    "lat": 45.747321,
    "lon": 126.52742,
    "description": "地址: 阳明滩大道与友谊西路交叉口东北角哈尔滨外滩湿地 | 类别: 风景名胜;公园广场;城市广场",
    "city": "哈尔滨"
  },
  {
    "name": "亚斯利孤儿院旧址",
    "category": "sightseeing",
    "duration_minutes": 120,
    "rating": 4.0,
    "lat": 45.763641,
    "lon": 126.629183,
    "description": "地址: 工厂胡同9号 | 类别: 风景名胜;风景名胜相关;旅游景点",
    "city": "哈尔滨"
  },
  {
    "name": "松北礼拜堂",
    "category": "sightseeing",
    "duration_minutes": 120,
    "rating": 4.0,
    "lat": 45.812365,
    "lon": 126.546581,
    "description": "地址: 龙唐街477号 | 类别: 风景名胜;风景名胜;教堂",
    "city": "哈尔滨"
  },
  {
    "name": "滨水公园",
    "category": "outdoor",
    "duration_minutes": 120,
    "rating": 4.0,
    "lat": 45.803814,
    "lon": 126.565059,
    "description": "电话: 18545679955 | 地址: 学海街近江路交口 | 类别: 风景名胜;公园广场;公园|科教文化服务;科教文化场所;科教文化场所",
    "city": "哈尔滨"
  },
  {
    "name": "江上城堡",
    "category": "outdoor",
    "duration_minutes": 120,
    "rating": 4.0,
    "lat": 45.784082,
    "lon": 126.625668,
    "description": "地址: 斯大林街与旭初街交叉口西120米 | 类别: 体育休闲服务;体育休闲服务场所;体育休闲服务场所",
    "city": "哈尔滨"
  },
  {
    "name": "松松小镇(乐松购物广场店)",
    "category": "sightseeing",
    "duration_minutes": 120,
    "rating": 4.0,
    "lat": 45.719727,
    "lon": 126.648224,
    "description": "电话: 0451-51050999;0451-51071111 | 地址: 三大动力路8号乐松广场3层 | 类别: 体育休闲服务;休闲场所;游乐场",
    "city": "哈尔滨"
  },
  {
    "name": "北秀公园",
    "category": "outdoor",
    "duration_minutes": 120,
    "rating": 4.0,
    "lat": 45.753958,
    "lon": 126.631886,
    "description": "地址: 上夹树街与公司街交口 | 类别: 风景名胜;公园广场;公园广场",
    "city": "哈尔滨"
  },
  {
    "name": "省委广场",
    "category": "outdoor",
    "duration_minutes": 120,
    "rating": 4.0,
    "lat": 45.760803,
    "lon": 126.650515,
    "description": "地址: 吉林街与花园街交叉口南50米 | 类别: 风景名胜;公园广场;城市广场",
    "city": "哈尔滨"
  },
  {
    "name": "海宁龙龙奇幻世界",
    "category": "outdoor",
    "duration_minutes": 120,
    "rating": 4.0,
    "lat": 45.691844,
    "lon": 126.538598,
    "description": "电话: 0451-51097077 | 地址: 机场路198号海宁皮革城三楼(牡丹江路)入口进入 | 类别: 风景名胜;风景名胜相关;旅游景点",
    "city": "哈尔滨"
  },
  {
    "name": "平房公园",
    "category": "outdoor",
    "duration_minutes": 120,
    "rating": 4.0,
    "lat": 45.595612,
    "lon": 126.636379,
    "description": "地址: 友协街道友协大街29号(近龙滨路) | 类别: 风景名胜;公园广场;公园",
    "city": "哈尔滨"
  },
  {
    "name": "火车头广场",
    "category": "outdoor",
    "duration_minutes": 120,
    "rating": 4.0,
    "lat": 45.762077,
    "lon": 126.601471,
    "description": "地址: 河润街哈尔滨冰雪艺术中心(居然之家东) | 类别: 风景名胜;公园广场;城市广场",
    "city": "哈尔滨"
  },
  {
    "name": "哈尔滨青年运动史纪念馆",
    "category": "history",
    "duration_minutes": 120,
    "rating": 4.0,
    "lat": 45.782533,
    "lon": 126.623588,
    "description": "地址: 斯大林街4号哈尔滨市青年宫 | 类别: 风景名胜;风景名胜;纪念馆",
    "city": "哈尔滨"
  },
  {
    "name": "哈尔滨青年运动史纪念馆",
    "category": "history",
    "duration_minutes": 120,
    "rating": 4.0,
    "lat": 45.782533,
    "lon": 126.623588,
    "description": "地址: 斯大林街4号哈尔滨市青年宫 | 类别: 风景名胜;风景名胜;纪念馆",
    "city": "哈尔滨"
  },
  {
    "name": "南岗区天主堂",
    "category": "sightseeing",
    "duration_minutes": 120,
    "rating": 4.0,
    "lat": 45.763895,
    "lon": 126.64979,
    "description": "地址: 东大直街211号(医大一院地铁站1号口旁) | 类别: 风景名胜;风景名胜;教堂",
    "city": "哈尔滨"
  },
  {
    "name": "太平公园",
    "category": "outdoor",
    "duration_minutes": 120,
    "rating": 4.0,
    "lat": 45.788124,
    "lon": 126.693117,
    "description": "地址: 东直路366号(地铁1号线桦树街地铁站4号口步行260米与宏伟路交口) | 类别: 风景名胜;公园广场;公园",
    "city": "哈尔滨"
  },
  {
    "name": "北大荒博物馆",
    "category": "museum",
    "duration_minutes": 120,
    "rating": 4.0,
    "lat": 45.734815,
    "lon": 126.693393,
    "description": "电话: 0451-55198241 | 地址: 红旗大街175号 | 类别: 科教文化服务;博物馆;博物馆",
    "city": "哈尔滨"
  },
  {
    "name": "哈尔滨伏尔加庄园",
    "category": "sightseeing",
    "duration_minutes": 120,
    "rating": 4.0,
    "lat": 45.671175,
    "lon": 126.89955,
    "description": "电话: 4006677188;0451-55156801 | 地址: 成高子镇民强村(哈城公路16公里处) | 类别: 住宿服务;住宿服务相关;住宿服务相关|体育休闲服务;度假疗养场所;度假村|风景名胜;风景名胜相关;旅游景点",
    "city": "哈尔滨"
  },
  {
    "name": "犹太商人索斯金故居",
    "category": "history",
    "duration_minutes": 120,
    "rating": 4.0,
    "lat": 45.766396,
    "lon": 126.617409,
    "description": "地址: 经纬四道街30号 | 类别: 风景名胜;风景名胜;纪念馆",
    "city": "哈尔滨"
  },
  {
    "name": "红星广场",
    "category": "outdoor",
    "duration_minutes": 120,
    "rating": 4.0,
    "lat": 45.773414,
    "lon": 126.612819,
    "description": "地址: 通江街116号 | 类别: 风景名胜;公园广场;城市广场",
    "city": "哈尔滨"
  },
  {
    "name": "闫家岗农场稻田画观光塔(暂停开放)",
    "category": "history",
    "duration_minutes": 120,
    "rating": 4.0,
    "lat": 45.617205,
    "lon": 126.331338,
    "description": "地址: 闫家岗农场北侧 | 类别: 风景名胜;风景名胜;观景点",
    "city": "哈尔滨"
  },
  {
    "name": "华严寺",
    "category": "history",
    "duration_minutes": 120,
    "rating": 4.0,
    "lat": 45.757393,
    "lon": 126.660666,
    "description": "地址: 奋斗路街道比乐街65号(近芦家街) | 类别: 风景名胜;风景名胜;寺庙道观",
    "city": "哈尔滨"
  },
  {
    "name": "呼兰河口湿地冰雪乐园",
    "category": "sightseeing",
    "duration_minutes": 120,
    "rating": 4.0,
    "lat": 45.939154,
    "lon": 126.737158,
    "description": "地址: 呼兰河口湿地公园 | 类别: 体育休闲服务;运动场馆;运动场所",
    "city": "哈尔滨"
  },
  {
    "name": "哈尔滨极地馆-南极企鹅岛",
    "category": "sightseeing",
    "duration_minutes": 120,
    "rating": 4.0,
    "lat": 45.785164,
    "lon": 126.587199,
    "description": "地址: 太阳大道3号(近太阳岛公园斜对面)哈尔滨极地馆内 | 类别: 风景名胜;风景名胜相关;旅游景点",
    "city": "哈尔滨"
  },
  {
    "name": "香坊清真寺",
    "category": "sightseeing",
    "duration_minutes": 120,
    "rating": 4.0,
    "lat": 45.738835,
    "lon": 126.686977,
    "description": "电话: 0451-82367322;13845049655 | 地址: 嵩山路附4(珠江路地铁站2号口步行420米) | 类别: 风景名胜;风景名胜;回教寺",
    "city": "哈尔滨"
  },
  {
    "name": "宝石广场",
    "category": "outdoor",
    "duration_minutes": 120,
    "rating": 4.0,
    "lat": 45.730809,
    "lon": 126.563835,
    "description": "地址: 景江西路848号 | 类别: 风景名胜;公园广场;城市广场",
    "city": "哈尔滨"
  },
  {
    "name": "徐世昌总督府",
    "category": "sightseeing",
    "duration_minutes": 120,
    "rating": 4.0,
    "lat": 45.782801,
    "lon": 126.642136,
    "description": "地址: 南四道街与靖宇街交叉口南140米 | 类别: 风景名胜;风景名胜相关;旅游景点",
    "city": "哈尔滨"
  },
  {
    "name": "松浦洋行",
    "category": "sightseeing",
    "duration_minutes": 120,
    "rating": 4.0,
    "lat": 45.773647,
    "lon": 126.618741,
    "description": "地址: 中央大街1号哈尔滨中央大街 | 类别: 风景名胜;风景名胜;风景名胜",
    "city": "哈尔滨"
  },
  {
    "name": "尼埃拉依教堂",
    "category": "sightseeing",
    "duration_minutes": 120,
    "rating": 4.0,
    "lat": 45.764369,
    "lon": 126.651589,
    "description": "地址: 东大直街252号 | 类别: 风景名胜;风景名胜;教堂|政府机构及社会团体;社会团体;教会",
    "city": "哈尔滨"
  },
  {
    "name": "悦宾阁",
    "category": "sightseeing",
    "duration_minutes": 120,
    "rating": 4.0,
    "lat": 45.766851,
    "lon": 126.526308,
    "description": "地址: 听雨廊北侧90米 | 类别: 风景名胜;风景名胜;风景名胜",
    "city": "哈尔滨"
  },
  {
    "name": "关公像",
    "category": "sightseeing",
    "duration_minutes": 120,
    "rating": 4.0,
    "lat": 45.781397,
    "lon": 126.643704,
    "description": "地址: 南头道街64号中华巴洛克历史文化街区内(东侧) | 类别: 风景名胜;风景名胜;风景名胜",
    "city": "哈尔滨"
  },
  {
    "name": "笨熊乐园(暂停营业)",
    "category": "sightseeing",
    "duration_minutes": 120,
    "rating": 4.0,
    "lat": 45.791118,
    "lon": 126.598417,
    "description": "地址: 中央大街69号金安国际负二层韩国艺姿儿童摄影店内 | 类别: 体育休闲服务;体育休闲服务场所;体育休闲服务场所",
    "city": "哈尔滨"
  },
  {
    "name": "呼兰天主教堂",
    "category": "sightseeing",
    "duration_minutes": 120,
    "rating": 4.0,
    "lat": 45.987749,
    "lon": 126.610136,
    "description": "地址: 亿兴路与东府路交叉口处 | 类别: 风景名胜;风景名胜;教堂",
    "city": "哈尔滨"
  }
]