[
  {
    "name": "安徽博物院",
    "category": "museum",
    "duration_minutes": 120,
    "rating": 4.0,
    "lat": 31.802102,
    "lon": 117.220595,
    "description": "电话: 0551-63736658 | 地址: 怀宁路87号 | 类别: 科教文化服务;博物馆;博物馆",
    "city": "合肥"
  },
  {
    "name": "合柴1972",
    "category": "sightseeing",
    "duration_minutes": 120,
    "rating": 4.0,
    "lat": 31.797911,
    "lon": 117.245085,
    "description": "电话: 0551-63360059 | 地址: 金寨路与天堂寨路交口(金寨南路310号合肥监狱生活小区南侧) | 类别: 风景名胜;风景名胜;风景名胜",
    "city": "合肥"
  },
  {
    "name": "天鹅湖体育公园",
    "category": "outdoor",
    "duration_minutes": 120,
    "rating": 4.0,
    "lat": 31.813446,
    "lon": 117.224195,
    "description": "地址: 笔架山街道天鹅湖路与聚云峰路交口 | 类别: 风景名胜;公园广场;公园",
    "city": "合肥"
  },
  {
    "name": "安徽省地质博物馆",
    "category": "museum",
    "duration_minutes": 120,
    "rating": 4.0,
    "lat": 31.803236,
    "lon": 117.221844,
    "description": "电话: 0551-63548008 | 地址: 笔架山街道嘉和路999号(安徽省文化博物园内) | 类别: 科教文化服务;博物馆;博物馆",
    "city": "合肥"
  },
  {
    "name": "徽园",
    "category": "sightseeing",
    "duration_minutes": 120,
    "rating": 4.0,
    "lat": 31.783386,
    "lon": 117.218822,
    "description": "电话: 0551-66699945 | 地址: 繁华大道276号 | 类别: 风景名胜;风景名胜;国家级景点",
    "city": "合肥"
  },
  {
    "name": "绿轴公园",
    "category": "outdoor",
    "duration_minutes": 120,
    "rating": 4.0,
    "lat": 31.803232,
    "lon": 117.227843,
    "description": "地址: 祁门路 | 类别: 风景名胜;公园广场;公园",
    "city": "合肥"
  },
  {
    "name": "金大地东西街",
    "category": "sightseeing",
    "duration_minutes": 120,
    "rating": 4.0,
    "lat": 31.841353,
    "lon": 117.221701,
    "description": "地址: 黄山路543号北100米 | 类别: 购物服务;特色商业街;特色商业街",
    "city": "合肥"
  },
  {
    "name": "天鹅湖公园",
    "category": "outdoor",
    "duration_minutes": 120,
    "rating": 4.0,
    "lat": 31.815183,
    "lon": 117.230912,
    "description": "地址: 天鹅湖东路56号 | 类别: 风景名胜;公园广场;公园",
    "city": "合肥"
  },
  {
    "name": "蜀山森林公园",
    "category": "outdoor",
    "duration_minutes": 120,
    "rating": 4.0,
    "lat": 31.84159,
    "lon": 117.170897,
    "description": "电话: 0551-65313400;0551-65324811 | 地址: 玉兰大道8号 | 类别: 风景名胜;公园广场;公园",
    "city": "合肥"
  },
  {
    "name": "天鹅湖人工沙滩",
    "category": "outdoor",
    "duration_minutes": 120,
    "rating": 4.0,
    "lat": 31.808832,
    "lon": 117.227304,
    "description": "地址: 祁门路(天鹅湖地铁站A口步行260米) | 类别: 风景名胜;风景名胜;海滩",
    "city": "合肥"
  },
  {
    "name": "合肥野生动物园",
    "category": "outdoor",
    "duration_minutes": 120,
    "rating": 4.0,
    "lat": 31.835193,
    "lon": 117.167944,
    "description": "电话: 0551-65395595 | 地址: 望江西路600号 | 类别: 风景名胜;公园广场;动物园",
    "city": "合肥"
  },
  {
    "name": "天鹅湖公园-观景平台",
    "category": "outdoor",
    "duration_minutes": 120,
    "rating": 4.0,
    "lat": 31.814838,
    "lon": 117.227488,
    "description": "地址: 怀宁路与天鹅湖路交叉口天鹅湖公园(东北角) | 类别: 风景名胜;风景名胜相关;旅游景点",
    "city": "合肥"
  },
  {
    "name": "蜀山森林公园-开福禅寺",
    "category": "history",
    "duration_minutes": 120,
    "rating": 4.0,
    "lat": 31.834119,
    "lon": 117.184241,
    "description": "地址: 高新技术产业开发区大蜀山南玉兰大道77号 | 类别: 风景名胜;风景名胜;寺庙道观",
    "city": "合肥"
  },
  {
    "name": "石台路公园",
    "category": "outdoor",
    "duration_minutes": 120,
    "rating": 4.0,
    "lat": 31.813439,
    "lon": 117.239977,
    "description": "地址: 石台路与天鹅湖东路交口东南角 | 类别: 风景名胜;公园广场;公园",
    "city": "合肥"
  },
  {
    "name": "合肥海洋世界",
    "category": "outdoor",
    "duration_minutes": 120,
    "rating": 4.0,
    "lat": 31.780813,
    "lon": 117.215222,
    "description": "电话: 0551-63843812;0551-63843818 | 地址: 蜀山经济技术开发区繁华大道321号 | 类别: 风景名胜;公园广场;水族馆",
    "city": "合肥"
  },
  {
    "name": "南艳湖公园",
    "category": "outdoor",
    "duration_minutes": 120,
    "rating": 4.0,
    "lat": 31.764359,
    "lon": 117.262377,
    "description": "地址: 习友路与观海路交叉口 | 类别: 风景名胜;公园广场;公园",
    "city": "合肥"
  },
  {
    "name": "欧洲风情街(金寨南路店)",
    "category": "sightseeing",
    "duration_minutes": 120,
    "rating": 4.0,
    "lat": 31.779991,
    "lon": 117.228365,
    "description": "地址: 金寨路与北海路交口 | 类别: 购物服务;特色商业街;特色商业街",
    "city": "合肥"
  },
  {
    "name": "杏花公园",
    "category": "outdoor",
    "duration_minutes": 120,
    "rating": 4.0,
    "lat": 31.869229,
    "lon": 117.27305,
    "description": "电话: 0551-62843790 | 地址: 三孝口街道淮河西路482号 | 类别: 风景名胜;公园广场;公园",
    "city": "合肥"
  },
  {
    "name": "包公园",
    "category": "outdoor",
    "duration_minutes": 120,
    "rating": 4.0,
    "lat": 31.856782,
    "lon": 117.294805,
    "description": "电话: 0551-62885950;0551-62884490;12301 | 地址: 芜湖路72号 | 类别: 风景名胜;风景名胜;国家级景点",
    "city": "合肥"
  },
  {
    "name": "合肥三件套",
    "category": "sightseeing",
    "duration_minutes": 120,
    "rating": 4.0,
    "lat": 31.807193,
    "lon": 117.222632,
    "description": "地址: 怀宁路与龙图路交叉口北100米 | 类别: 风景名胜;风景名胜;风景名胜",
    "city": "合肥"
  },
  {
    "name": "古逍遥津",
    "category": "outdoor",
    "duration_minutes": 120,
    "rating": 4.0,
    "lat": 31.86898,
    "lon": 117.295084,
    "description": "电话: 0551-62614651;0551-62652163 | 地址: 寿春路16号 | 类别: 风景名胜;公园广场;公园",
    "city": "合肥"
  },
  {
    "name": "合肥植物园",
    "category": "outdoor",
    "duration_minutes": 120,
    "rating": 4.0,
    "lat": 31.874263,
    "lon": 117.201719,
    "description": "电话: 0551-65315007;0551-65313803;0551-65312510 | 地址: 环湖东路123号 | 类别: 风景名胜;公园广场;植物园",
    "city": "合肥"
  },
  {
    "name": "骆岗公园",
    "category": "outdoor",
    "duration_minutes": 120,
    "rating": 4.0,
    "lat": 31.774359,
    "lon": 117.298738,
    "description": "电话: 0551-65252000 | 地址: 骆岗街道包河大道 | 类别: 风景名胜;公园广场;公园",
    "city": "合肥"
  },
  {
    "name": "环城公园",
    "category": "outdoor",
    "duration_minutes": 120,
    "rating": 4.0,
    "lat": 31.874512,
    "lon": 117.282971,
    "description": "地址: 芜湖路街道环城南路29号 | 类别: 风景名胜;公园广场;公园",
    "city": "合肥"
  },
  {
    "name": "合肥园博园",
    "category": "sightseeing",
    "duration_minutes": 120,
    "rating": 4.0,
    "lat": 31.780268,
    "lon": 117.306189,
    "description": "地址: 骆岗生态公园 | 类别: 风景名胜;风景名胜;风景名胜",
    "city": "合肥"
  },
  {
    "name": "庐州公园",
    "category": "outdoor",
    "duration_minutes": 120,
    "rating": 4.0,
    "lat": 31.885208,
    "lon": 117.229673,
    "description": "电话: 0551-63670819 | 地址: 冬青街与蓝莓路交叉路口 | 类别: 风景名胜;公园广场;公园",
    "city": "合肥"
  },
  {
    "name": "蜀峰湾体育公园",
    "category": "outdoor",
    "duration_minutes": 120,
    "rating": 4.0,
    "lat": 31.844318,
    "lon": 117.191651,
    "description": "地址: 黄山路与香樟大道交口西北角 | 类别: 风景名胜;公园广场;公园",
    "city": "合肥"
  },
  {
    "name": "李鸿章故居陈列馆",
    "category": "history",
    "duration_minutes": 120,
    "rating": 4.0,
    "lat": 31.864576,
    "lon": 117.291118,
    "description": "电话: 0551-62626949 | 地址: 逍遥津街道淮河路步行街208号 | 类别: 风景名胜;风景名胜;纪念馆",
    "city": "合肥"
  },
  {
    "name": "四季花海公园",
    "category": "outdoor",
    "duration_minutes": 120,
    "rating": 4.0,
    "lat": 31.862256,
    "lon": 117.161477,
    "description": "地址: 湖光路四季花海城市花园 | 类别: 风景名胜;公园广场;公园",
    "city": "合肥"
  },
  {
    "name": "蜀山烈士陵园",
    "category": "outdoor",
    "duration_minutes": 120,
    "rating": 4.0,
    "lat": 31.839918,
    "lon": 117.186361,
    "description": "电话: 0551-65322230 | 地址: 玉兰大道87号 | 类别: 生活服务;丧葬设施;陵园|风景名胜;风景名胜;红色景区",
    "city": "合肥"
  },
  {
    "name": "李鸿章故居",
    "category": "history",
    "duration_minutes": 120,
    "rating": 4.0,
    "lat": 31.864515,
    "lon": 117.291221,
    "description": "电话: 0551-62626949 | 地址: 淮河路208号(近宿州路) | 类别: 风景名胜;风景名胜;纪念馆",
    "city": "合肥"
  },
  {
    "name": "城隍庙(淮河路)",
    "category": "history",
    "duration_minutes": 120,
    "rating": 4.0,
    "lat": 31.864654,
    "lon": 117.278388,
    "description": "地址: 霍邱路128号(三孝口地铁站A口步行230米) | 类别: 风景名胜;风景名胜;寺庙道观",
    "city": "合肥"
  },
  {
    "name": "天乐公园",
    "category": "outdoor",
    "duration_minutes": 120,
    "rating": 4.0,
    "lat": 31.850079,
    "lon": 117.206122,
    "description": "地址: 科学大道97号 | 类别: 风景名胜;公园广场;公园",
    "city": "合肥"
  },
  {
    "name": "大钟楼",
    "category": "sightseeing",
    "duration_minutes": 120,
    "rating": 4.0,
    "lat": 31.853095,
    "lon": 117.285063,
    "description": "地址: 芜湖路街道芜湖路街道芜湖路325号建工大厦一楼 | 类别: 风景名胜;风景名胜相关;旅游景点",
    "city": "合肥"
  },
  {
    "name": "宝贝地球村",
    "category": "sightseeing",
    "duration_minutes": 120,
    "rating": 4.0,
    "lat": 31.821972,
    "lon": 117.232588,
    "description": "电话: 0551-63712646;4008232013 | 地址: 绿地蓝海大厦C座B1层 | 类别: 体育休闲服务;休闲场所;游乐场",
    "city": "合肥"
  },
  {
    "name": "市府广场",
    "category": "outdoor",
    "duration_minutes": 120,
    "rating": 4.0,
    "lat": 31.864443,
    "lon": 117.286432,
    "description": "地址: 淮河路266号 | 类别: 风景名胜;公园广场;城市广场",
    "city": "合肥"
  },
  {
    "name": "翡翠公园",
    "category": "outdoor",
    "duration_minutes": 120,
    "rating": 4.0,
    "lat": 31.777538,
    "lon": 117.197855,
    "description": "地址: 石门路391号 | 类别: 风景名胜;公园广场;公园",
    "city": "合肥"
  },
  {
    "name": "安徽博物院(老馆)",
    "category": "museum",
    "duration_minutes": 120,
    "rating": 4.0,
    "lat": 31.86349,
    "lon": 117.275179,
    "description": "地址: 安庆路268号 | 类别: 科教文化服务;博物馆;博物馆",
    "city": "合肥"
  },
  {
    "name": "四季花海公园C区",
    "category": "outdoor",
    "duration_minutes": 120,
    "rating": 4.0,
    "lat": 31.867499,
    "lon": 117.160898,
    "description": "地址: 四季花海公园 | 类别: 风景名胜;公园广场;公园",
    "city": "合肥"
  },
  {
    "name": "匡河公园",
    "category": "outdoor",
    "duration_minutes": 120,
    "rating": 4.0,
    "lat": 31.795439,
    "lon": 117.218373,
    "description": "地址: 匡河路与笔架山路交叉口东南100米 | 类别: 风景名胜;公园广场;公园",
    "city": "合肥"
  },
  {
    "name": "大蜀山国家森林公园-休息平台",
    "category": "outdoor",
    "duration_minutes": 120,
    "rating": 4.0,
    "lat": 31.838817,
    "lon": 117.177036,
    "description": "地址: 玉兰大道8号蜀山森林公园 | 类别: 风景名胜;风景名胜相关;旅游景点",
    "city": "合肥"
  },
  {
    "name": "明教寺",
    "category": "history",
    "duration_minutes": 120,
    "rating": 4.0,
    "lat": 31.864854,
    "lon": 117.296049,
    "description": "地址: 淮河路44号(大东门地铁站A口步行450米) | 类别: 风景名胜;风景名胜;寺庙道观",
    "city": "合肥"
  },
  {
    "name": "李宁体育园",
    "category": "outdoor",
    "duration_minutes": 120,
    "rating": 4.0,
    "lat": 31.756058,
    "lon": 117.262988,
    "description": "电话: 0551-62587818 | 地址: 海恒社区合肥锦绣大道与清潭路交口北门 | 类别: 风景名胜;公园广场;公园|体育休闲服务;运动场馆;健身中心",
    "city": "合肥"
  },
  {
    "name": "合肥北雁湖生态公园",
    "category": "outdoor",
    "duration_minutes": 120,
    "rating": 4.0,
    "lat": 31.813161,
    "lon": 117.148061,
    "description": "地址: 桃花镇玉兰大道64号 | 类别: 风景名胜;风景名胜;风景名胜",
    "city": "合肥"
  },
  {
    "name": "莲花广场",
    "category": "outdoor",
    "duration_minutes": 120,
    "rating": 4.0,
    "lat": 31.759526,
    "lon": 117.230629,
    "description": "地址: 莲花社区管理委员会莲花路怡莲新城 | 类别: 风景名胜;公园广场;城市广场",
    "city": "合肥"
  },
  {
    "name": "合肥融创乐园",
    "category": "sightseeing",
    "duration_minutes": 120,
    "rating": 4.0,
    "lat": 31.696968,
    "lon": 117.305025,
    "description": "电话: 4008959888 | 地址: 庐州大道788号(万年埠地铁站A口步行470米) | 类别: 体育休闲服务;休闲场所;游乐场",
    "city": "合肥"
  },
  {
    "name": "庐州公园",
    "category": "outdoor",
    "duration_minutes": 120,
    "rating": 4.0,
    "lat": 31.877848,
    "lon": 117.217639,
    "description": "地址: 清溪路与西二环交口东 | 类别: 风景名胜;公园广场;公园",
    "city": "合肥"
  },
  {
    "name": "合肥岸上草原",
    "category": "sightseeing",
    "duration_minutes": 120,
    "rating": 4.0,
    "lat": 31.68876,
    "lon": 117.304312,
    "description": "地址: 环湖北路 | 类别: 风景名胜;风景名胜;风景名胜",
    "city": "合肥"
  },
  {
    "name": "罍街公园",
    "category": "outdoor",
    "duration_minutes": 120,
    "rating": 4.0,
    "lat": 31.816446,
    "lon": 117.297353,
    "description": "地址: 马鞍山路与南二环路交叉路口往西北约100米 | 类别: 风景名胜;公园广场;公园",
    "city": "合肥"
  },
  {
    "name": "磨滩旅游度假区",
    "category": "sightseeing",
    "duration_minutes": 120,
    "rating": 4.0,
    "lat": 31.773965,
    "lon": 117.38434,
    "description": "电话: 0551-64918888 | 地址: 大圩镇花园大道与巢湖南路交口东北角 | 类别: 风景名胜;风景名胜相关;旅游景点",
    "city": "合肥"
  },
  {
    "name": "合肥滨湖国家森林公园",
    "category": "outdoor",
    "duration_minutes": 120,
    "rating": 4.0,
    "lat": 31.721607,
    "lon": 117.388168,
    "description": "电话: 0551-62776600;0551-62776688 | 地址: 环湖北路观景平台北侧 | 类别: 风景名胜;风景名胜;国家级景点",
    "city": "合肥"
  },
  {
    "name": "刘园古徽州文化园",
    "category": "sightseeing",
    "duration_minutes": 120,
    "rating": 4.0,
    "lat": 31.866903,
    "lon": 117.141497,
    "description": "电话: 0551-65743548;0551-65746548 | 地址: 湖光路与千丈路(原沁源路)交口向北200米 | 类别: 风景名胜;风景名胜;风景名胜",
    "city": "合肥"
  },
  {
    "name": "滨湖塘西河公园",
    "category": "outdoor",
    "duration_minutes": 120,
    "rating": 4.0,
    "lat": 31.72811,
    "lon": 117.302804,
    "description": "地址: 中山路与庐州大道交汇处 | 类别: 风景名胜;公园广场;公园",
    "city": "合肥"
  },
  {
    "name": "合肥园博园安徽园",
    "category": "outdoor",
    "duration_minutes": 120,
    "rating": 4.0,
    "lat": 31.787997,
    "lon": 117.298851,
    "description": "地址: 庐州大道4号 | 类别: 风景名胜;公园广场;公园",
    "city": "合肥"
  },
  {
    "name": "渡江战役纪念馆",
    "category": "history",
    "duration_minutes": 120,
    "rating": 4.0,
    "lat": 31.709623,
    "lon": 117.330016,
    "description": "电话: 0551-62635757;0551-63412746 | 地址: 云谷路299号(渡江纪念馆地铁站C口步行290米) | 类别: 风景名胜;风景名胜;红色景区|风景名胜;风景名胜;纪念馆",
    "city": "合肥"
  },
  {
    "name": "合肥正大广场摩天轮乐园",
    "category": "sightseeing",
    "duration_minutes": 120,
    "rating": 4.0,
    "lat": 31.78144,
    "lon": 117.2284,
    "description": "电话: 0551-66676688 | 地址: 芙蓉路291号正大广场F7层 | 类别: 体育休闲服务;休闲场所;游乐场",
    "city": "合肥"
  },
  {
    "name": "青年创意田园",
    "category": "outdoor",
    "duration_minutes": 120,
    "rating": 4.0,
    "lat": 31.846976,
    "lon": 117.387765,
    "description": "地址: 龙岗路南150米 | 类别: 风景名胜;公园广场;公园",
    "city": "合肥"
  },
  {
    "name": "大蜀山国家森林公园-观景台",
    "category": "outdoor",
    "duration_minutes": 120,
    "rating": 4.0,
    "lat": 31.839072,
    "lon": 117.177001,
    "description": "地址: 玉兰大道8号蜀山森林公园 | 类别: 风景名胜;风景名胜;观景点",
    "city": "合肥"
  },
  {
    "name": "三孝口",
    "category": "sightseeing",
    "duration_minutes": 120,
    "rating": 4.0,
    "lat": 31.860837,
    "lon": 117.275229,
    "description": "地址: 长江中路343号(三孝口地铁站E口旁) | 类别: 风景名胜;风景名胜;风景名胜",
    "city": "合肥"
  },
  {
    "name": "合肥体育中心北广场",
    "category": "outdoor",
    "duration_minutes": 120,
    "rating": 4.0,
    "lat": 31.797498,
    "lon": 117.228024,
    "description": "地址: 习友路附近 | 类别: 风景名胜;公园广场;城市广场",
    "city": "合肥"
  },
  {
    "name": "洪石公园",
    "category": "outdoor",
    "duration_minutes": 120,
    "rating": 4.0,
    "lat": 31.82885,
    "lon": 117.238315,
    "description": "地址: 石台路与孔塘支路交叉口东南140米 | 类别: 风景名胜;公园广场;公园",
    "city": "合肥"
  },
  {
    "name": "天龙广场",
    "category": "outdoor",
    "duration_minutes": 120,
    "rating": 4.0,
    "lat": 31.81127,
    "lon": 117.233842,
    "description": "地址: 潜山路辅路与花亭湖路交叉口东南160米 | 类别: 风景名胜;公园广场;城市广场",
    "city": "合肥"
  },
  {
    "name": "合肥园博园北京园",
    "category": "sightseeing",
    "duration_minutes": 120,
    "rating": 4.0,
    "lat": 31.783492,
    "lon": 117.307,
    "description": "地址: 合肥园博园 | 类别: 风景名胜;风景名胜;风景名胜",
    "city": "合肥"
  },
  {
    "name": "庐阳区三十岗生态农业旅游区",
    "category": "sightseeing",
    "duration_minutes": 120,
    "rating": 4.0,
    "lat": 31.937354,
    "lon": 117.127297,
    "description": "电话: 18919682232 | 地址: 三十岗乡合三国城路198号 | 类别: 风景名胜;风景名胜;国家级景点",
    "city": "合肥"
  },
  {
    "name": "瑶海公园",
    "category": "outdoor",
    "duration_minutes": 120,
    "rating": 4.0,
    "lat": 31.892027,
    "lon": 117.315635,
    "description": "地址: 新蚌埠路与北二环路交叉口 | 类别: 风景名胜;公园广场;公园",
    "city": "合肥"
  },
  {
    "name": "望湖公园",
    "category": "outdoor",
    "duration_minutes": 120,
    "rating": 4.0,
    "lat": 31.805915,
    "lon": 117.298053,
    "description": "地址: 望湖中路与望湖东路交口 | 类别: 风景名胜;公园广场;公园",
    "city": "合肥"
  },
  {
    "name": "花冲公园",
    "category": "outdoor",
    "duration_minutes": 120,
    "rating": 4.0,
    "lat": 31.864518,
    "lon": 117.330729,
    "description": "电话: 0551-64485748 | 地址: 长江东路593号 | 类别: 风景名胜;公园广场;公园",
    "city": "合肥"
  },
  {
    "name": "半岛公园",
    "category": "outdoor",
    "duration_minutes": 120,
    "rating": 4.0,
    "lat": 31.875171,
    "lon": 117.244955,
    "description": "地址: 淝河东街与淝河西街交叉口南200米 | 类别: 风景名胜;公园广场;公园",
    "city": "合肥"
  },
  {
    "name": "银河景区",
    "category": "sightseeing",
    "duration_minutes": 120,
    "rating": 4.0,
    "lat": 31.853207,
    "lon": 117.281084,
    "description": "地址: 芜湖路街道环城南路29号环城公园内(南侧) | 类别: 风景名胜;风景名胜;风景名胜",
    "city": "合肥"
  },
  {
    "name": "大圩生态农业旅游景区",
    "category": "sightseeing",
    "duration_minutes": 120,
    "rating": 4.0,
    "lat": 31.762511,
    "lon": 117.402999,
    "description": "电话: 0551-64857555 | 地址: 大圩镇花园大道1号 | 类别: 风景名胜;风景名胜相关;旅游景点",
    "city": "合肥"
  },
  {
    "name": "少荃湖公园",
    "category": "outdoor",
    "duration_minutes": 120,
    "rating": 4.0,
    "lat": 31.953435,
    "lon": 117.382911,
    "description": "地址: 魏武路南侧少荃湖 | 类别: 风景名胜;公园广场;公园",
    "city": "合肥"
  },
  {
    "name": "合肥巢湖湖滨国家湿地公园",
    "category": "outdoor",
    "duration_minutes": 120,
    "rating": 4.0,
    "lat": 31.715018,
    "lon": 117.379102,
    "description": "地址: 义城街道环湖北路 | 类别: 风景名胜;公园广场;公园|风景名胜;风景名胜;风景名胜",
    "city": "合肥"
  },
  {
    "name": "蜀山区小岭南花海",
    "category": "outdoor",
    "duration_minutes": 120,
    "rating": 4.0,
    "lat": 31.901355,
    "lon": 117.072053,
    "description": "地址: 小岭南 | 类别: 风景名胜;风景名胜;风景名胜",
    "city": "合肥"
  },
  {
    "name": "远程教育文化广场",
    "category": "sightseeing",
    "duration_minutes": 120,
    "rating": 4.0,
    "lat": 31.82889,
    "lon": 117.166966,
    "description": "地址: 望江西路与环山路交叉口东南340米 | 类别: 商务住宅;商务住宅相关;商务住宅相关",
    "city": "合肥"
  },
  {
    "name": "胜利广场",
    "category": "outdoor",
    "duration_minutes": 120,
    "rating": 4.0,
    "lat": 31.880215,
    "lon": 117.314122,
    "description": "地址: 胜利路与临泉路交叉口东北角 | 类别: 风景名胜;公园广场;城市广场",
    "city": "合肥"
  },
  {
    "name": "陶冲湖公园",
    "category": "outdoor",
    "duration_minutes": 120,
    "rating": 4.0,
    "lat": 31.931233,
    "lon": 117.329885,
    "description": "地址: 新蚌埠路附近 | 类别: 风景名胜;公园广场;公园",
    "city": "合肥"
  },
  {
    "name": "淝河广场",
    "category": "sightseeing",
    "duration_minutes": 120,
    "rating": 4.0,
    "lat": 31.836371,
    "lon": 117.317787,
    "description": "地址: 淝河路118号 | 类别: 商务住宅;商务住宅相关;商务住宅相关",
    "city": "合肥"
  },
  {
    "name": "合肥市包公园-包公墓园",
    "category": "outdoor",
    "duration_minutes": 120,
    "rating": 4.0,
    "lat": 31.857381,
    "lon": 117.297624,
    "description": "电话: 0551-62885950;0551-62887011 | 地址: 芜湖路72号包公园内(东侧) | 类别: 风景名胜;风景名胜;风景名胜",
    "city": "合肥"
  },
  {
    "name": "紫蓬山国家森林公园",
    "category": "outdoor",
    "duration_minutes": 120,
    "rating": 4.0,
    "lat": 31.712995,
    "lon": 117.007754,
    "description": "电话: 0551-68582166 | 地址: 森林大道1号 | 类别: 风景名胜;风景名胜;国家级景点",
    "city": "合肥"
  },
  {
    "name": "方兴湖公园",
    "category": "outdoor",
    "duration_minutes": 120,
    "rating": 4.0,
    "lat": 31.724051,
    "lon": 117.324038,
    "description": "地址: 义城街道包河大道 | 类别: 风景名胜;公园广场;公园",
    "city": "合肥"
  },
  {
    "name": "南淝河码头公园",
    "category": "outdoor",
    "duration_minutes": 120,
    "rating": 4.0,
    "lat": 31.832855,
    "lon": 117.340735,
    "description": "地址: 上海路与郎溪路之间 | 类别: 风景名胜;公园广场;公园",
    "city": "合肥"
  },
  {
    "name": "合肥野生动物园-亚洲象",
    "category": "outdoor",
    "duration_minutes": 120,
    "rating": 4.0,
    "lat": 31.8329,
    "lon": 117.169232,
    "description": "电话: 0551-65395595 | 地址: 望江西路600号合肥野生动物园内(东南角) | 类别: 风景名胜;公园广场;动物园",
    "city": "合肥"
  },
  {
    "name": "安徽名人馆",
    "category": "history",
    "duration_minutes": 120,
    "rating": 4.0,
    "lat": 31.711018,
    "lon": 117.327248,
    "description": "电话: 0551-62552828 | 地址: 金斗东路303号 | 类别: 风景名胜;风景名胜;纪念馆",
    "city": "合肥"
  },
  {
    "name": "清风阁",
    "category": "sightseeing",
    "duration_minutes": 120,
    "rating": 4.0,
    "lat": 31.856614,
    "lon": 117.295991,
    "description": "电话: 0551-62886107 | 地址: 包公街道芜湖路72号包公园内(东侧) | 类别: 风景名胜;风景名胜;风景名胜",
    "city": "合肥"
  },
  {
    "name": "华仑文化广场",
    "category": "sightseeing",
    "duration_minutes": 120,
    "rating": 4.0,
    "lat": 31.756882,
    "lon": 117.251175,
    "description": "地址: 海恒社区始信路183号 | 类别: 商务住宅;住宅区;住宅小区",
    "city": "合肥"
  },
  {
    "name": "桃花潭公园",
    "category": "outdoor",
    "duration_minutes": 120,
    "rating": 4.0,
    "lat": 31.778498,
    "lon": 117.14584,
    "description": "地址: 繁华大道与文山路交汇处 | 类别: 风景名胜;公园广场;公园",
    "city": "合肥"
  },
  {
    "name": "罍街公园D区",
    "category": "outdoor",
    "duration_minutes": 120,
    "rating": 4.0,
    "lat": 31.815299,
    "lon": 117.292293,
    "description": "地址: 老宁国路与南二环路辅路交叉口西北120米 | 类别: 风景名胜;风景名胜相关;旅游景点",
    "city": "合肥"
  },
  {
    "name": "包公祠",
    "category": "sightseeing",
    "duration_minutes": 120,
    "rating": 4.0,
    "lat": 31.855689,
    "lon": 117.290823,
    "description": "地址: 芜湖路72号 | 类别: 风景名胜;风景名胜;国家级景点",
    "city": "合肥"
  },
  {
    "name": "市民广场",
    "category": "outdoor",
    "duration_minutes": 120,
    "rating": 4.0,
    "lat": 31.817103,
    "lon": 117.227406,
    "description": "地址: 正阳西路与南二环路辅路交叉口东100米 | 类别: 风景名胜;公园广场;城市广场",
    "city": "合肥"
  },
  {
    "name": "蜀西湖公园",
    "category": "outdoor",
    "duration_minutes": 120,
    "rating": 4.0,
    "lat": 31.838379,
    "lon": 117.12351,
    "description": "地址: 高新技术产业开发区长宁大道1880号 | 类别: 风景名胜;公园广场;公园",
    "city": "合肥"
  },
  {
    "name": "汇林体育公园",
    "category": "outdoor",
    "duration_minutes": 120,
    "rating": 4.0,
    "lat": 31.822499,
    "lon": 117.218655,
    "description": "地址: 聚云路与高河西路交口 | 类别: 体育休闲服务;体育休闲服务场所;体育休闲服务场所",
    "city": "合肥"
  },
  {
    "name": "男生女生向前冲",
    "category": "sightseeing",
    "duration_minutes": 120,
    "rating": 4.0,
    "lat": 31.807917,
    "lon": 117.221765,
    "description": "电话: 18937097875 | 地址: 怀宁路99号(天鹅湖地铁站3号口步行460米) | 类别: 体育休闲服务;休闲场所;水上活动中心",
    "city": "合肥"
  },
  {
    "name": "合肥西扩公园",
    "category": "outdoor",
    "duration_minutes": 120,
    "rating": 4.0,
    "lat": 31.84213,
    "lon": 117.155609,
    "description": "地址: 枫林路 | 类别: 风景名胜;公园广场;公园",
    "city": "合肥"
  },
  {
    "name": "和平广场",
    "category": "outdoor",
    "duration_minutes": 120,
    "rating": 4.0,
    "lat": 31.858606,
    "lon": 117.31109,
    "description": "地址: 和平路与东一环路交汇处 | 类别: 风景名胜;公园广场;公园广场",
    "city": "合肥"
  },
  {
    "name": "西山景区",
    "category": "outdoor",
    "duration_minutes": 120,
    "rating": 4.0,
    "lat": 31.85152,
    "lon": 117.274736,
    "description": "地址: 金寨路311号 | 类别: 风景名胜;风景名胜;风景名胜",
    "city": "合肥"
  },
  {
    "name": "合肥三国新城遗址公园(暂停开放)",
    "category": "outdoor",
    "duration_minutes": 120,
    "rating": 4.0,
    "lat": 31.911309,
    "lon": 117.131487,
    "description": "电话: 0551-65900996 | 地址: 三十岗乡公园路1号 | 类别: 风景名胜;公园广场;公园广场|风景名胜;风景名胜;国家级景点",
    "city": "合肥"
  },
  {
    "name": "铜冠广场(装修中)",
    "category": "sightseeing",
    "duration_minutes": 120,
    "rating": 4.0,
    "lat": 31.777424,
    "lon": 117.211186,
    "description": "地址: 翡翠路与龙湾路交叉口东南180米 | 类别: 商务住宅;楼宇;商务写字楼",
    "city": "合肥"
  },
  {
    "name": "菱湖公园",
    "category": "outdoor",
    "duration_minutes": 120,
    "rating": 4.0,
    "lat": 31.920844,
    "lon": 117.274102,
    "description": "地址: 灵溪路与制气厂路交叉口西北角 | 类别: 风景名胜;公园广场;公园",
    "city": "合肥"
  },
  {
    "name": "古逍遥津-游园",
    "category": "outdoor",
    "duration_minutes": 120,
    "rating": 4.0,
    "lat": 31.866315,
    "lon": 117.297826,
    "description": "电话: 0551-62614651;0551-62654575 | 地址: 寿春路16号 | 类别: 风景名胜;公园广场;公园",
    "city": "合肥"
  },
  {
    "name": "新月公园",
    "category": "outdoor",
    "duration_minutes": 120,
    "rating": 4.0,
    "lat": 31.794713,
    "lon": 117.202018,
    "description": "地址: 金炉路与壶天路交叉口北40米 | 类别: 风景名胜;公园广场;公园",
    "city": "合肥"
  },
  {
    "name": "蜀山新产业园区霍比特人之家",
    "category": "outdoor",
    "duration_minutes": 120,
    "rating": 4.0,
    "lat": 31.861425,
    "lon": 117.163375,
    "description": "地址: 四季花海公园(东南角) | 类别: 体育休闲服务;体育休闲服务场所;体育休闲服务场所",
    "city": "合肥"
  },
  {
    "name": "学林体育公园",
    "category": "outdoor",
    "duration_minutes": 120,
    "rating": 4.0,
    "lat": 31.905193,
    "lon": 117.384559,
    "description": "地址: 岱河路与梦溪路交叉口西260米 | 类别: 风景名胜;公园广场;公园|风景名胜;风景名胜;风景名胜",
    "city": "合肥"
  },
  {
    "name": "合肥生态公园",
    "category": "outdoor",
    "duration_minutes": 120,
    "rating": 4.0,
    "lat": 31.891498,
    "lon": 117.330006,
    "description": "地址: 瑶海工业区二环路(铜陵北路口) | 类别: 风景名胜;公园广场;公园",
    "city": "合肥"
  },
  {
    "name": "渡江战役总前委旧址纪念馆",
    "category": "history",
    "duration_minutes": 120,
    "rating": 4.0,
    "lat": 31.84257,
    "lon": 117.456614,
    "description": "电话: 0551-67363135 | 地址: 撮镇镇瑶岗村团结路 | 类别: 风景名胜;风景名胜;纪念馆",
    "city": "合肥"
  },
  {
    "name": "大象哆公园",
    "category": "outdoor",
    "duration_minutes": 120,
    "rating": 4.0,
    "lat": 31.879328,
    "lon": 117.245807,
    "description": "地址: 美好荟(杏花村地铁站出入口步行100米) | 类别: 购物服务;购物相关场所;购物相关场所",
    "city": "合肥"
  },
  {
    "name": "梦想大草坪",
    "category": "sightseeing",
    "duration_minutes": 120,
    "rating": 4.0,
    "lat": 31.779765,
    "lon": 117.303327,
    "description": "地址: 合肥园博园 | 类别: 风景名胜;风景名胜;风景名胜",
    "city": "合肥"
  },
  {
    "name": "湖滨国家湿地公园",
    "category": "outdoor",
    "duration_minutes": 120,
    "rating": 4.0,
    "lat": 31.700646,
    "lon": 117.315752,
    "description": "地址: 环湖北路 | 类别: 风景名胜;风景名胜;风景名胜",
    "city": "合肥"
  },
  {
    "name": "四季花海公园城市花园",
    "category": "outdoor",
    "duration_minutes": 120,
    "rating": 4.0,
    "lat": 31.854303,
    "lon": 117.162534,
    "description": "地址: 四季花海公园内(南侧) | 类别: 风景名胜;公园广场;公园",
    "city": "合肥"
  },
  {
    "name": "浮庄",
    "category": "outdoor",
    "duration_minutes": 120,
    "rating": 4.0,
    "lat": 31.858324,
    "lon": 117.297423,
    "description": "电话: 0551-62885950;0551-62887011 | 地址: 包公街道芜湖路72号包公园内(东北角) | 类别: 风景名胜;公园广场;公园",
    "city": "合肥"
  },
  {
    "name": "银屏山",
    "category": "outdoor",
    "duration_minutes": 120,
    "rating": 4.0,
    "lat": 31.784113,
    "lon": 117.2173,
    "description": "电话: 0551-63822004 | 地址: 莲花社区合肥市经济技术开发区繁华大道276号徽园内(西北角) | 类别: 风景名胜;风景名胜相关;旅游景点",
    "city": "合肥"
  },
  {
    "name": "摩尔广场",
    "category": "outdoor",
    "duration_minutes": 120,
    "rating": 4.0,
    "lat": 31.845369,
    "lon": 117.245935,
    "description": "地址: 东至路与贵池路交叉口东南40米 | 类别: 风景名胜;公园广场;城市广场",
    "city": "合肥"
  },
  {
    "name": "咏芳堤",
    "category": "sightseeing",
    "duration_minutes": 120,
    "rating": 4.0,
    "lat": 31.67963,
    "lon": 117.300803,
    "description": "地址: 环湖北路与深圳路交叉口东北460米 | 类别: 风景名胜;风景名胜;风景名胜",
    "city": "合肥"
  },
  {
    "name": "匡河公园南门库景区",
    "category": "outdoor",
    "duration_minutes": 120,
    "rating": 4.0,
    "lat": 31.823341,
    "lon": 117.248525,
    "description": "地址: 合作化与休宁路交口西北角 | 类别: 风景名胜;风景名胜;风景名胜",
    "city": "合肥"
  },
  {
    "name": "骆岗公园南广场",
    "category": "outdoor",
    "duration_minutes": 120,
    "rating": 4.0,
    "lat": 31.768083,
    "lon": 117.317386,
    "description": "地址: 骆岗街道包河大道骆岗公园内(东侧) | 类别: 风景名胜;公园广场;城市广场",
    "city": "合肥"
  },
  {
    "name": "梅冲湖公园",
    "category": "outdoor",
    "duration_minutes": 120,
    "rating": 4.0,
    "lat": 31.988065,
    "lon": 117.25016,
    "description": "地址: 蒙城北路26-118号 | 类别: 风景名胜;公园广场;公园",
    "city": "合肥"
  },
  {
    "name": "蜀峰湾南湖生态公园(蜀峰湾公园)",
    "category": "outdoor",
    "duration_minutes": 120,
    "rating": 4.0,
    "lat": 31.839763,
    "lon": 117.191642,
    "description": "地址: 蜀峰湾 | 类别: 风景名胜;公园广场;公园",
    "city": "合肥"
  },
  {
    "name": "劳动公园",
    "category": "outdoor",
    "duration_minutes": 120,
    "rating": 4.0,
    "lat": 31.824155,
    "lon": 117.261809,
    "description": "地址: 金寨路与水阳江路交口东北角 | 类别: 风景名胜;公园广场;公园",
    "city": "合肥"
  },
  {
    "name": "四里河滨水生态公园",
    "category": "outdoor",
    "duration_minutes": 120,
    "rating": 4.0,
    "lat": 31.888768,
    "lon": 117.251934,
    "description": "地址: 迎松路与肥西路交叉口西南60米 | 类别: 风景名胜;风景名胜相关;旅游景点",
    "city": "合肥"
  },
  {
    "name": "牛角大圩",
    "category": "sightseeing",
    "duration_minutes": 120,
    "rating": 4.0,
    "lat": 31.666958,
    "lon": 117.271124,
    "description": "电话: 0551-65775292 | 地址: 烟墩街道徽州大道南端 | 类别: 风景名胜;风景名胜;风景名胜",
    "city": "合肥"
  },
  {
    "name": "迈乐小镇儿童体能公园",
    "category": "outdoor",
    "duration_minutes": 120,
    "rating": 4.0,
    "lat": 31.783401,
    "lon": 117.227422,
    "description": "地址: 上海城市附近 | 类别: 风景名胜;公园广场;公园",
    "city": "合肥"
  },
  {
    "name": "金斗公园",
    "category": "outdoor",
    "duration_minutes": 120,
    "rating": 4.0,
    "lat": 31.713156,
    "lon": 117.293239,
    "description": "地址: 广西路与方兴大道交口 | 类别: 风景名胜;公园广场;公园",
    "city": "合肥"
  },
  {
    "name": "基督教堂",
    "category": "sightseeing",
    "duration_minutes": 120,
    "rating": 4.0,
    "lat": 31.862778,
    "lon": 117.289639,
    "description": "地址: 宿州路74号(四牌楼地铁站D口步行200米) | 类别: 风景名胜;风景名胜;教堂",
    "city": "合肥"
  },
  {
    "name": "市民公园",
    "category": "outdoor",
    "duration_minutes": 120,
    "rating": 4.0,
    "lat": 31.839948,
    "lon": 117.22277,
    "description": "地址: 黄山路与怀宁路交叉口东南120米 | 类别: 风景名胜;公园广场;公园",
    "city": "合肥"
  },
  {
    "name": "1979游乐天地",
    "category": "sightseeing",
    "duration_minutes": 120,
    "rating": 4.0,
    "lat": 31.862883,
    "lon": 117.118262,
    "description": "地址: 湖光西路与爱民路交叉口西140米 | 类别: 体育休闲服务;休闲场所;游乐场",
    "city": "合肥"
  },
  {
    "name": "古逍遥津-张辽墓",
    "category": "sightseeing",
    "duration_minutes": 120,
    "rating": 4.0,
    "lat": 31.871259,
    "lon": 117.292231,
    "description": "电话: 0551-62614651 | 地址: 寿春路16号逍遥津内 | 类别: 风景名胜;风景名胜;风景名胜",
    "city": "合肥"
  },
  {
    "name": "合柴1972二期",
    "category": "sightseeing",
    "duration_minutes": 120,
    "rating": 4.0,
    "lat": 31.796802,
    "lon": 117.246575,
    "description": "地址: 润田路与屯绿路交叉口北120米 | 类别: 风景名胜;风景名胜;风景名胜",
    "city": "合肥"
  },
  {
    "name": "胡大郢体育公园",
    "category": "outdoor",
    "duration_minutes": 120,
    "rating": 4.0,
    "lat": 31.798734,
    "lon": 117.273733,
    "description": "地址: 高铁路与龙川路辅路交叉口南100米 | 类别: 风景名胜;公园广场;公园",
    "city": "合肥"
  },
  {
    "name": "合肥友好儿童公园",
    "category": "outdoor",
    "duration_minutes": 120,
    "rating": 4.0,
    "lat": 31.877323,
    "lon": 117.216844,
    "description": "地址: 清溪路与西二环路交叉口东北280米 | 类别: 风景名胜;公园广场;公园",
    "city": "合肥"
  },
  {
    "name": "明珠公园",
    "category": "outdoor",
    "duration_minutes": 120,
    "rating": 4.0,
    "lat": 31.80165,
    "lon": 117.18354,
    "description": "地址: 明珠大道与香樟大道交叉口 | 类别: 风景名胜;公园广场;公园",
    "city": "合肥"
  },
  {
    "name": "阳光大草坪",
    "category": "sightseeing",
    "duration_minutes": 120,
    "rating": 4.0,
    "lat": 31.76549,
    "lon": 117.25786,
    "description": "地址: 丹霞路与清潭路交叉口东220米 | 类别: 风景名胜;风景名胜相关;旅游景点",
    "city": "合肥"
  },
  {
    "name": "长临河古镇景区",
    "category": "sightseeing",
    "duration_minutes": 120,
    "rating": 4.0,
    "lat": 31.689047,
    "lon": 117.461814,
    "description": "地址: 长临河镇老街与罗洪路交叉口东北角 | 类别: 风景名胜;风景名胜;国家级景点",
    "city": "合肥"
  },
  {
    "name": "大圩星月湿地",
    "category": "sightseeing",
    "duration_minutes": 120,
    "rating": 4.0,
    "lat": 31.742682,
    "lon": 117.408601,
    "description": "地址: 南起堤顶路与环圩东路交口、北至合肥港边界 | 类别: 风景名胜;风景名胜;风景名胜",
    "city": "合肥"
  },
  {
    "name": "园博小镇",
    "category": "sightseeing",
    "duration_minutes": 120,
    "rating": 4.0,
    "lat": 31.779154,
    "lon": 117.310582,
    "description": "地址: 合肥园博园 | 类别: 风景名胜;风景名胜相关;旅游景点|商务住宅;商务住宅相关;商务住宅相关",
    "city": "合肥"
  },
  {
    "name": "四里渠滨水公园",
    "category": "outdoor",
    "duration_minutes": 120,
    "rating": 4.0,
    "lat": 31.896911,
    "lon": 117.250929,
    "description": "地址: 北二环路高架出口与北二环路交叉口南160米 | 类别: 风景名胜;公园广场;公园",
    "city": "合肥"
  },
  {
    "name": "古埂公园",
    "category": "outdoor",
    "duration_minutes": 120,
    "rating": 4.0,
    "lat": 31.714667,
    "lon": 117.174966,
    "description": "地址: 龙飞明珠花园110号 | 类别: 风景名胜;公园广场;公园广场",
    "city": "合肥"
  },
  {
    "name": "凤曦府公园",
    "category": "outdoor",
    "duration_minutes": 120,
    "rating": 4.0,
    "lat": 31.810156,
    "lon": 117.238781,
    "description": "地址: 祁门路298号(天鹅湖东地铁站D口步行180米) | 类别: 风景名胜;公园广场;公园",
    "city": "合肥"
  },
  {
    "name": "新海公园",
    "category": "outdoor",
    "duration_minutes": 120,
    "rating": 4.0,
    "lat": 31.897272,
    "lon": 117.344874,
    "description": "地址: 当涂北路与新海大道交叉口东北角 | 类别: 风景名胜;公园广场;公园",
    "city": "合肥"
  },
  {
    "name": "追笑喜剧空间",
    "category": "sightseeing",
    "duration_minutes": 120,
    "rating": 4.0,
    "lat": 31.832839,
    "lon": 117.232305,
    "description": "电话: 15256076210 | 地址: 港汇广场7楼(望江西路与潜山路交叉口东北角) | 类别: 体育休闲服务;娱乐场所;娱乐场所",
    "city": "合肥"
  },
  {
    "name": "合肥园博园香港园",
    "category": "sightseeing",
    "duration_minutes": 120,
    "rating": 4.0,
    "lat": 31.77934,
    "lon": 117.313112,
    "description": "地址: 合肥园博园内(东侧) | 类别: 风景名胜;风景名胜;风景名胜",
    "city": "合肥"
  },
  {
    "name": "常青体育公园",
    "category": "outdoor",
    "duration_minutes": 120,
    "rating": 4.0,
    "lat": 31.820919,
    "lon": 117.258807,
    "description": "地址: 金寨路与休宁路交叉口东北100米 | 类别: 风景名胜;公园广场;公园",
    "city": "合肥"
  },
  {
    "name": "杏花公园相亲角",
    "category": "outdoor",
    "duration_minutes": 120,
    "rating": 4.0,
    "lat": 31.869403,
    "lon": 117.274803,
    "description": "地址: 三孝口街道淮河西路482号杏花公园内(东侧) | 类别: 风景名胜;风景名胜;风景名胜",
    "city": "合肥"
  },
  {
    "name": "大观音庵",
    "category": "history",
    "duration_minutes": 120,
    "rating": 4.0,
    "lat": 31.770655,
    "lon": 117.218672,
    "description": "地址: 丹霞路292号 | 类别: 风景名胜;风景名胜;寺庙道观",
    "city": "合肥"
  },
  {
    "name": "冰纷万象(合肥万象城)",
    "category": "sightseeing",
    "duration_minutes": 120,
    "rating": 4.0,
    "lat": 31.79946,
    "lon": 117.231888,
    "description": "电话: 0551-65358811 | 地址: 潜山路111号合肥万象城L5层 | 类别: 体育休闲服务;运动场馆;溜冰场",
    "city": "合肥"
  },
  {
    "name": "杜岗游园",
    "category": "outdoor",
    "duration_minutes": 120,
    "rating": 4.0,
    "lat": 31.821021,
    "lon": 117.256718,
    "description": "地址: 金寨路与休宁路交汇处西北角 | 类别: 风景名胜;公园广场;公园",
    "city": "合肥"
  },
  {
    "name": "海狮表演馆",
    "category": "outdoor",
    "duration_minutes": 120,
    "rating": 4.0,
    "lat": 31.833457,
    "lon": 117.167313,
    "description": "电话: 0551-65395595 | 地址: 望江西路600号合肥野生动物园内(南侧) | 类别: 风景名胜;公园广场;动物园",
    "city": "合肥"
  },
  {
    "name": "观巢湖平台",
    "category": "outdoor",
    "duration_minutes": 120,
    "rating": 4.0,
    "lat": 31.705952,
    "lon": 117.330047,
    "description": "地址: 云谷路299号渡江战役纪念馆内(南侧) | 类别: 风景名胜;风景名胜;观景点",
    "city": "合肥"
  },
  {
    "name": "安徽元一双凤湖国际旅游度假区",
    "category": "outdoor",
    "duration_minutes": 120,
    "rating": 4.0,
    "lat": 32.035368,
    "lon": 117.30024,
    "description": "电话: 0551-66398993 | 地址: 双凤开发区双凤湖畔 | 类别: 体育休闲服务;度假疗养场所;度假村|风景名胜;风景名胜相关;旅游景点",
    "city": "合肥"
  },
  {
    "name": "圩圩谷精灵部落",
    "category": "sightseeing",
    "duration_minutes": 120,
    "rating": 4.0,
    "lat": 31.785522,
    "lon": 117.388168,
    "description": "电话: 16655139963 | 地址: 大圩镇磨滩旅游度假区内(北侧) | 类别: 风景名胜;风景名胜相关;旅游景点",
    "city": "合肥"
  },
  {
    "name": "马塔塔动物乐园",
    "category": "outdoor",
    "duration_minutes": 120,
    "rating": 4.0,
    "lat": 31.776574,
    "lon": 117.314739,
    "description": "地址: 骆岗街道包河大道18号 | 类别: 风景名胜;公园广场;动物园",
    "city": "合肥"
  },
  {
    "name": "龙栖地湿地公园",
    "category": "outdoor",
    "duration_minutes": 120,
    "rating": 4.0,
    "lat": 31.819012,
    "lon": 117.387359,
    "description": "地址: 龙栖路 | 类别: 风景名胜;公园广场;公园",
    "city": "合肥"
  },
  {
    "name": "古逍遥津游乐场",
    "category": "sightseeing",
    "duration_minutes": 120,
    "rating": 4.0,
    "lat": 31.867078,
    "lon": 117.295101,
    "description": "地址: 寿春路16号古逍遥津内(南侧) | 类别: 体育休闲服务;休闲场所;游乐场",
    "city": "合肥"
  },
  {
    "name": "巢湖长堤(中门)",
    "category": "outdoor",
    "duration_minutes": 120,
    "rating": 4.0,
    "lat": 31.694389,
    "lon": 117.310355,
    "description": "地址: 万年埠路与环湖北路辅路交叉口东南300米 | 类别: 风景名胜;风景名胜;风景名胜",
    "city": "合肥"
  },
  {
    "name": "派园",
    "category": "outdoor",
    "duration_minutes": 120,
    "rating": 4.0,
    "lat": 31.702246,
    "lon": 117.172898,
    "description": "地址: 三河路与芮祠路交叉口东240米 | 类别: 风景名胜;公园广场;公园",
    "city": "合肥"
  },
  {
    "name": "方舟基督教堂",
    "category": "sightseeing",
    "duration_minutes": 120,
    "rating": 4.0,
    "lat": 31.823691,
    "lon": 117.247231,
    "description": "地址: 休宁路与茗香路交叉口西北220米 | 类别: 风景名胜;风景名胜;教堂",
    "city": "合肥"
  },
  {
    "name": "琥珀潭",
    "category": "sightseeing",
    "duration_minutes": 120,
    "rating": 4.0,
    "lat": 31.860361,
    "lon": 117.267451,
    "description": "地址: 芜湖路街道环城南路29号环城公园(西南角) | 类别: 风景名胜;风景名胜;风景名胜",
    "city": "合肥"
  },
  {
    "name": "淝河生态公园",
    "category": "outdoor",
    "duration_minutes": 120,
    "rating": 4.0,
    "lat": 31.799977,
    "lon": 117.315551,
    "description": "地址: 潭渡路与大强路交叉口西南200米 | 类别: 风景名胜;公园广场;公园",
    "city": "合肥"
  },
  {
    "name": "延乔路纪念牌",
    "category": "sightseeing",
    "duration_minutes": 120,
    "rating": 4.0,
    "lat": 31.781887,
    "lon": 117.171231,
    "description": "地址: 延乔路与繁华大道交汇处 | 类别: 风景名胜;风景名胜相关;旅游景点",
    "city": "合肥"
  },
  {
    "name": "皖南民俗博物馆",
    "category": "museum",
    "duration_minutes": 120,
    "rating": 4.0,
    "lat": 31.871618,
    "lon": 117.155539,
    "description": "电话: 0551-68208155;18256606006 | 地址: 合肥市蜀山区天狮路与皖山路交口禹洲平湖秋月15栋 | 类别: 科教文化服务;博物馆;博物馆",
    "city": "合肥"
  },
  {
    "name": "塘西河公园沙滩公园",
    "category": "outdoor",
    "duration_minutes": 120,
    "rating": 4.0,
    "lat": 31.728558,
    "lon": 117.295256,
    "description": "地址: 中山路(合肥滨湖体育公园) | 类别: 风景名胜;公园广场;公园",
    "city": "合肥"
  },
  {
    "name": "合肥市博物馆(装修中)",
    "category": "museum",
    "duration_minutes": 120,
    "rating": 4.0,
    "lat": 31.828746,
    "lon": 117.366091,
    "description": "地址: 裕溪路241号合肥东部新中心 | 类别: 科教文化服务;博物馆;博物馆",
    "city": "合肥"
  },
  {
    "name": "肥西滨河公园",
    "category": "outdoor",
    "duration_minutes": 120,
    "rating": 4.0,
    "lat": 31.735398,
    "lon": 117.168386,
    "description": "地址: 望水路与宝成路交叉口西南400米 | 类别: 风景名胜;风景名胜相关;旅游景点",
    "city": "合肥"
  },
  {
    "name": "子洋欢乐世界游乐园",
    "category": "sightseeing",
    "duration_minutes": 120,
    "rating": 4.0,
    "lat": 31.820925,
    "lon": 117.386255,
    "description": "地址: 兴港路建华新村南区东北门旁 | 类别: 体育休闲服务;休闲场所;游乐场",
    "city": "合肥"
  },
  {
    "name": "蜀山城市运动公园",
    "category": "outdoor",
    "duration_minutes": 120,
    "rating": 4.0,
    "lat": 31.877387,
    "lon": 117.143118,
    "description": "地址: 激水路与山茶路交口东北角 | 类别: 风景名胜;公园广场;公园",
    "city": "合肥"
  },
  {
    "name": "玉兰台观景台",
    "category": "sightseeing",
    "duration_minutes": 120,
    "rating": 4.0,
    "lat": 31.715244,
    "lon": 117.378958,
    "description": "地址: 巢湖芦溪湿地(西北角) | 类别: 风景名胜;风景名胜;观景点",
    "city": "合肥"
  },
  {
    "name": "崔岗艺术村",
    "category": "sightseeing",
    "duration_minutes": 120,
    "rating": 4.0,
    "lat": 31.947271,
    "lon": 117.080892,
    "description": "电话: 0551-65900996 | 地址: 崔岗村 | 类别: 科教文化服务;培训机构;培训机构|商务住宅;商务住宅相关;商务住宅相关",
    "city": "合肥"
  },
  {
    "name": "紫云湖公园",
    "category": "outdoor",
    "duration_minutes": 120,
    "rating": 4.0,
    "lat": 31.749807,
    "lon": 117.116277,
    "description": "地址: 044县道 | 类别: 风景名胜;公园广场;公园",
    "city": "合肥"
  },
  {
    "name": "小岭南粉黛花园",
    "category": "sightseeing",
    "duration_minutes": 120,
    "rating": 4.0,
    "lat": 31.90204,
    "lon": 117.071178,
    "description": "地址: 曹操河南岸路与双郢路交叉口西北140米 | 类别: 风景名胜;风景名胜;风景名胜",
    "city": "合肥"
  },
  {
    "name": "合肥开福禅寺-客堂",
    "category": "sightseeing",
    "duration_minutes": 120,
    "rating": 4.0,
    "lat": 31.833466,
    "lon": 117.184465,
    "description": "电话: 0551-65313400 | 地址: 大蜀山南麓玉兰大道77号开福禅寺内 | 类别: 风景名胜;风景名胜相关;旅游景点",
    "city": "合肥"
  },
  {
    "name": "墨荷园(不对外开放)",
    "category": "outdoor",
    "duration_minutes": 120,
    "rating": 4.0,
    "lat": 31.897286,
    "lon": 117.217883,
    "description": "地址: 大杨镇北二环与怀宁路交口 | 类别: 风景名胜;公园广场;公园",
    "city": "合肥"
  },
  {
    "name": "清真寺",
    "category": "sightseeing",
    "duration_minutes": 120,
    "rating": 4.0,
    "lat": 31.865294,
    "lon": 117.2975,
    "description": "电话: 0551-62621320;0551-62654091 | 地址: 寿春路35号 | 类别: 风景名胜;风景名胜;回教寺",
    "city": "合肥"
  },
  {
    "name": "娘娘殿",
    "category": "history",
    "duration_minutes": 120,
    "rating": 4.0,
    "lat": 31.865967,
    "lon": 117.278615,
    "description": "地址: 霍邱路38号庐州府城隍庙 | 类别: 风景名胜;风景名胜;寺庙道观",
    "city": "合肥"
  },
  {
    "name": "合肥铁路公园",
    "category": "outdoor",
    "duration_minutes": 120,
    "rating": 4.0,
    "lat": 31.818187,
    "lon": 117.276047,
    "description": "地址: 休宁路与桐城南路交叉口西北160米 | 类别: 风景名胜;公园广场;公园",
    "city": "合肥"
  },
  {
    "name": "骆岗中央公园南广场",
    "category": "outdoor",
    "duration_minutes": 120,
    "rating": 4.0,
    "lat": 31.773757,
    "lon": 117.312492,
    "description": "地址: 花园大道与包河大道交叉口西500米 | 类别: 商务住宅;住宅区;社区中心",
    "city": "合肥"
  },
  {
    "name": "松岗功德园",
    "category": "sightseeing",
    "duration_minutes": 120,
    "rating": 4.0,
    "lat": 31.793726,
    "lon": 117.099426,
    "description": "地址: 铭传路与方兴大道交叉口西南360米 | 类别: 生活服务;丧葬设施;陵园",
    "city": "合肥"
  },
  {
    "name": "和睦湖公园",
    "category": "outdoor",
    "duration_minutes": 120,
    "rating": 4.0,
    "lat": 31.850335,
    "lon": 117.483453,
    "description": "地址: 店埠镇站南路 | 类别: 风景名胜;公园广场;公园",
    "city": "合肥"
  },
  {
    "name": "天鹅湖公园-游泳码头",
    "category": "outdoor",
    "duration_minutes": 120,
    "rating": 4.0,
    "lat": 31.810865,
    "lon": 117.218618,
    "description": "地址: 怀宁路与天鹅湖路交叉口天鹅湖公园 | 类别: 风景名胜;风景名胜相关;旅游景点",
    "city": "合肥"
  },
  {
    "name": "紫云山公园",
    "category": "outdoor",
    "duration_minutes": 120,
    "rating": 4.0,
    "lat": 31.739293,
    "lon": 117.329262,
    "description": "地址: 紫云路与徽富路交叉口 | 类别: 风景名胜;公园广场;公园",
    "city": "合肥"
  },
  {
    "name": "合肥古逍遥津幸福摩天轮",
    "category": "sightseeing",
    "duration_minutes": 120,
    "rating": 4.0,
    "lat": 31.865937,
    "lon": 117.297736,
    "description": "地址: 寿春路16号逍遥津公园内(东南角) | 类别: 体育休闲服务;休闲场所;游乐场",
    "city": "合肥"
  },
  {
    "name": "双水公园",
    "category": "outdoor",
    "duration_minutes": 120,
    "rating": 4.0,
    "lat": 31.899808,
    "lon": 117.218501,
    "description": "地址: 八公山路与清源路交叉口东北40米 | 类别: 风景名胜;公园广场;公园",
    "city": "合肥"
  },
  {
    "name": "钱景石",
    "category": "sightseeing",
    "duration_minutes": 120,
    "rating": 4.0,
    "lat": 31.809345,
    "lon": 117.231359,
    "description": "地址: 怀宁路与天鹅湖路交叉口天鹅湖公园 | 类别: 风景名胜;风景名胜相关;旅游景点",
    "city": "合肥"
  },
  {
    "name": "钱景石",
    "category": "sightseeing",
    "duration_minutes": 120,
    "rating": 4.0,
    "lat": 31.809345,
    "lon": 117.231359,
    "description": "地址: 怀宁路与天鹅湖路交叉口天鹅湖公园 | 类别: 风景名胜;风景名胜相关;旅游景点",
    "city": "合肥"
  },
  {
    "name": "合肥园博园航南广场",
    "category": "outdoor",
    "duration_minutes": 120,
    "rating": 4.0,
    "lat": 31.77759,
    "lon": 117.308825,
    "description": "地址: 骆岗街道合肥园博园 | 类别: 风景名胜;公园广场;公园广场",
    "city": "合肥"
  },
  {
    "name": "薄壳山核桃园",
    "category": "outdoor",
    "duration_minutes": 120,
    "rating": 4.0,
    "lat": 31.940892,
    "lon": 117.095593,
    "description": "电话: 0551-65715960 | 地址: 三十岗乡合三国城路198号庐阳区三十岗生态农业旅游区内(西侧) | 类别: 公司企业;农林牧渔基地;其它农林牧渔基地",
    "city": "合肥"
  },
  {
    "name": "十八联圩湿地",
    "category": "outdoor",
    "duration_minutes": 120,
    "rating": 4.0,
    "lat": 31.724046,
    "lon": 117.405482,
    "description": "地址: 堤顶路与沈东路交叉口东南420米 | 类别: 风景名胜;公园广场;公园",
    "city": "合肥"
  },
  {
    "name": "大房郢体育公园",
    "category": "outdoor",
    "duration_minutes": 120,
    "rating": 4.0,
    "lat": 31.905496,
    "lon": 117.238169,
    "description": "地址: 防汛路 | 类别: 风景名胜;公园广场;公园",
    "city": "合肥"
  },
  {
    "name": "古逍遥津逍遥阁",
    "category": "sightseeing",
    "duration_minutes": 120,
    "rating": 4.0,
    "lat": 31.86827,
    "lon": 117.296736,
    "description": "地址: 寿春路16号古逍遥津(东南角) | 类别: 风景名胜;风景名胜;风景名胜",
    "city": "合肥"
  },
  {
    "name": "小花园",
    "category": "outdoor",
    "duration_minutes": 120,
    "rating": 4.0,
    "lat": 31.86479,
    "lon": 117.299412,
    "description": "地址: 环城东路10号(大东门地铁站A口步行160米) | 类别: 风景名胜;公园广场;公园",
    "city": "合肥"
  },
  {
    "name": "合肥市李鸿章享堂",
    "category": "sightseeing",
    "duration_minutes": 120,
    "rating": 4.0,
    "lat": 31.838208,
    "lon": 117.367418,
    "description": "电话: 0551-64538901 | 地址: 裕溪路415号 | 类别: 风景名胜;风景名胜;风景名胜",
    "city": "合肥"
  },
  {
    "name": "合肥庐州公园二期",
    "category": "outdoor",
    "duration_minutes": 120,
    "rating": 4.0,
    "lat": 31.878555,
    "lon": 117.233747,
    "description": "地址: 庐州公园 | 类别: 风景名胜;公园广场;公园",
    "city": "合肥"
  },
  {
    "name": "月亮湾公园",
    "category": "outdoor",
    "duration_minutes": 120,
    "rating": 4.0,
    "lat": 31.858667,
    "lon": 117.384295,
    "description": "地址: 新安江路 | 类别: 风景名胜;公园广场;公园",
    "city": "合肥"
  },
  {
    "name": "潭冲河湿地公园",
    "category": "outdoor",
    "duration_minutes": 120,
    "rating": 4.0,
    "lat": 31.706238,
    "lon": 117.167266,
    "description": "地址: 潭冲路 | 类别: 风景名胜;公园广场;公园",
    "city": "合肥"
  },
  {
    "name": "灯塔",
    "category": "history",
    "duration_minutes": 120,
    "rating": 4.0,
    "lat": 31.696528,
    "lon": 117.409804,
    "description": "地址: 环湖北路1号 | 类别: 风景名胜;风景名胜相关;旅游景点",
    "city": "合肥"
  },
  {
    "name": "淝河智慧公园",
    "category": "outdoor",
    "duration_minutes": 120,
    "rating": 4.0,
    "lat": 31.81202,
    "lon": 117.327494,
    "description": "地址: 北京路与龙川路交叉口翡翠天际附近 | 类别: 风景名胜;公园广场;公园",
    "city": "合肥"
  },
  {
    "name": "沈福乐园",
    "category": "sightseeing",
    "duration_minutes": 120,
    "rating": 4.0,
    "lat": 31.750419,
    "lon": 117.378022,
    "description": "电话: 19056855135 | 地址: 沈东路1号 | 类别: 体育休闲服务;休闲场所;游乐场",
    "city": "合肥"
  },
  {
    "name": "合肥园博园厦门园",
    "category": "sightseeing",
    "duration_minutes": 120,
    "rating": 4.0,
    "lat": 31.783514,
    "lon": 117.30546,
    "description": "地址: 合肥园博园 | 类别: 风景名胜;风景名胜;风景名胜",
    "city": "合肥"
  },
  {
    "name": "庐州文化村",
    "category": "sightseeing",
    "duration_minutes": 120,
    "rating": 4.0,
    "lat": 31.884555,
    "lon": 117.104625,
    "description": "地址: 南岗镇梁墩村西北方500米 | 类别: 风景名胜;风景名胜相关;旅游景点",
    "city": "合肥"
  },
  {
    "name": "安全文化博物馆",
    "category": "museum",
    "duration_minutes": 120,
    "rating": 4.0,
    "lat": 31.753857,
    "lon": 117.27781,
    "description": "地址: 锦绣大道与宿松路交口清华大学合肥公共安全研究院二期公共安全与应急科技创新基地 | 类别: 科教文化服务;博物馆;博物馆",
    "city": "合肥"
  },
  {
    "name": "鲲鹏志",
    "category": "sightseeing",
    "duration_minutes": 120,
    "rating": 4.0,
    "lat": 31.865852,
    "lon": 117.299389,
    "description": "地址: 芜湖路街道环城南路29号环城公园(东南角) | 类别: 风景名胜;风景名胜;风景名胜",
    "city": "合肥"
  },
  {
    "name": "肥西老母鸡家园",
    "category": "sightseeing",
    "duration_minutes": 120,
    "rating": 4.0,
    "lat": 31.699032,
    "lon": 117.082162,
    "description": "电话: 0551-68445888 | 地址: 024乡道三岗村英山林场内 | 类别: 风景名胜;风景名胜;风景名胜",
    "city": "合肥"
  },
  {
    "name": "六家畈红石咀公园",
    "category": "outdoor",
    "duration_minutes": 120,
    "rating": 4.0,
    "lat": 31.647058,
    "lon": 117.454396,
    "description": "地址: 六家畈古民居群西1.5公里 | 类别: 风景名胜;公园广场;公园",
    "city": "合肥"
  }
]