[
  {
    "name": "青海藏文化博物院",
    "category": "museum",
    "duration_minutes": 120,
    "rating": 4.0,
    "lat": 36.688698,
    "lon": 101.747855,
    "description": "电话: 0971-5316426;0971-5317881 | 地址: 生物科技产业园区经二路36号 | 类别: 科教文化服务;博物馆;博物馆",
    "city": "西宁"
  },
  {
    "name": "人民公园",
    "category": "outdoor",
    "duration_minutes": 120,
    "rating": 4.0,
    "lat": 36.63749,
    "lon": 101.76281,
    "description": "电话: 0971-6146668 | 地址: 胜利路72号(小桥大街口) | 类别: 风景名胜;公园广场;公园",
    "city": "西宁"
  },
  {
    "name": "西宁野生动物园",
    "category": "outdoor",
    "duration_minutes": 120,
    "rating": 4.0,
    "lat": 36.627022,
    "lon": 101.731971,
    "description": "电话: 0971-8149850 | 地址: 行知路9号 | 类别: 风景名胜;公园广场;动物园",
    "city": "西宁"
  },
  {
    "name": "沈那公园",
    "category": "outdoor",
    "duration_minutes": 120,
    "rating": 4.0,
    "lat": 36.654052,
    "lon": 101.755776,
    "description": "地址: 勤勉街与小桥大街交叉口西南360米 | 类别: 风景名胜;公园广场;公园",
    "city": "西宁"
  },
  {
    "name": "北川河湿地公园",
    "category": "outdoor",
    "duration_minutes": 120,
    "rating": 4.0,
    "lat": 36.703468,
    "lon": 101.766103,
    "description": "地址: 北海公园(宁张路东) | 类别: 风景名胜;公园广场;公园",
    "city": "西宁"
  },
  {
    "name": "青海省博物馆",
    "category": "museum",
    "duration_minutes": 120,
    "rating": 4.0,
    "lat": 36.630221,
    "lon": 101.756012,
    "description": "电话: 0971-6111326;0971-6111164 | 地址: 西关大街58号 | 类别: 科教文化服务;博物馆;博物馆",
    "city": "西宁"
  },
  {
    "name": "西宁之眼",
    "category": "sightseeing",
    "duration_minutes": 120,
    "rating": 4.0,
    "lat": 36.658529,
    "lon": 101.791539,
    "description": "地址: 远山与风野奢露营基地东南侧90米 | 类别: 风景名胜;风景名胜相关;旅游景点",
    "city": "西宁"
  },
  {
    "name": "青藏高原自然博物馆",
    "category": "museum",
    "duration_minutes": 120,
    "rating": 4.0,
    "lat": 36.687481,
    "lon": 101.750315,
    "description": "电话: 0971-5226789;0971-5366027 | 地址: 生物科技产业园区经二路21号 | 类别: 科教文化服务;博物馆;博物馆",
    "city": "西宁"
  },
  {
    "name": "西宁电视塔",
    "category": "history",
    "duration_minutes": 120,
    "rating": 4.0,
    "lat": 36.620259,
    "lon": 101.750392,
    "description": "电话: 0971-6246458 | 地址: 西山一巷5西宁电视塔附近 | 类别: 风景名胜;风景名胜;风景名胜",
    "city": "西宁"
  },
  {
    "name": "文化公园",
    "category": "outdoor",
    "duration_minutes": 120,
    "rating": 4.0,
    "lat": 36.643324,
    "lon": 101.74507,
    "description": "电话: 0971-6303161 | 地址: 海晏路72号 | 类别: 风景名胜;公园广场;公园",
    "city": "西宁"
  },
  {
    "name": "西宁东关清真大寺",
    "category": "sightseeing",
    "duration_minutes": 120,
    "rating": 4.0,
    "lat": 36.615341,
    "lon": 101.797493,
    "description": "电话: 0971-8177126 | 地址: 东关大街34号 | 类别: 风景名胜;风景名胜;回教寺",
    "city": "西宁"
  },
  {
    "name": "麒麟湾公园",
    "category": "outdoor",
    "duration_minutes": 120,
    "rating": 4.0,
    "lat": 36.617209,
    "lon": 101.767585,
    "description": "电话: 0971-6144208 | 地址: 黄河路昆仑壹号东侧 | 类别: 风景名胜;公园广场;公园",
    "city": "西宁"
  },
  {
    "name": "西宁植物园",
    "category": "outdoor",
    "duration_minutes": 120,
    "rating": 4.0,
    "lat": 36.624202,
    "lon": 101.744611,
    "description": "电话: 0971-6143563 | 地址: 虎台街道古城台街道西山三巷5号 | 类别: 风景名胜;公园广场;植物园",
    "city": "西宁"
  },
  {
    "name": "青海省自然资源博物馆",
    "category": "museum",
    "duration_minutes": 120,
    "rating": 4.0,
    "lat": 36.648175,
    "lon": 101.725569,
    "description": "电话: 0971-6117732 | 地址: 彭家寨镇海晏路75-1号 | 类别: 科教文化服务;博物馆;博物馆",
    "city": "西宁"
  },
  {
    "name": "西宁市博物馆",
    "category": "museum",
    "duration_minutes": 120,
    "rating": 4.0,
    "lat": 36.650936,
    "lon": 101.75587,
    "description": "地址: 门源路与西海路交叉口东北110米 | 类别: 科教文化服务;博物馆;博物馆",
    "city": "西宁"
  },
  {
    "name": "西宁市体育公园",
    "category": "outdoor",
    "duration_minutes": 120,
    "rating": 4.0,
    "lat": 36.659292,
    "lon": 101.743584,
    "description": "电话: 0971-6109888 | 地址: 海湖大道附近 | 类别: 风景名胜;公园广场;公园",
    "city": "西宁"
  },
  {
    "name": "朝阳公园",
    "category": "outdoor",
    "duration_minutes": 120,
    "rating": 4.0,
    "lat": 36.648459,
    "lon": 101.763253,
    "description": "电话: 0971-5216626 | 地址: 门源路44号对面 | 类别: 风景名胜;公园广场;公园",
    "city": "西宁"
  },
  {
    "name": "南山公园",
    "category": "outdoor",
    "duration_minutes": 120,
    "rating": 4.0,
    "lat": 36.600351,
    "lon": 101.774278,
    "description": "电话: 0971-8247315 | 地址: 凤凰山路211号 | 类别: 风景名胜;风景名胜;省级景点",
    "city": "西宁"
  },
  {
    "name": "青海藏医药文化博物馆北馆",
    "category": "museum",
    "duration_minutes": 120,
    "rating": 4.0,
    "lat": 36.689299,
    "lon": 101.747855,
    "description": "电话: 0971-5317881 | 地址: 经二路36号 | 类别: 科教文化服务;博物馆;博物馆",
    "city": "西宁"
  },
  {
    "name": "曼境堂",
    "category": "sightseeing",
    "duration_minutes": 120,
    "rating": 4.0,
    "lat": 36.670444,
    "lon": 101.75291,
    "description": "地址: 经二路63号 | 类别: 风景名胜;风景名胜;风景名胜",
    "city": "西宁"
  },
  {
    "name": "西宁南关清真寺",
    "category": "sightseeing",
    "duration_minutes": 120,
    "rating": 4.0,
    "lat": 36.615277,
    "lon": 101.792809,
    "description": "地址: 南小街23号 | 类别: 风景名胜;风景名胜;回教寺",
    "city": "西宁"
  },
  {
    "name": "中心广场北广场",
    "category": "outdoor",
    "duration_minutes": 120,
    "rating": 4.0,
    "lat": 36.626511,
    "lon": 101.777437,
    "description": "地址: 七一路 | 类别: 风景名胜;公园广场;城市广场",
    "city": "西宁"
  },
  {
    "name": "萨尔斯堡西区二期广场",
    "category": "outdoor",
    "duration_minutes": 120,
    "rating": 4.0,
    "lat": 36.65404,
    "lon": 101.719068,
    "description": "地址: 美丽水街与湟水北路交叉口西200米 | 类别: 风景名胜;公园广场;城市广场",
    "city": "西宁"
  },
  {
    "name": "海湖广场",
    "category": "outdoor",
    "duration_minutes": 120,
    "rating": 4.0,
    "lat": 36.645505,
    "lon": 101.716023,
    "description": "地址: 五四西路72号海湖新区 | 类别: 风景名胜;公园广场;城市广场",
    "city": "西宁"
  },
  {
    "name": "城西区体育公园",
    "category": "outdoor",
    "duration_minutes": 120,
    "rating": 4.0,
    "lat": 36.636374,
    "lon": 101.711996,
    "description": "地址: 彭家寨镇西川南路67号 | 类别: 风景名胜;公园广场;公园",
    "city": "西宁"
  },
  {
    "name": "刘家沟生态公园",
    "category": "outdoor",
    "duration_minutes": 120,
    "rating": 4.0,
    "lat": 36.70648,
    "lon": 101.73592,
    "description": "地址: 青海卓然工程机械租赁有限公司西侧160米 | 类别: 风景名胜;公园广场;公园",
    "city": "西宁"
  },
  {
    "name": "湟水湿地公园",
    "category": "outdoor",
    "duration_minutes": 120,
    "rating": 4.0,
    "lat": 36.653096,
    "lon": 101.703846,
    "description": "电话: 0971-4515997 | 地址: 海晏路绿地云香郡北 | 类别: 风景名胜;公园广场;公园",
    "city": "西宁"
  },
  {
    "name": "北山美丽园",
    "category": "outdoor",
    "duration_minutes": 120,
    "rating": 4.0,
    "lat": 36.630794,
    "lon": 101.801505,
    "description": "电话: 0971-8819097 | 地址: 林家崖路 | 类别: 风景名胜;公园广场;公园",
    "city": "西宁"
  },
  {
    "name": "新华联童梦乐园综合旅游度假区",
    "category": "sightseeing",
    "duration_minutes": 120,
    "rating": 4.0,
    "lat": 36.647533,
    "lon": 101.565788,
    "description": "电话: 0971-7533333 | 地址: 多巴镇韦家庄村600-17号新华联国际旅游城 | 类别: 体育休闲服务;休闲场所;游乐场",
    "city": "西宁"
  },
  {
    "name": "三角花园",
    "category": "outdoor",
    "duration_minutes": 120,
    "rating": 4.0,
    "lat": 36.62895,
    "lon": 101.780951,
    "description": "地址: 七一路与长江路交叉口东南100米 | 类别: 风景名胜;公园广场;公园",
    "city": "西宁"
  },
  {
    "name": "西宁南凉虎台遗址公园",
    "category": "outdoor",
    "duration_minutes": 120,
    "rating": 4.0,
    "lat": 36.632502,
    "lon": 101.747953,
    "description": "地址: 虎台公交站附近 | 类别: 风景名胜;公园广场;公园",
    "city": "西宁"
  },
  {
    "name": "秀水路城市公园",
    "category": "outdoor",
    "duration_minutes": 120,
    "rating": 4.0,
    "lat": 36.634481,
    "lon": 101.773031,
    "description": "地址: 七一西路辅路与同仁路交叉口东240米 | 类别: 风景名胜;公园广场;公园",
    "city": "西宁"
  },
  {
    "name": "可可西里",
    "category": "sightseeing",
    "duration_minutes": 120,
    "rating": 4.0,
    "lat": 36.626887,
    "lon": 101.774719,
    "description": "电话: 0971-6163287 | 地址: 黄河路21号 | 类别: 商务住宅;住宅区;住宅小区",
    "city": "西宁"
  },
  {
    "name": "西宁浦宁之珠",
    "category": "sightseeing",
    "duration_minutes": 120,
    "rating": 4.0,
    "lat": 36.620126,
    "lon": 101.74976,
    "description": "地址: 虎台街道西山一巷5号 | 类别: 风景名胜;风景名胜相关;旅游景点",
    "city": "西宁"
  },
  {
    "name": "泰宁花园广场",
    "category": "sightseeing",
    "duration_minutes": 120,
    "rating": 4.0,
    "lat": 36.600165,
    "lon": 101.812078,
    "description": "地址: 夏都大街与康南巷交叉口东北200米 | 类别: 风景名胜;风景名胜;风景名胜",
    "city": "西宁"
  },
  {
    "name": "青藏高原野生动物园-雪豹馆",
    "category": "sightseeing",
    "duration_minutes": 120,
    "rating": 4.0,
    "lat": 36.624376,
    "lon": 101.730417,
    "description": "电话: 0971-4313100 | 地址: 行知路青藏野生动物园内 | 类别: 风景名胜;风景名胜相关;旅游景点",
    "city": "西宁"
  },
  {
    "name": "沈那遗址",
    "category": "history",
    "duration_minutes": 120,
    "rating": 4.0,
    "lat": 36.652909,
    "lon": 101.755466,
    "description": "地址: 建北巷三叉路口 | 类别: 风景名胜;风景名胜相关;旅游景点",
    "city": "西宁"
  },
  {
    "name": "中华枸杞养生苑",
    "category": "sightseeing",
    "duration_minutes": 120,
    "rating": 4.0,
    "lat": 36.563255,
    "lon": 101.865941,
    "description": "电话: 0971-8228101;0971-8865233 | 地址: 昆仑东路21号三江雪广场 | 类别: 风景名胜;风景名胜;风景名胜",
    "city": "西宁"
  },
  {
    "name": "宗喀大慈宏觉寺",
    "category": "history",
    "duration_minutes": 120,
    "rating": 4.0,
    "lat": 36.617815,
    "lon": 101.784526,
    "description": "地址: 莫家街 | 类别: 风景名胜;风景名胜;寺庙道观",
    "city": "西宁"
  },
  {
    "name": "北山美丽园湿地公园",
    "category": "outdoor",
    "duration_minutes": 120,
    "rating": 4.0,
    "lat": 36.6235,
    "lon": 101.816405,
    "description": "电话: 0971-8819097 | 地址: 林家崖街道 | 类别: 风景名胜;公园广场;公园",
    "city": "西宁"
  },
  {
    "name": "西宁电视塔-高原明珠",
    "category": "history",
    "duration_minutes": 120,
    "rating": 4.0,
    "lat": 36.620356,
    "lon": 101.749416,
    "description": "地址: 西宁电视塔内(西侧) | 类别: 体育休闲服务;体育休闲服务场所;体育休闲服务场所",
    "city": "西宁"
  },
  {
    "name": "塔尔寺",
    "category": "history",
    "duration_minutes": 120,
    "rating": 4.0,
    "lat": 36.487506,
    "lon": 101.56773,
    "description": "电话: 0971-2210188 | 地址: 居板古巷26号 | 类别: 风景名胜;风景名胜;国家级景点",
    "city": "西宁"
  },
  {
    "name": "昆仑玉文化博物馆",
    "category": "museum",
    "duration_minutes": 120,
    "rating": 4.0,
    "lat": 36.680922,
    "lon": 101.745811,
    "description": "地址: 生物科技产业园生物科技产业园经三路32号 | 类别: 科教文化服务;博物馆;博物馆",
    "city": "西宁"
  },
  {
    "name": "大佛寺",
    "category": "history",
    "duration_minutes": 120,
    "rating": 4.0,
    "lat": 36.621794,
    "lon": 101.779877,
    "description": "地址: 教场街3号 | 类别: 风景名胜;风景名胜;寺庙道观",
    "city": "西宁"
  },
  {
    "name": "唐道火车头广场",
    "category": "outdoor",
    "duration_minutes": 120,
    "rating": 4.0,
    "lat": 36.640698,
    "lon": 101.718194,
    "description": "地址: 西关大街与文汇路交叉口西北120米 | 类别: 风景名胜;公园广场;城市广场",
    "city": "西宁"
  },
  {
    "name": "西宁市烈士陵园",
    "category": "sightseeing",
    "duration_minutes": 120,
    "rating": 4.0,
    "lat": 36.592918,
    "lon": 101.765882,
    "description": "电话: 0971-4925818 | 地址: 南川东路19号 | 类别: 生活服务;丧葬设施;陵园",
    "city": "西宁"
  },
  {
    "name": "湟水森林公园",
    "category": "outdoor",
    "duration_minutes": 120,
    "rating": 4.0,
    "lat": 36.638224,
    "lon": 101.701421,
    "description": "电话: 0971-6314721 | 地址: 西川南路127号 | 类别: 风景名胜;风景名胜;风景名胜",
    "city": "西宁"
  },
  {
    "name": "西宁电视塔-明珠塔",
    "category": "history",
    "duration_minutes": 120,
    "rating": 4.0,
    "lat": 36.620077,
    "lon": 101.749433,
    "description": "地址: 西山一巷7号西宁电视塔-高原明珠附近 | 类别: 风景名胜;风景名胜相关;旅游景点",
    "city": "西宁"
  },
  {
    "name": "青海藏文化馆",
    "category": "outdoor",
    "duration_minutes": 120,
    "rating": 4.0,
    "lat": 36.492064,
    "lon": 101.588306,
    "description": "电话: 0971-2235111 | 地址: 迎宾路A1号,塔尔寺以东约1公里 | 类别: 风景名胜;风景名胜;国家级景点",
    "city": "西宁"
  },
  {
    "name": "金塔寺",
    "category": "history",
    "duration_minutes": 120,
    "rating": 4.0,
    "lat": 36.617312,
    "lon": 101.78384,
    "description": "电话: 0971-2232357 | 地址: 宏觉寺街9号(向阳印刷厂西) | 类别: 风景名胜;风景名胜;寺庙道观",
    "city": "西宁"
  },
  {
    "name": "生物园广场",
    "category": "outdoor",
    "duration_minutes": 120,
    "rating": 4.0,
    "lat": 36.69005,
    "lon": 101.747883,
    "description": "地址: 纬二路与经二路交汇处西南130米 | 类别: 风景名胜;公园广场;城市广场",
    "city": "西宁"
  },
  {
    "name": "玉带桥清真寺",
    "category": "history",
    "duration_minutes": 120,
    "rating": 4.0,
    "lat": 36.613288,
    "lon": 101.802026,
    "description": "地址: 大众街49号 | 类别: 风景名胜;风景名胜;回教寺",
    "city": "西宁"
  },
  {
    "name": "青唐花街",
    "category": "sightseeing",
    "duration_minutes": 120,
    "rating": 4.0,
    "lat": 36.691024,
    "lon": 101.764874,
    "description": "地址: 苏木莲路和纬二路交汇处 | 类别: 风景名胜;风景名胜相关;旅游景点",
    "city": "西宁"
  },
  {
    "name": "开发区乐家湾广场",
    "category": "outdoor",
    "duration_minutes": 120,
    "rating": 4.0,
    "lat": 36.577923,
    "lon": 101.836206,
    "description": "电话: 18719850816;18997129996 | 地址: 金汇路19-1号 | 类别: 风景名胜;公园广场;城市广场",
    "city": "西宁"
  },
  {
    "name": "狼窝沟公园",
    "category": "outdoor",
    "duration_minutes": 120,
    "rating": 4.0,
    "lat": 36.735594,
    "lon": 101.737701,
    "description": "地址: 宁大路247号 | 类别: 风景名胜;公园广场;公园",
    "city": "西宁"
  },
  {
    "name": "天主堂",
    "category": "sightseeing",
    "duration_minutes": 120,
    "rating": 4.0,
    "lat": 36.637936,
    "lon": 101.784426,
    "description": "电话: 13997177775 | 地址: 北禅路24号 | 类别: 风景名胜;风景名胜;教堂",
    "city": "西宁"
  },
  {
    "name": "青唐城遗址公园",
    "category": "outdoor",
    "duration_minutes": 120,
    "rating": 4.0,
    "lat": 36.610826,
    "lon": 101.784606,
    "description": "地址: 南小街68号近全民健身中心 | 类别: 风景名胜;公园广场;公园",
    "city": "西宁"
  },
  {
    "name": "中国工农红军西路军纪念馆",
    "category": "museum",
    "duration_minutes": 120,
    "rating": 4.0,
    "lat": 36.594321,
    "lon": 101.762835,
    "description": "电话: 0971-4925833 | 地址: 南川东路19号烈士陵园旁 | 类别: 风景名胜;风景名胜;红色景区",
    "city": "西宁"
  },
  {
    "name": "西宁熊猫馆",
    "category": "sightseeing",
    "duration_minutes": 120,
    "rating": 4.0,
    "lat": 36.627536,
    "lon": 101.729037,
    "description": "电话: 0971-3922193 | 地址: 虎台街道行知路9号青藏高原野生动物园(西侧) | 类别: 风景名胜;风景名胜相关;旅游景点",
    "city": "西宁"
  },
  {
    "name": "西宁野生动物园(浣熊)",
    "category": "sightseeing",
    "duration_minutes": 120,
    "rating": 4.0,
    "lat": 36.628009,
    "lon": 101.734513,
    "description": "电话: 0971-4313100 | 地址: 行知路9号西宁野生动物园 | 类别: 风景名胜;风景名胜相关;旅游景点",
    "city": "西宁"
  },
  {
    "name": "柴达木公园",
    "category": "outdoor",
    "duration_minutes": 120,
    "rating": 4.0,
    "lat": 36.646635,
    "lon": 101.747319,
    "description": "地址: 海西路19号东北方向100米 | 类别: 风景名胜;公园广场;公园",
    "city": "西宁"
  },
  {
    "name": "西宁小峡",
    "category": "sightseeing",
    "duration_minutes": 120,
    "rating": 4.0,
    "lat": 36.564049,
    "lon": 101.896858,
    "description": "地址: 乐家湾镇八一路附近 | 类别: 风景名胜;风景名胜;风景名胜",
    "city": "西宁"
  },
  {
    "name": "朝阳广场",
    "category": "outdoor",
    "duration_minutes": 120,
    "rating": 4.0,
    "lat": 36.650534,
    "lon": 101.766733,
    "description": "地址: 门源路17号 | 类别: 风景名胜;公园广场;城市广场",
    "city": "西宁"
  },
  {
    "name": "夏都温泉水乐园",
    "category": "sightseeing",
    "duration_minutes": 120,
    "rating": 4.0,
    "lat": 36.530402,
    "lon": 101.658778,
    "description": "电话: 0971-2216777;0971-2226777 | 地址: 城南麟河路33号 | 类别: 体育休闲服务;运动场馆;游泳馆|生活服务;洗浴推拿场所;洗浴推拿场所",
    "city": "西宁"
  },
  {
    "name": "西宁甘河城市郊野公园",
    "category": "outdoor",
    "duration_minutes": 120,
    "rating": 4.0,
    "lat": 36.61308,
    "lon": 101.498001,
    "description": "地址: 甘河工业园多巴镇下扎扎村 | 类别: 风景名胜;公园广场;公园",
    "city": "西宁"
  },
  {
    "name": "行知公园",
    "category": "outdoor",
    "duration_minutes": 120,
    "rating": 4.0,
    "lat": 36.632593,
    "lon": 101.733011,
    "description": "地址: 行知路和昆仑路路口处 | 类别: 风景名胜;公园广场;公园",
    "city": "西宁"
  },
  {
    "name": "鹿塬国际滑雪场",
    "category": "sightseeing",
    "duration_minutes": 120,
    "rating": 4.0,
    "lat": 36.526118,
    "lon": 101.675871,
    "description": "电话: 13997109903 | 地址: 总寨塬区域 | 类别: 体育休闲服务;运动场馆;滑雪场",
    "city": "西宁"
  },
  {
    "name": "新华联国际旅游城",
    "category": "sightseeing",
    "duration_minutes": 120,
    "rating": 4.0,
    "lat": 36.64744,
    "lon": 101.565801,
    "description": "电话: 0971-7777779 | 地址: 109国道与双寨路交汇处 | 类别: 商务住宅;住宅区;住宅区",
    "city": "西宁"
  },
  {
    "name": "水城门清真寺",
    "category": "sightseeing",
    "duration_minutes": 120,
    "rating": 4.0,
    "lat": 36.619531,
    "lon": 101.797568,
    "description": "地址: 七一路315号 | 类别: 风景名胜;风景名胜;回教寺",
    "city": "西宁"
  },
  {
    "name": "青藏高原野生动物园-大型珍稀动物馆",
    "category": "sightseeing",
    "duration_minutes": 120,
    "rating": 4.0,
    "lat": 36.626433,
    "lon": 101.730601,
    "description": "电话: 0971-4313100 | 地址: 行知路9号西宁野生动物园 | 类别: 风景名胜;风景名胜相关;旅游景点",
    "city": "西宁"
  },
  {
    "name": "王家庄清真寺",
    "category": "sightseeing",
    "duration_minutes": 120,
    "rating": 4.0,
    "lat": 36.615727,
    "lon": 101.821716,
    "description": "地址: 站东巷 | 类别: 风景名胜;风景名胜;回教寺",
    "city": "西宁"
  },
  {
    "name": "莲花山景区",
    "category": "outdoor",
    "duration_minutes": 120,
    "rating": 4.0,
    "lat": 36.500827,
    "lon": 101.560836,
    "description": "类别: 风景名胜;风景名胜;风景名胜",
    "city": "西宁"
  },
  {
    "name": "九天圣都扎麻隆凤凰山",
    "category": "outdoor",
    "duration_minutes": 120,
    "rating": 4.0,
    "lat": 36.665011,
    "lon": 101.441584,
    "description": "地址: 西湟一级公路与103省道交汇处东北150米 | 类别: 风景名胜;风景名胜;风景名胜|商务住宅;住宅区;住宅区",
    "city": "西宁"
  },
  {
    "name": "南川公园",
    "category": "outdoor",
    "duration_minutes": 120,
    "rating": 4.0,
    "lat": 36.594561,
    "lon": 101.760953,
    "description": "地址: 南川东路(南苑小区南) | 类别: 风景名胜;公园广场;公园",
    "city": "西宁"
  },
  {
    "name": "西宁市盐庄清真寺",
    "category": "sightseeing",
    "duration_minutes": 120,
    "rating": 4.0,
    "lat": 36.651017,
    "lon": 101.732986,
    "description": "地址: 海西路与美丽水街交叉口北180米 | 类别: 风景名胜;风景名胜;回教寺",
    "city": "西宁"
  },
  {
    "name": "后子河清真寺",
    "category": "sightseeing",
    "duration_minutes": 120,
    "rating": 4.0,
    "lat": 36.784405,
    "lon": 101.758021,
    "description": "地址: 长宁镇后子河西村东南方向116米 | 类别: 风景名胜;风景名胜;回教寺",
    "city": "西宁"
  },
  {
    "name": "豹馆",
    "category": "sightseeing",
    "duration_minutes": 120,
    "rating": 4.0,
    "lat": 36.628086,
    "lon": 101.735561,
    "description": "电话: 0971-4313100 | 地址: 行知路9号西宁野生动物园内(东侧) | 类别: 风景名胜;风景名胜相关;旅游景点",
    "city": "西宁"
  },
  {
    "name": "刘琦庙",
    "category": "history",
    "duration_minutes": 120,
    "rating": 4.0,
    "lat": 36.498185,
    "lon": 101.56218,
    "description": "地址: 下后街巷 | 类别: 风景名胜;风景名胜;寺庙道观",
    "city": "西宁"
  },
  {
    "name": "光彩广场",
    "category": "sightseeing",
    "duration_minutes": 120,
    "rating": 4.0,
    "lat": 36.620916,
    "lon": 101.782064,
    "description": "地址: 西大街6号 | 类别: 风景名胜;风景名胜相关;旅游景点",
    "city": "西宁"
  },
  {
    "name": "笑笑公园",
    "category": "outdoor",
    "duration_minutes": 120,
    "rating": 4.0,
    "lat": 36.627706,
    "lon": 101.785916,
    "description": "地址: 七一路384号 | 类别: 风景名胜;公园广场;公园",
    "city": "西宁"
  },
  {
    "name": "城隍庙",
    "category": "history",
    "duration_minutes": 120,
    "rating": 4.0,
    "lat": 36.624634,
    "lon": 101.781968,
    "description": "地址: 解放路西宁市少年宫 | 类别: 风景名胜;风景名胜;寺庙道观",
    "city": "西宁"
  },
  {
    "name": "西宁北山美丽园北山烟雨景区",
    "category": "outdoor",
    "duration_minutes": 120,
    "rating": 4.0,
    "lat": 36.639937,
    "lon": 101.788846,
    "description": "地址: 林家崖路北山美丽园(西北角) | 类别: 风景名胜;风景名胜;风景名胜",
    "city": "西宁"
  },
  {
    "name": "九眼泉自然旅游区",
    "category": "sightseeing",
    "duration_minutes": 120,
    "rating": 4.0,
    "lat": 36.570768,
    "lon": 101.83172,
    "description": "地址: 金桥路与开科路交叉口西南360米 | 类别: 风景名胜;风景名胜;风景名胜",
    "city": "西宁"
  },
  {
    "name": "鲁青水上公园",
    "category": "outdoor",
    "duration_minutes": 120,
    "rating": 4.0,
    "lat": 36.636395,
    "lon": 101.766961,
    "description": "地址: 同仁路2号 | 类别: 风景名胜;公园广场;公园",
    "city": "西宁"
  },
  {
    "name": "海棠公园",
    "category": "outdoor",
    "duration_minutes": 120,
    "rating": 4.0,
    "lat": 36.662439,
    "lon": 101.754368,
    "description": "地址: 小桥大街街道小桥大街237号 | 类别: 风景名胜;公园广场;公园",
    "city": "西宁"
  },
  {
    "name": "土楼观(暂停开放)",
    "category": "history",
    "duration_minutes": 120,
    "rating": 4.0,
    "lat": 36.6431,
    "lon": 101.785366,
    "description": "电话: 0971-5507110 | 地址: 祁连路48号北山半山腰上 | 类别: 风景名胜;风景名胜;寺庙道观",
    "city": "西宁"
  },
  {
    "name": "石头磊清真寺",
    "category": "sightseeing",
    "duration_minutes": 120,
    "rating": 4.0,
    "lat": 36.701015,
    "lon": 101.75726,
    "description": "地址: 宁大路与宁张路交叉口西60米 | 类别: 风景名胜;风景名胜;回教寺",
    "city": "西宁"
  },
  {
    "name": "文庙",
    "category": "history",
    "duration_minutes": 120,
    "rating": 4.0,
    "lat": 36.622735,
    "lon": 101.786056,
    "description": "地址: 文化街18号 | 类别: 风景名胜;风景名胜;寺庙道观",
    "city": "西宁"
  },
  {
    "name": "南禅寺",
    "category": "history",
    "duration_minutes": 120,
    "rating": 4.0,
    "lat": 36.614141,
    "lon": 101.769982,
    "description": "地址: 南滩街道南山路93号(昆仑桥南) | 类别: 风景名胜;风景名胜;寺庙道观",
    "city": "西宁"
  },
  {
    "name": "北关清真寺",
    "category": "sightseeing",
    "duration_minutes": 120,
    "rating": 4.0,
    "lat": 36.617412,
    "lon": 101.799755,
    "description": "地址: 北关街140号(北关街小学西) | 类别: 风景名胜;风景名胜;回教寺",
    "city": "西宁"
  },
  {
    "name": "西宁市杨家庄清真大寺",
    "category": "sightseeing",
    "duration_minutes": 120,
    "rating": 4.0,
    "lat": 36.607993,
    "lon": 101.810371,
    "description": "电话: 0971-2317999 | 地址: 青海省西宁市城东区大众街24号 | 类别: 风景名胜;风景名胜;回教寺",
    "city": "西宁"
  },
  {
    "name": "白沙滩公园",
    "category": "outdoor",
    "duration_minutes": 120,
    "rating": 4.0,
    "lat": 36.645457,
    "lon": 101.728835,
    "description": "地址: 文逸路4号西北方向120米 | 类别: 风景名胜;公园广场;公园",
    "city": "西宁"
  },
  {
    "name": "西宁市西关清真寺",
    "category": "sightseeing",
    "duration_minutes": 120,
    "rating": 4.0,
    "lat": 36.623563,
    "lon": 101.769778,
    "description": "地址: 西关大街10-4号 | 类别: 风景名胜;风景名胜;回教寺",
    "city": "西宁"
  },
  {
    "name": "马步芳公馆(暂停开放)",
    "category": "sightseeing",
    "duration_minutes": 120,
    "rating": 4.0,
    "lat": 36.61752,
    "lon": 101.806011,
    "description": "地址: 为民巷 | 类别: 风景名胜;风景名胜;风景名胜",
    "city": "西宁"
  },
  {
    "name": "碧山生态公园",
    "category": "outdoor",
    "duration_minutes": 120,
    "rating": 4.0,
    "lat": 36.627745,
    "lon": 101.705054,
    "description": "地址: 火烧沟沟口东侧 | 类别: 风景名胜;公园广场;公园",
    "city": "西宁"
  },
  {
    "name": "青藏高原牦牛博物馆",
    "category": "museum",
    "duration_minutes": 120,
    "rating": 4.0,
    "lat": 36.683681,
    "lon": 101.744763,
    "description": "地址: 经三路28号 | 类别: 科教文化服务;博物馆;博物馆",
    "city": "西宁"
  },
  {
    "name": "西宁湟乐公园",
    "category": "outdoor",
    "duration_minutes": 120,
    "rating": 4.0,
    "lat": 36.576651,
    "lon": 101.855971,
    "description": "地址: 八一东路30号 | 类别: 风景名胜;公园广场;公园",
    "city": "西宁"
  },
  {
    "name": "土楼观-云官殿",
    "category": "history",
    "duration_minutes": 120,
    "rating": 4.0,
    "lat": 36.64249,
    "lon": 101.785431,
    "description": "地址: 祁连路48号北山半山腰上土楼观 | 类别: 风景名胜;风景名胜;寺庙道观",
    "city": "西宁"
  },
  {
    "name": "文峰碑",
    "category": "sightseeing",
    "duration_minutes": 120,
    "rating": 4.0,
    "lat": 36.563296,
    "lon": 101.778898,
    "description": "类别: 风景名胜;风景名胜;风景名胜",
    "city": "西宁"
  },
  {
    "name": "南山公园-凤凰台",
    "category": "outdoor",
    "duration_minutes": 120,
    "rating": 4.0,
    "lat": 36.608619,
    "lon": 101.769859,
    "description": "电话: 0971-8247315 | 地址: 凤凰山路211号南山公园(西北角) | 类别: 风景名胜;风景名胜相关;旅游景点",
    "city": "西宁"
  },
  {
    "name": "南岸广场(装修中)",
    "category": "sightseeing",
    "duration_minutes": 120,
    "rating": 4.0,
    "lat": 36.617561,
    "lon": 101.810996,
    "description": "地址: 滨海路39号 | 类别: 购物服务;商场;购物中心",
    "city": "西宁"
  },
  {
    "name": "北川河湿地公园水帘洞",
    "category": "outdoor",
    "duration_minutes": 120,
    "rating": 4.0,
    "lat": 36.68775,
    "lon": 101.76653,
    "description": "地址: 朝阳西路85号 | 类别: 风景名胜;风景名胜;风景名胜",
    "city": "西宁"
  },
  {
    "name": "白玉巷清真寺",
    "category": "sightseeing",
    "duration_minutes": 120,
    "rating": 4.0,
    "lat": 36.619817,
    "lon": 101.793231,
    "description": "地址: 白玉巷6号 | 类别: 风景名胜;风景名胜;回教寺",
    "city": "西宁"
  },
  {
    "name": "朝阳绿岛公园",
    "category": "outdoor",
    "duration_minutes": 120,
    "rating": 4.0,
    "lat": 36.642374,
    "lon": 101.776011,
    "description": "地址: 兰西高速公路北 | 类别: 风景名胜;公园广场;公园",
    "city": "西宁"
  },
  {
    "name": "小型猫科动物馆",
    "category": "sightseeing",
    "duration_minutes": 120,
    "rating": 4.0,
    "lat": 36.627494,
    "lon": 101.735477,
    "description": "电话: 0971-4313100 | 地址: 凤凰山路青藏高原野生动物园(东侧) | 类别: 风景名胜;风景名胜相关;旅游景点",
    "city": "西宁"
  },
  {
    "name": "人民广场",
    "category": "outdoor",
    "duration_minutes": 120,
    "rating": 4.0,
    "lat": 36.547113,
    "lon": 101.704496,
    "description": "地址: 南京路51号附近 | 类别: 风景名胜;公园广场;城市广场",
    "city": "西宁"
  },
  {
    "name": "莲花湖景区",
    "category": "outdoor",
    "duration_minutes": 120,
    "rating": 4.0,
    "lat": 36.491504,
    "lon": 101.603297,
    "description": "地址: 鲁沙尔镇成佛路(香巴林卡后门) | 类别: 风景名胜;公园广场;公园",
    "city": "西宁"
  },
  {
    "name": "树林巷清真寺",
    "category": "sightseeing",
    "duration_minutes": 120,
    "rating": 4.0,
    "lat": 36.607581,
    "lon": 101.801902,
    "description": "地址: 树林巷12号 | 类别: 风景名胜;风景名胜;回教寺",
    "city": "西宁"
  },
  {
    "name": "西宁市园林植物园-热带植物观光园",
    "category": "outdoor",
    "duration_minutes": 120,
    "rating": 4.0,
    "lat": 36.624112,
    "lon": 101.747861,
    "description": "电话: 0971-6143563 | 地址: 虎台街道古城台街道西山三巷5号西宁植物园内(东侧) | 类别: 风景名胜;公园广场;植物园",
    "city": "西宁"
  },
  {
    "name": "丁字路清真寺",
    "category": "sightseeing",
    "duration_minutes": 120,
    "rating": 4.0,
    "lat": 36.601308,
    "lon": 101.794153,
    "description": "地址: 南山东路102号 | 类别: 风景名胜;风景名胜;回教寺",
    "city": "西宁"
  },
  {
    "name": "西郊乐园",
    "category": "outdoor",
    "duration_minutes": 120,
    "rating": 4.0,
    "lat": 36.651966,
    "lon": 101.717766,
    "description": "地址: 湟水湿地公园内(东侧) | 类别: 风景名胜;公园广场;公园",
    "city": "西宁"
  },
  {
    "name": "千紫缘",
    "category": "sightseeing",
    "duration_minutes": 120,
    "rating": 4.0,
    "lat": 36.455538,
    "lon": 101.79316,
    "description": "电话: 0971-2294858 | 地址: 田家寨镇千紫缘 | 类别: 风景名胜;风景名胜相关;旅游景点",
    "city": "西宁"
  },
  {
    "name": "南山公园-西宁市凤凰山拱北",
    "category": "outdoor",
    "duration_minutes": 120,
    "rating": 4.0,
    "lat": 36.607433,
    "lon": 101.769279,
    "description": "电话: 0971-8247315 | 地址: 凤凰山路211号南山公园(西北角) | 类别: 风景名胜;风景名胜相关;旅游景点",
    "city": "西宁"
  },
  {
    "name": "青藏高原野生动物园-小熊猫",
    "category": "outdoor",
    "duration_minutes": 120,
    "rating": 4.0,
    "lat": 36.627659,
    "lon": 101.731642,
    "description": "电话: 0971-4313100 | 地址: 行知路9号西宁野生动物园 | 类别: 风景名胜;公园广场;动物园",
    "city": "西宁"
  },
  {
    "name": "新华联童梦乐园西宁海洋世界",
    "category": "outdoor",
    "duration_minutes": 120,
    "rating": 4.0,
    "lat": 36.646465,
    "lon": 101.570507,
    "description": "电话: 0971-7539999;0971-7533333 | 地址: 新华联童梦乐园综合旅游度假区 | 类别: 风景名胜;公园广场;水族馆",
    "city": "西宁"
  },
  {
    "name": "湿地公园游乐区",
    "category": "outdoor",
    "duration_minutes": 120,
    "rating": 4.0,
    "lat": 36.687101,
    "lon": 101.763657,
    "description": "地址: 慧文街2号 | 类别: 体育休闲服务;体育休闲服务场所;体育休闲服务场所",
    "city": "西宁"
  },
  {
    "name": "北磨尔园清真寺",
    "category": "sightseeing",
    "duration_minutes": 120,
    "rating": 4.0,
    "lat": 36.61035,
    "lon": 101.792824,
    "description": "电话: 15609717080 | 地址: 乐都路21号 | 类别: 风景名胜;风景名胜;回教寺",
    "city": "西宁"
  },
  {
    "name": "猛兽区",
    "category": "sightseeing",
    "duration_minutes": 120,
    "rating": 4.0,
    "lat": 36.625433,
    "lon": 101.732632,
    "description": "地址: 行知路9号西宁野生动物园 | 类别: 风景名胜;风景名胜相关;旅游景点",
    "city": "西宁"
  },
  {
    "name": "老爷山风景区(暂停开放)",
    "category": "outdoor",
    "duration_minutes": 120,
    "rating": 4.0,
    "lat": 36.932473,
    "lon": 101.701593,
    "description": "电话: 0971-2722131;0971-2720166 | 地址: 桥头镇建国东路237号 | 类别: 风景名胜;风景名胜;风景名胜",
    "city": "西宁"
  },
  {
    "name": "文峰塔",
    "category": "history",
    "duration_minutes": 120,
    "rating": 4.0,
    "lat": 36.527209,
    "lon": 101.835461,
    "description": "类别: 风景名胜;风景名胜;风景名胜",
    "city": "西宁"
  },
  {
    "name": "文峰塔",
    "category": "history",
    "duration_minutes": 120,
    "rating": 4.0,
    "lat": 36.527209,
    "lon": 101.835461,
    "description": "类别: 风景名胜;风景名胜;风景名胜",
    "city": "西宁"
  },
  {
    "name": "夏都大街清真寺",
    "category": "sightseeing",
    "duration_minutes": 120,
    "rating": 4.0,
    "lat": 36.603027,
    "lon": 101.805076,
    "description": "地址: 夏都大街129号 | 类别: 风景名胜;风景名胜;回教寺",
    "city": "西宁"
  },
  {
    "name": "山陕会馆",
    "category": "outdoor",
    "duration_minutes": 120,
    "rating": 4.0,
    "lat": 36.623126,
    "lon": 101.788485,
    "description": "地址: 兴隆巷14号院 | 类别: 风景名胜;风景名胜相关;旅游景点",
    "city": "西宁"
  },
  {
    "name": "海湖湿地花海",
    "category": "outdoor",
    "duration_minutes": 120,
    "rating": 4.0,
    "lat": 36.653862,
    "lon": 101.688598,
    "description": "地址: 海晏路与光华路交叉口北260米 | 类别: 风景名胜;风景名胜;风景名胜",
    "city": "西宁"
  },
  {
    "name": "土楼观-宁寿塔",
    "category": "history",
    "duration_minutes": 120,
    "rating": 4.0,
    "lat": 36.644883,
    "lon": 101.783656,
    "description": "电话: 0971-5507110 | 地址: 北禅路24号 | 类别: 风景名胜;风景名胜相关;旅游景点",
    "city": "西宁"
  },
  {
    "name": "西宁宁湖湿地",
    "category": "outdoor",
    "duration_minutes": 120,
    "rating": 4.0,
    "lat": 36.568208,
    "lon": 101.885678,
    "description": "地址: 贵南路与八一路交汇处东北方 | 类别: 风景名胜;公园广场;公园",
    "city": "西宁"
  },
  {
    "name": "EGO Park",
    "category": "sightseeing",
    "duration_minutes": 120,
    "rating": 4.0,
    "lat": 36.626101,
    "lon": 101.776914,
    "description": "地址: 兴海路街道长江路48号附6号 | 类别: 购物服务;购物相关场所;购物相关场所",
    "city": "西宁"
  },
  {
    "name": "北川河城门楼",
    "category": "sightseeing",
    "duration_minutes": 120,
    "rating": 4.0,
    "lat": 36.70033,
    "lon": 101.765956,
    "description": "地址: 北川河湿地公园内(南侧) | 类别: 风景名胜;风景名胜相关;旅游景点",
    "city": "西宁"
  },
  {
    "name": "拱辰门",
    "category": "sightseeing",
    "duration_minutes": 120,
    "rating": 4.0,
    "lat": 36.627256,
    "lon": 101.784747,
    "description": "地址: 北大街最北端 | 类别: 风景名胜;风景名胜相关;旅游景点",
    "city": "西宁"
  },
  {
    "name": "黄河路小游园",
    "category": "outdoor",
    "duration_minutes": 120,
    "rating": 4.0,
    "lat": 36.623912,
    "lon": 101.772438,
    "description": "地址: 黄河路27号 | 类别: 风景名胜;公园广场;公园",
    "city": "西宁"
  },
  {
    "name": "西宁市教场街基督教堂",
    "category": "sightseeing",
    "duration_minutes": 120,
    "rating": 4.0,
    "lat": 36.621218,
    "lon": 101.779198,
    "description": "电话: 0971-8239918 | 地址: 教场街15号 | 类别: 风景名胜;风景名胜;教堂",
    "city": "西宁"
  },
  {
    "name": "五彩瀑布",
    "category": "sightseeing",
    "duration_minutes": 120,
    "rating": 4.0,
    "lat": 36.604529,
    "lon": 101.769836,
    "description": "电话: 0971-8247315 | 地址: 凤凰山路211号南山公园(西北角) | 类别: 风景名胜;风景名胜相关;旅游景点",
    "city": "西宁"
  },
  {
    "name": "基督教感恩堂",
    "category": "sightseeing",
    "duration_minutes": 120,
    "rating": 4.0,
    "lat": 36.656375,
    "lon": 101.71723,
    "description": "地址: 柴达木路140号 | 类别: 风景名胜;风景名胜;教堂",
    "city": "西宁"
  },
  {
    "name": "法幢寺",
    "category": "history",
    "duration_minutes": 120,
    "rating": 4.0,
    "lat": 36.614462,
    "lon": 101.769971,
    "description": "地址: 南山路75号 | 类别: 风景名胜;风景名胜;寺庙道观",
    "city": "西宁"
  },
  {
    "name": "菩提寺",
    "category": "history",
    "duration_minutes": 120,
    "rating": 4.0,
    "lat": 36.761024,
    "lon": 101.758529,
    "description": "地址: 廿里铺镇宁张公路13公里 | 类别: 风景名胜;风景名胜;寺庙道观",
    "city": "西宁"
  },
  {
    "name": "刘家寨清真寺",
    "category": "sightseeing",
    "duration_minutes": 120,
    "rating": 4.0,
    "lat": 36.637739,
    "lon": 101.711985,
    "description": "地址: 刘家寨小区(南凉路北) | 类别: 风景名胜;风景名胜;回教寺",
    "city": "西宁"
  },
  {
    "name": "小桥清真寺",
    "category": "history",
    "duration_minutes": 120,
    "rating": 4.0,
    "lat": 36.64481,
    "lon": 101.766512,
    "description": "电话: 0971-7928962 | 地址: 祁连路483号 | 类别: 风景名胜;风景名胜;回教寺",
    "city": "西宁"
  },
  {
    "name": "西宁市下林家崖清真寺",
    "category": "sightseeing",
    "duration_minutes": 120,
    "rating": 4.0,
    "lat": 36.626772,
    "lon": 101.802963,
    "description": "地址: 祁连路590号 | 类别: 风景名胜;风景名胜;回教寺",
    "city": "西宁"
  },
  {
    "name": "泰宁花园-铁路乐园",
    "category": "sightseeing",
    "duration_minutes": 120,
    "rating": 4.0,
    "lat": 36.600625,
    "lon": 101.813125,
    "description": "地址: 康西二路与纺织巷交叉口南100米 | 类别: 体育休闲服务;休闲场所;游乐场",
    "city": "西宁"
  },
  {
    "name": "白沙滩公园-药王庙",
    "category": "history",
    "duration_minutes": 120,
    "rating": 4.0,
    "lat": 36.645333,
    "lon": 101.727542,
    "description": "地址: 文博路白沙滩公园(西侧) | 类别: 风景名胜;风景名胜;寺庙道观",
    "city": "西宁"
  },
  {
    "name": "青藏高原野生动物园海洋馆",
    "category": "outdoor",
    "duration_minutes": 120,
    "rating": 4.0,
    "lat": 36.628179,
    "lon": 101.73032,
    "description": "电话: 0971-4313100;13897482050 | 地址: 行知路9号青藏高原野生动物园 | 类别: 风景名胜;公园广场;水族馆",
    "city": "西宁"
  },
  {
    "name": "兴海路清真寺",
    "category": "outdoor",
    "duration_minutes": 120,
    "rating": 4.0,
    "lat": 36.632458,
    "lon": 101.77461,
    "description": "地址: 尕寺巷15号 | 类别: 风景名胜;风景名胜;回教寺",
    "city": "西宁"
  },
  {
    "name": "花园南街基督教堂",
    "category": "sightseeing",
    "duration_minutes": 120,
    "rating": 4.0,
    "lat": 36.616932,
    "lon": 101.789194,
    "description": "地址: 花园南街57号附近 | 类别: 风景名胜;风景名胜;教堂",
    "city": "西宁"
  },
  {
    "name": "城北廿里铺村文化中心广场",
    "category": "outdoor",
    "duration_minutes": 120,
    "rating": 4.0,
    "lat": 36.711564,
    "lon": 101.761436,
    "description": "地址: 宁张路57号 | 类别: 风景名胜;公园广场;城市广场",
    "city": "西宁"
  },
  {
    "name": "毛主席塑像",
    "category": "sightseeing",
    "duration_minutes": 120,
    "rating": 4.0,
    "lat": 36.666352,
    "lon": 101.763468,
    "description": "地址: 山川家属院内 | 类别: 风景名胜;风景名胜;风景名胜",
    "city": "西宁"
  },
  {
    "name": "唐炫宫",
    "category": "history",
    "duration_minutes": 120,
    "rating": 4.0,
    "lat": 36.627325,
    "lon": 101.768475,
    "description": "地址: 五四大街与北气象巷交叉口东南40米 | 类别: 体育休闲服务;体育休闲服务场所;体育休闲服务场所",
    "city": "西宁"
  },
  {
    "name": "湟川三角公园",
    "category": "outdoor",
    "duration_minutes": 120,
    "rating": 4.0,
    "lat": 36.618014,
    "lon": 101.760227,
    "description": "地址: 新华巷与致远路交叉口西北20米 | 类别: 风景名胜;公园广场;公园",
    "city": "西宁"
  },
  {
    "name": "九天玄女祖宫",
    "category": "history",
    "duration_minutes": 120,
    "rating": 4.0,
    "lat": 36.663353,
    "lon": 101.440422,
    "description": "地址: 九天圣都扎麻隆凤凰山(西南角) | 类别: 风景名胜;风景名胜;风景名胜",
    "city": "西宁"
  },
  {
    "name": "湟中区文化广场",
    "category": "outdoor",
    "duration_minutes": 120,
    "rating": 4.0,
    "lat": 36.500967,
    "lon": 101.56961,
    "description": "地址: 鲁沙尔镇庄隆路圣山国际二期商业街二楼、二小正对面二楼 | 类别: 风景名胜;公园广场;城市广场",
    "city": "西宁"
  },
  {
    "name": "民俗风情园",
    "category": "sightseeing",
    "duration_minutes": 120,
    "rating": 4.0,
    "lat": 36.551143,
    "lon": 101.712806,
    "description": "地址: 南京路40号 | 类别: 商务住宅;住宅区;住宅小区",
    "city": "西宁"
  },
  {
    "name": "西宁市力盟步行街-文化旅游区",
    "category": "sightseeing",
    "duration_minutes": 120,
    "rating": 4.0,
    "lat": 36.629227,
    "lon": 101.759092,
    "description": "地址: 古城台街道五四大街37号力盟·商业巷 | 类别: 风景名胜;风景名胜相关;旅游景点",
    "city": "西宁"
  },
  {
    "name": "大园山文化体育公园",
    "category": "outdoor",
    "duration_minutes": 120,
    "rating": 4.0,
    "lat": 36.595848,
    "lon": 101.792771,
    "description": "地址: 园山路 | 类别: 风景名胜;公园广场;公园",
    "city": "西宁"
  },
  {
    "name": "人民公园摩天轮",
    "category": "outdoor",
    "duration_minutes": 120,
    "rating": 4.0,
    "lat": 36.640225,
    "lon": 101.763375,
    "description": "电话: 0971-6146668 | 地址: 胜利路72号(小桥大街口)人民公园 | 类别: 体育休闲服务;休闲场所;游乐场",
    "city": "西宁"
  },
  {
    "name": "慕容古寨",
    "category": "sightseeing",
    "duration_minutes": 120,
    "rating": 4.0,
    "lat": 36.786159,
    "lon": 101.488922,
    "description": "电话: 0971-2266666 | 地址: 拦隆口镇拦一村金仓岭 | 类别: 餐饮服务;餐饮相关场所;餐饮相关",
    "city": "西宁"
  },
  {
    "name": "路林巷清真寺",
    "category": "sightseeing",
    "duration_minutes": 120,
    "rating": 4.0,
    "lat": 36.611178,
    "lon": 101.809002,
    "description": "地址: 周家泉巷102号 | 类别: 风景名胜;风景名胜;回教寺",
    "city": "西宁"
  },
  {
    "name": "蔚蓝星海洋动物王国(西宁城东吾悦店)",
    "category": "outdoor",
    "duration_minutes": 120,
    "rating": 4.0,
    "lat": 36.584602,
    "lon": 101.837022,
    "description": "电话: 0971-3832883;0971-8218318 | 地址: 乐家湾镇八一东路177号西宁城东吾悦广场三楼瀚海立方Z307 | 类别: 风景名胜;公园广场;水族馆",
    "city": "西宁"
  },
  {
    "name": "元堡子湿地公园(建设中)",
    "category": "outdoor",
    "duration_minutes": 120,
    "rating": 4.0,
    "lat": 36.563711,
    "lon": 101.72872,
    "description": "地址: 总寨镇 | 类别: 风景名胜;公园广场;公园",
    "city": "西宁"
  },
  {
    "name": "高原明珠旋转西餐厅",
    "category": "sightseeing",
    "duration_minutes": 120,
    "rating": 4.0,
    "lat": 36.620222,
    "lon": 101.749535,
    "description": "电话: 0971-6161888;0971-6246458 | 地址: 西山一巷7号高原明珠塔7层 | 类别: 餐饮服务;外国餐厅;西餐厅(综合风味)",
    "city": "西宁"
  },
  {
    "name": "大黑沟森林公园",
    "category": "outdoor",
    "duration_minutes": 120,
    "rating": 4.0,
    "lat": 36.675693,
    "lon": 101.376668,
    "description": "地址: 东峡乡G109东峡乡人民政府东3公里 | 类别: 风景名胜;风景名胜;省级景点",
    "city": "西宁"
  },
  {
    "name": "南山公园-格拉丹冬雪山",
    "category": "outdoor",
    "duration_minutes": 120,
    "rating": 4.0,
    "lat": 36.599289,
    "lon": 101.773306,
    "description": "电话: 0971-8247315 | 地址: 凤凰山路211号南山公园 | 类别: 风景名胜;风景名胜相关;旅游景点",
    "city": "西宁"
  },
  {
    "name": "通海桥公园",
    "category": "outdoor",
    "duration_minutes": 120,
    "rating": 4.0,
    "lat": 36.660132,
    "lon": 101.702731,
    "description": "地址: 柴达木路235号 | 类别: 风景名胜;公园广场;公园",
    "city": "西宁"
  },
  {
    "name": "多巴清真大寺",
    "category": "sightseeing",
    "duration_minutes": 120,
    "rating": 4.0,
    "lat": 36.65924,
    "lon": 101.524077,
    "description": "地址: 多巴西街与多巴北街交叉口西180米 | 类别: 风景名胜;风景名胜;回教寺",
    "city": "西宁"
  },
  {
    "name": "绿地广场",
    "category": "outdoor",
    "duration_minutes": 120,
    "rating": 4.0,
    "lat": 36.626596,
    "lon": 101.771392,
    "description": "地址: 胜利路与中华巷交叉口南60米 | 类别: 风景名胜;公园广场;城市广场",
    "city": "西宁"
  },
  {
    "name": "东关老街",
    "category": "sightseeing",
    "duration_minutes": 120,
    "rating": 4.0,
    "lat": 36.607954,
    "lon": 101.795966,
    "description": "地址: 共和路与夏都大街交叉口西南180米 | 类别: 风景名胜;风景名胜;风景名胜",
    "city": "西宁"
  },
  {
    "name": "晨光清真寺",
    "category": "sightseeing",
    "duration_minutes": 120,
    "rating": 4.0,
    "lat": 36.634733,
    "lon": 101.726812,
    "description": "地址: 西川南路名城巷 | 类别: 风景名胜;风景名胜;回教寺",
    "city": "西宁"
  },
  {
    "name": "三棵榆",
    "category": "sightseeing",
    "duration_minutes": 120,
    "rating": 4.0,
    "lat": 36.62049,
    "lon": 101.782079,
    "description": "地址: 西大街与民主街交叉口东80米 | 类别: 风景名胜;风景名胜相关;旅游景点",
    "city": "西宁"
  },
  {
    "name": "西宁市劳动公园",
    "category": "outdoor",
    "duration_minutes": 120,
    "rating": 4.0,
    "lat": 36.625347,
    "lon": 101.797348,
    "description": "地址: 五一路3号 | 类别: 风景名胜;公园广场;公园",
    "city": "西宁"
  },
  {
    "name": "怡心园清真寺",
    "category": "sightseeing",
    "duration_minutes": 120,
    "rating": 4.0,
    "lat": 36.584681,
    "lon": 101.821691,
    "description": "地址: 昆仑路 | 类别: 风景名胜;风景名胜;回教寺",
    "city": "西宁"
  },
  {
    "name": "南川河水际公园",
    "category": "outdoor",
    "duration_minutes": 120,
    "rating": 4.0,
    "lat": 36.541211,
    "lon": 101.673178,
    "description": "地址: 总寨镇兴业路和创业路交汇处东南侧 | 类别: 风景名胜;公园广场;公园",
    "city": "西宁"
  },
  {
    "name": "后子河拱北",
    "category": "sightseeing",
    "duration_minutes": 120,
    "rating": 4.0,
    "lat": 36.774228,
    "lon": 101.74594,
    "description": "地址: 宁张公路g-5号 | 类别: 风景名胜;风景名胜;风景名胜",
    "city": "西宁"
  },
  {
    "name": "美丽园京韵青风景区",
    "category": "sightseeing",
    "duration_minutes": 120,
    "rating": 4.0,
    "lat": 36.62635,
    "lon": 101.812872,
    "description": "地址: 站北路 | 类别: 风景名胜;风景名胜;风景名胜",
    "city": "西宁"
  },
  {
    "name": "鱼乐台公园",
    "category": "outdoor",
    "duration_minutes": 120,
    "rating": 4.0,
    "lat": 36.655645,
    "lon": 101.693302,
    "description": "地址: 美丽水街 | 类别: 风景名胜;公园广场;公园",
    "city": "西宁"
  },
  {
    "name": "人民广场",
    "category": "outdoor",
    "duration_minutes": 120,
    "rating": 4.0,
    "lat": 36.641619,
    "lon": 101.76987,
    "description": "地址: 祁连路与朝阳西路交叉口东300米 | 类别: 风景名胜;公园广场;城市广场",
    "city": "西宁"
  },
  {
    "name": "下沉广场",
    "category": "outdoor",
    "duration_minutes": 120,
    "rating": 4.0,
    "lat": 36.64239,
    "lon": 101.719078,
    "description": "地址: 五四西路88号唐道637号 | 类别: 风景名胜;公园广场;城市广场",
    "city": "西宁"
  },
  {
    "name": "普济寺",
    "category": "history",
    "duration_minutes": 120,
    "rating": 4.0,
    "lat": 36.613114,
    "lon": 101.785889,
    "description": "地址: 花园南街67号 | 类别: 风景名胜;风景名胜;寺庙道观",
    "city": "西宁"
  },
  {
    "name": "草食动物区",
    "category": "sightseeing",
    "duration_minutes": 120,
    "rating": 4.0,
    "lat": 36.626872,
    "lon": 101.735384,
    "description": "地址: 行知路9号西宁野生动物园 | 类别: 风景名胜;风景名胜相关;旅游景点",
    "city": "西宁"
  },
  {
    "name": "北川河湿地公园管理中心",
    "category": "outdoor",
    "duration_minutes": 120,
    "rating": 4.0,
    "lat": 36.7125,
    "lon": 101.766515,
    "description": "地址: 长清街与宁张公路交叉口东240米 | 类别: 公司企业;公司;公司",
    "city": "西宁"
  },
  {
    "name": "西门文化广场",
    "category": "outdoor",
    "duration_minutes": 120,
    "rating": 4.0,
    "lat": 36.620837,
    "lon": 101.774241,
    "description": "地址: 长江路与西关大街交叉口西南80米 | 类别: 风景名胜;公园广场;城市广场",
    "city": "西宁"
  },
  {
    "name": "凯迪帕克潮玩欢乐城",
    "category": "outdoor",
    "duration_minutes": 120,
    "rating": 4.0,
    "lat": 36.628026,
    "lon": 101.759799,
    "description": "电话: 0971-8081577 | 地址: 南商业巷与西关大街交叉口东北80米 | 类别: 风景名胜;公园广场;动物园",
    "city": "西宁"
  },
  {
    "name": "红叶谷休闲生态旅游景区",
    "category": "sightseeing",
    "duration_minutes": 120,
    "rating": 4.0,
    "lat": 36.551429,
    "lon": 101.892387,
    "description": "地址: 友谊巷南段 | 类别: 风景名胜;风景名胜相关;旅游景点",
    "city": "西宁"
  },
  {
    "name": "西宁市烈士陵园群众公墓",
    "category": "sightseeing",
    "duration_minutes": 120,
    "rating": 4.0,
    "lat": 36.591998,
    "lon": 101.770296,
    "description": "地址: 南川东路街道 | 类别: 生活服务;丧葬设施;公墓",
    "city": "西宁"
  },
  {
    "name": "土门关",
    "category": "sightseeing",
    "duration_minutes": 120,
    "rating": 4.0,
    "lat": 36.44139,
    "lon": 101.721157,
    "description": "地址: 土门关村东南方向190米 | 类别: 风景名胜;风景名胜;风景名胜",
    "city": "西宁"
  },
  {
    "name": "西钢公园",
    "category": "outdoor",
    "duration_minutes": 120,
    "rating": 4.0,
    "lat": 36.654733,
    "lon": 101.680595,
    "description": "地址: 铁道南小区对面 | 类别: 风景名胜;公园广场;公园",
    "city": "西宁"
  },
  {
    "name": "西宁市人民公园-游乐园",
    "category": "outdoor",
    "duration_minutes": 120,
    "rating": 4.0,
    "lat": 36.639726,
    "lon": 101.76195,
    "description": "电话: 0971-6146668 | 地址: 胜利路72号(小桥大街口)人民公园内(北侧) | 类别: 体育休闲服务;休闲场所;游乐场",
    "city": "西宁"
  },
  {
    "name": "青海格萨尔王博物馆",
    "category": "museum",
    "duration_minutes": 120,
    "rating": 4.0,
    "lat": 36.516011,
    "lon": 101.63132,
    "description": "地址: 青藏图书城西北侧330米 | 类别: 科教文化服务;博物馆;博物馆",
    "city": "西宁"
  },
  {
    "name": "谢家寨娘娘庙",
    "category": "history",
    "duration_minutes": 120,
    "rating": 4.0,
    "lat": 36.550958,
    "lon": 101.690785,
    "description": "地址: 总寨镇谢家寨村 | 类别: 风景名胜;风景名胜;寺庙道观",
    "city": "西宁"
  },
  {
    "name": "小寨村清真寺",
    "category": "sightseeing",
    "duration_minutes": 120,
    "rating": 4.0,
    "lat": 36.733081,
    "lon": 101.758881,
    "description": "地址: 宁张路291号 | 类别: 风景名胜;风景名胜;回教寺",
    "city": "西宁"
  },
  {
    "name": "塔尔寺全景观景台",
    "category": "history",
    "duration_minutes": 120,
    "rating": 4.0,
    "lat": 36.490668,
    "lon": 101.572715,
    "description": "地址: 商业街东200米 | 类别: 风景名胜;风景名胜;观景点",
    "city": "西宁"
  },
  {
    "name": "明长城",
    "category": "sightseeing",
    "duration_minutes": 120,
    "rating": 4.0,
    "lat": 36.916661,
    "lon": 101.683119,
    "description": "类别: 风景名胜;风景名胜;风景名胜",
    "city": "西宁"
  },
  {
    "name": "石头磊村庙",
    "category": "history",
    "duration_minutes": 120,
    "rating": 4.0,
    "lat": 36.697579,
    "lon": 101.73699,
    "description": "类别: 风景名胜;风景名胜;寺庙道观",
    "city": "西宁"
  },
  {
    "name": "丁香园",
    "category": "sightseeing",
    "duration_minutes": 120,
    "rating": 4.0,
    "lat": 36.615128,
    "lon": 101.769922,
    "description": "地址: 南山路 | 类别: 风景名胜;风景名胜相关;旅游景点",
    "city": "西宁"
  },
  {
    "name": "虎台清真寺",
    "category": "sightseeing",
    "duration_minutes": 120,
    "rating": 4.0,
    "lat": 36.633338,
    "lon": 101.726447,
    "description": "地址: 名城巷殷家庄小区(昆仑西路辅路) | 类别: 风景名胜;风景名胜;回教寺",
    "city": "西宁"
  },
  {
    "name": "韵家口清真寺",
    "category": "sightseeing",
    "duration_minutes": 120,
    "rating": 4.0,
    "lat": 36.581743,
    "lon": 101.87171,
    "description": "地址: 团结桥路7号 | 类别: 风景名胜;风景名胜;回教寺",
    "city": "西宁"
  },
  {
    "name": "夜月湖",
    "category": "outdoor",
    "duration_minutes": 120,
    "rating": 4.0,
    "lat": 36.646817,
    "lon": 101.671914,
    "description": "地址: 昆仑大道辅路与湟水路高架桥交叉口西南120米 | 类别: 风景名胜;风景名胜;风景名胜",
    "city": "西宁"
  },
  {
    "name": "塔尔寺-大金瓦殿",
    "category": "history",
    "duration_minutes": 120,
    "rating": 4.0,
    "lat": 36.48772,
    "lon": 101.566848,
    "description": "电话: 0971-2232357 | 地址: 塔尔寺 | 类别: 风景名胜;风景名胜;风景名胜",
    "city": "西宁"
  },
  {
    "name": "南山公园-梨花楼",
    "category": "outdoor",
    "duration_minutes": 120,
    "rating": 4.0,
    "lat": 36.603989,
    "lon": 101.771409,
    "description": "电话: 0971-8247315 | 地址: 凤凰山路211号南山公园(西北角) | 类别: 风景名胜;风景名胜相关;旅游景点",
    "city": "西宁"
  },
  {
    "name": "北川1号湖畔里park",
    "category": "outdoor",
    "duration_minutes": 120,
    "rating": 4.0,
    "lat": 36.71198,
    "lon": 101.766109,
    "description": "地址: 宁张公路50号 | 类别: 风景名胜;公园广场;公园",
    "city": "西宁"
  },
  {
    "name": "锅庄庆典广场",
    "category": "outdoor",
    "duration_minutes": 120,
    "rating": 4.0,
    "lat": 36.64343,
    "lon": 101.718708,
    "description": "地址: 五四西路88号唐道637号 | 类别: 风景名胜;公园广场;城市广场",
    "city": "西宁"
  },
  {
    "name": "美伦金座城市广场",
    "category": "outdoor",
    "duration_minutes": 120,
    "rating": 4.0,
    "lat": 36.641826,
    "lon": 101.719136,
    "description": "地址: 文汇路与文景街交叉口西北约80米 | 类别: 风景名胜;公园广场;城市广场",
    "city": "西宁"
  },
  {
    "name": "康川清真大寺",
    "category": "sightseeing",
    "duration_minutes": 120,
    "rating": 4.0,
    "lat": 36.651622,
    "lon": 101.514519,
    "description": "地址: 康宁街与康宁东路交叉口东北80米 | 类别: 风景名胜;风景名胜;回教寺",
    "city": "西宁"
  },
  {
    "name": "北山美丽园中庄景区",
    "category": "outdoor",
    "duration_minutes": 120,
    "rating": 4.0,
    "lat": 36.61145,
    "lon": 101.827722,
    "description": "地址: 站北路 | 类别: 风景名胜;风景名胜;风景名胜",
    "city": "西宁"
  },
  {
    "name": "彭家寨清真寺",
    "category": "sightseeing",
    "duration_minutes": 120,
    "rating": 4.0,
    "lat": 36.636757,
    "lon": 101.706033,
    "description": "地址: 富兴路彭家寨村(东区) | 类别: 风景名胜;风景名胜;回教寺",
    "city": "西宁"
  },
  {
    "name": "塘马坊清真寺",
    "category": "sightseeing",
    "duration_minutes": 120,
    "rating": 4.0,
    "lat": 36.549356,
    "lon": 101.706861,
    "description": "地址: 同安路与瑞源路交叉口东80米 | 类别: 风景名胜;风景名胜;回教寺",
    "city": "西宁"
  },
  {
    "name": "西宁北山美丽园昆仑神韵景区",
    "category": "outdoor",
    "duration_minutes": 120,
    "rating": 4.0,
    "lat": 36.630877,
    "lon": 101.801557,
    "description": "地址: 林家崖路北山美丽园 | 类别: 风景名胜;风景名胜;风景名胜",
    "city": "西宁"
  },
  {
    "name": "人民公园西花房恐龙馆",
    "category": "outdoor",
    "duration_minutes": 120,
    "rating": 4.0,
    "lat": 36.639857,
    "lon": 101.7599,
    "description": "电话: 19150804639 | 地址: 胜利路72号(小桥大街口)人民公园(西北角) | 类别: 风景名胜;风景名胜;风景名胜",
    "city": "西宁"
  },
  {
    "name": "天主堂",
    "category": "sightseeing",
    "duration_minutes": 120,
    "rating": 4.0,
    "lat": 36.641272,
    "lon": 101.680914,
    "description": "类别: 风景名胜;风景名胜;教堂",
    "city": "西宁"
  },
  {
    "name": "中庄清真寺",
    "category": "sightseeing",
    "duration_minutes": 120,
    "rating": 4.0,
    "lat": 36.60898,
    "lon": 101.819427,
    "description": "地址: 互助中路226号 | 类别: 风景名胜;风景名胜;回教寺",
    "city": "西宁"
  },
  {
    "name": "梨园公园",
    "category": "outdoor",
    "duration_minutes": 120,
    "rating": 4.0,
    "lat": 36.591354,
    "lon": 101.800112,
    "description": "地址: 南山东路与康陵路交叉口东南160米 | 类别: 风景名胜;公园广场;公园",
    "city": "西宁"
  },
  {
    "name": "孙中山先生纪念碑",
    "category": "history",
    "duration_minutes": 120,
    "rating": 4.0,
    "lat": 36.640368,
    "lon": 101.760634,
    "description": "电话: 0971-6146668 | 地址: 胜利路72号(小桥大街口)人民公园(西北角) | 类别: 风景名胜;风景名胜;纪念馆",
    "city": "西宁"
  },
  {
    "name": "丹噶尔古城",
    "category": "history",
    "duration_minutes": 120,
    "rating": 4.0,
    "lat": 36.688166,
    "lon": 101.270381,
    "description": "电话: 0971-2481729;12301;0971-2483000 | 地址: 明清老街 | 类别: 风景名胜;风景名胜;风景名胜",
    "city": "西宁"
  },
  {
    "name": "益禾广场",
    "category": "outdoor",
    "duration_minutes": 120,
    "rating": 4.0,
    "lat": 36.649932,
    "lon": 101.520492,
    "description": "地址: 多巴镇正西路 | 类别: 风景名胜;公园广场;公园广场",
    "city": "西宁"
  },
  {
    "name": "海湖新区运动公园",
    "category": "outdoor",
    "duration_minutes": 120,
    "rating": 4.0,
    "lat": 36.652623,
    "lon": 101.69688,
    "description": "地址: 海晏路与桃李路交叉口东40米 | 类别: 风景名胜;公园广场;公园",
    "city": "西宁"
  },
  {
    "name": "岗冲清真大寺",
    "category": "sightseeing",
    "duration_minutes": 120,
    "rating": 4.0,
    "lat": 36.834451,
    "lon": 101.588739,
    "description": "地址: 鲍岗线 | 类别: 风景名胜;风景名胜;回教寺",
    "city": "西宁"
  },
  {
    "name": "西宁小动物保护中心新址",
    "category": "sightseeing",
    "duration_minutes": 120,
    "rating": 4.0,
    "lat": 36.69169,
    "lon": 101.73961,
    "description": "地址: 生物科技产业园海湖大道中田驾校 | 类别: 风景名胜;风景名胜相关;旅游景点",
    "city": "西宁"
  },
  {
    "name": "南川东路清真寺",
    "category": "sightseeing",
    "duration_minutes": 120,
    "rating": 4.0,
    "lat": 36.603306,
    "lon": 101.766045,
    "description": "地址: 南川东路4号 | 类别: 风景名胜;风景名胜;回教寺",
    "city": "西宁"
  },
  {
    "name": "桥头公园",
    "category": "outdoor",
    "duration_minutes": 120,
    "rating": 4.0,
    "lat": 36.943886,
    "lon": 101.683538,
    "description": "地址: 惠林家园2单元30楼2302号 | 类别: 风景名胜;公园广场;公园",
    "city": "西宁"
  },
  {
    "name": "大通植物园",
    "category": "outdoor",
    "duration_minutes": 120,
    "rating": 4.0,
    "lat": 36.894315,
    "lon": 101.733929,
    "description": "电话: 0971-2761953 | 地址: 黎明路与二二七国道交汇处北700米 | 类别: 风景名胜;公园广场;植物园",
    "city": "西宁"
  },
  {
    "name": "边麻沟花海(暂停开放)",
    "category": "outdoor",
    "duration_minutes": 120,
    "rating": 4.0,
    "lat": 36.971536,
    "lon": 101.833898,
    "description": "电话: 0971-2826610 | 地址: 朔北乡边麻沟村 | 类别: 风景名胜;风景名胜相关;旅游景点",
    "city": "西宁"
  },
  {
    "name": "娘娘山景区",
    "category": "outdoor",
    "duration_minutes": 120,
    "rating": 4.0,
    "lat": 36.916979,
    "lon": 101.600738,
    "description": "地址: 娘娘山风景区 | 类别: 风景名胜;风景名胜;风景名胜",
    "city": "西宁"
  },
  {
    "name": "青藏高原野生动物园-长颈鹿馆",
    "category": "outdoor",
    "duration_minutes": 120,
    "rating": 4.0,
    "lat": 36.626702,
    "lon": 101.730597,
    "description": "地址: 行知路9号西宁野生动物园 | 类别: 风景名胜;公园广场;动物园",
    "city": "西宁"
  }
]