[
  {
    "name": "360°巨幕影院",
    "category": "sightseeing",
    "duration_minutes": 60,
    "rating": 4.0,
    "lat": 30.4977759,
    "lon": 104.0718878,
    "description": "A popular sightseeing spot in Chengdu.",
    "city": "Chengdu"
  },
  {
    "name": "4D影院",
    "category": "sightseeing",
    "duration_minutes": 60,
    "rating": 4.0,
    "lat": 30.4964479,
    "lon": 104.0708541,
    "description": "A popular sightseeing spot in Chengdu.",
    "city": "Chengdu"
  },
  {
    "name": "4号烽火台",
    "category": "sightseeing",
    "duration_minutes": 60,
    "rating": 4.0,
    "lat": 30.6848454,
    "lon": 104.3657368,
    "description": "A popular sightseeing spot in Chengdu.",
    "city": "Chengdu"
  },
  {
    "name": "5号烽火台",
    "category": "sightseeing",
    "duration_minutes": 60,
    "rating": 4.0,
    "lat": 30.6875386,
    "lon": 104.3636199,
    "description": "A popular sightseeing spot in Chengdu.",
    "city": "Chengdu"
  },
  {
    "name": "65km/35km",
    "category": "outdoor",
    "duration_minutes": 60,
    "rating": 4.0,
    "lat": 30.7356759,
    "lon": 104.1866655,
    "description": "成都绕城绿道里程碑:\n顺时针65km\n逆时针35km",
    "city": "Chengdu"
  },
  {
    "name": "A4儿童艺术馆",
    "category": "sightseeing",
    "duration_minutes": 60,
    "rating": 4.0,
    "lat": 30.4693696,
    "lon": 104.0684839,
    "description": "A popular sightseeing spot in Chengdu.",
    "city": "Chengdu"
  },
  {
    "name": "Chongde Pavillion",
    "category": "history",
    "duration_minutes": 60,
    "rating": 4.0,
    "lat": 31.0089081,
    "lon": 103.6073015,
    "description": "A popular history spot in Chengdu.",
    "city": "Chengdu"
  },
  {
    "name": "Dragon Old Streets",
    "category": "sightseeing",
    "duration_minutes": 60,
    "rating": 4.0,
    "lat": 30.6656628,
    "lon": 104.0504025,
    "description": "A popular sightseeing spot in Chengdu.",
    "city": "Chengdu"
  },
  {
    "name": "Fangcao Cultural and Creative Block",
    "category": "sightseeing",
    "duration_minutes": 60,
    "rating": 4.0,
    "lat": 30.6318956,
    "lon": 104.0528137,
    "description": "A popular sightseeing spot in Chengdu.",
    "city": "Chengdu"
  },
  {
    "name": "I LOVE XHU",
    "category": "sightseeing",
    "duration_minutes": 60,
    "rating": 4.0,
    "lat": 30.7817289,
    "lon": 103.9562638,
    "description": "A popular sightseeing spot in Chengdu.",
    "city": "Chengdu"
  },
  {
    "name": "Lugou bamboo forest",
    "category": "sightseeing",
    "duration_minutes": 60,
    "rating": 4.0,
    "lat": 30.3571851,
    "lon": 103.315531,
    "description": "A popular sightseeing spot in Chengdu.",
    "city": "Chengdu"
  },
  {
    "name": "Museum of Contemporary Art",
    "category": "museum",
    "duration_minutes": 60,
    "rating": 4.0,
    "lat": 30.5487426,
    "lon": 104.0677415,
    "description": "A popular museum spot in Chengdu.",
    "city": "Chengdu"
  },
  {
    "name": "Panda Research Base",
    "category": "sightseeing",
    "duration_minutes": 60,
    "rating": 4.0,
    "lat": 30.7349442,
    "lon": 104.1443722,
    "description": "A popular sightseeing spot in Chengdu.",
    "city": "Chengdu"
  },
  {
    "name": "SP·7.8公里俱乐部",
    "category": "outdoor",
    "duration_minutes": 60,
    "rating": 4.0,
    "lat": 30.7344707,
    "lon": 103.7381104,
    "description": "A popular outdoor spot in Chengdu.",
    "city": "Chengdu"
  },
  {
    "name": "Sunac Snow Park",
    "category": "sightseeing",
    "duration_minutes": 60,
    "rating": 4.0,
    "lat": 30.9576652,
    "lon": 103.6198331,
    "description": "A popular sightseeing spot in Chengdu.",
    "city": "Chengdu"
  },
  {
    "name": "Sunac Water Park",
    "category": "sightseeing",
    "duration_minutes": 60,
    "rating": 4.0,
    "lat": 30.9580406,
    "lon": 103.620363,
    "description": "A popular sightseeing spot in Chengdu.",
    "city": "Chengdu"
  },
  {
    "name": "丁木沟大峡谷",
    "category": "sightseeing",
    "duration_minutes": 60,
    "rating": 4.0,
    "lat": 30.6937433,
    "lon": 103.2497437,
    "description": "A popular sightseeing spot in Chengdu.",
    "city": "Chengdu"
  },
  {
    "name": "万佛洞",
    "category": "outdoor",
    "duration_minutes": 60,
    "rating": 4.0,
    "lat": 30.9482493,
    "lon": 103.4809265,
    "description": "A popular outdoor spot in Chengdu.",
    "city": "Chengdu"
  },
  {
    "name": "三县衙门",
    "category": "outdoor",
    "duration_minutes": 60,
    "rating": 4.0,
    "lat": 30.3168184,
    "lon": 103.968966,
    "description": "A popular outdoor spot in Chengdu.",
    "city": "Chengdu"
  },
  {
    "name": "三和老爷车博物馆",
    "category": "museum",
    "duration_minutes": 60,
    "rating": 4.0,
    "lat": 30.6000359,
    "lon": 104.0395193,
    "description": "A popular museum spot in Chengdu.",
    "city": "Chengdu"
  },
  {
    "name": "三圣花乡",
    "category": "sightseeing",
    "duration_minutes": 60,
    "rating": 4.0,
    "lat": 30.5780846,
    "lon": 104.1477578,
    "description": "A popular sightseeing spot in Chengdu.",
    "city": "Chengdu"
  },
  {
    "name": "三洞古桥",
    "category": "outdoor",
    "duration_minutes": 60,
    "rating": 4.0,
    "lat": 30.6890327,
    "lon": 104.0922867,
    "description": "A popular outdoor spot in Chengdu.",
    "city": "Chengdu"
  },
  {
    "name": "三角草坪雕塑",
    "category": "history",
    "duration_minutes": 60,
    "rating": 4.0,
    "lat": 30.6757059,
    "lon": 104.1376258,
    "description": "A popular history spot in Chengdu.",
    "city": "Chengdu"
  },
  {
    "name": "三道堰青杠树景区-观景台",
    "category": "outdoor",
    "duration_minutes": 60,
    "rating": 4.0,
    "lat": 30.8400327,
    "lon": 103.9629023,
    "description": "A popular outdoor spot in Chengdu.",
    "city": "Chengdu"
  },
  {
    "name": "三道湾-观景台",
    "category": "outdoor",
    "duration_minutes": 60,
    "rating": 4.0,
    "lat": 30.27054,
    "lon": 103.1167536,
    "description": "A popular outdoor spot in Chengdu.",
    "city": "Chengdu"
  },
  {
    "name": "下马碑",
    "category": "history",
    "duration_minutes": 60,
    "rating": 4.0,
    "lat": 30.9285007,
    "lon": 103.8207075,
    "description": "A popular history spot in Chengdu.",
    "city": "Chengdu"
  },
  {
    "name": "东壹美术馆",
    "category": "sightseeing",
    "duration_minutes": 60,
    "rating": 4.0,
    "lat": 30.3145483,
    "lon": 104.3206345,
    "description": "A popular sightseeing spot in Chengdu.",
    "city": "Chengdu"
  },
  {
    "name": "东篱菊园",
    "category": "sightseeing",
    "duration_minutes": 60,
    "rating": 4.0,
    "lat": 30.5776612,
    "lon": 104.1361849,
    "description": "A popular sightseeing spot in Chengdu.",
    "city": "Chengdu"
  },
  {
    "name": "东部新区高明镇三大湾村观景台",
    "category": "outdoor",
    "duration_minutes": 60,
    "rating": 4.0,
    "lat": 30.4594255,
    "lon": 104.2735304,
    "description": "A popular outdoor spot in Chengdu.",
    "city": "Chengdu"
  },
  {
    "name": "东阳桥遗址",
    "category": "history",
    "duration_minutes": 60,
    "rating": 4.0,
    "lat": 30.4599217,
    "lon": 104.2279353,
    "description": "断桥文物，有龟首雕塑。",
    "city": "Chengdu"
  },
  {
    "name": "东风4型内燃机车DF4-7019",
    "category": "sightseeing",
    "duration_minutes": 60,
    "rating": 4.0,
    "lat": 30.7635856,
    "lon": 103.9897256,
    "description": "A popular sightseeing spot in Chengdu.",
    "city": "Chengdu"
  },
  {
    "name": "中华大熊猫苑",
    "category": "outdoor",
    "duration_minutes": 60,
    "rating": 4.0,
    "lat": 30.8631893,
    "lon": 103.5723363,
    "description": "A popular outdoor spot in Chengdu.",
    "city": "Chengdu"
  },
  {
    "name": "中国-欧洲 中心",
    "category": "sightseeing",
    "duration_minutes": 60,
    "rating": 4.0,
    "lat": 30.5392649,
    "lon": 104.0681882,
    "description": "A popular sightseeing spot in Chengdu.",
    "city": "Chengdu"
  },
  {
    "name": "中国工业航空三线博物馆",
    "category": "museum",
    "duration_minutes": 60,
    "rating": 4.0,
    "lat": 30.5031327,
    "lon": 103.6146427,
    "description": "A popular museum spot in Chengdu.",
    "city": "Chengdu"
  },
  {
    "name": "中国民主同盟成都史实陈列馆",
    "category": "museum",
    "duration_minutes": 60,
    "rating": 4.0,
    "lat": 30.5300074,
    "lon": 104.0360383,
    "description": "A popular museum spot in Chengdu.",
    "city": "Chengdu"
  },
  {
    "name": "中国艺库牌坊",
    "category": "outdoor",
    "duration_minutes": 60,
    "rating": 4.0,
    "lat": 30.6420732,
    "lon": 104.3210047,
    "description": "A popular outdoor spot in Chengdu.",
    "city": "Chengdu"
  },
  {
    "name": "中国虎标行艺术馆",
    "category": "sightseeing",
    "duration_minutes": 60,
    "rating": 4.0,
    "lat": 30.5717887,
    "lon": 104.1543217,
    "description": "A popular sightseeing spot in Chengdu.",
    "city": "Chengdu"
  },
  {
    "name": "中心公园-观景台",
    "category": "outdoor",
    "duration_minutes": 60,
    "rating": 4.0,
    "lat": 30.5903631,
    "lon": 103.9015871,
    "description": "A popular outdoor spot in Chengdu.",
    "city": "Chengdu"
  },
  {
    "name": "云日馆",
    "category": "sightseeing",
    "duration_minutes": 60,
    "rating": 4.0,
    "lat": 30.7448802,
    "lon": 104.1372468,
    "description": "A popular sightseeing spot in Chengdu.",
    "city": "Chengdu"
  },
  {
    "name": "云月馆",
    "category": "sightseeing",
    "duration_minutes": 60,
    "rating": 4.0,
    "lat": 30.7474786,
    "lon": 104.1284859,
    "description": "A popular sightseeing spot in Chengdu.",
    "city": "Chengdu"
  },
  {
    "name": "五代前蜀皇帝王建谥宝石雕",
    "category": "history",
    "duration_minutes": 60,
    "rating": 4.0,
    "lat": 30.675424,
    "lon": 104.0455121,
    "description": "A popular history spot in Chengdu.",
    "city": "Chengdu"
  },
  {
    "name": "五洞天",
    "category": "sightseeing",
    "duration_minutes": 60,
    "rating": 4.0,
    "lat": 30.9044234,
    "lon": 103.5596269,
    "description": "A popular sightseeing spot in Chengdu.",
    "city": "Chengdu"
  },
  {
    "name": "交大磁浮CFC-01",
    "category": "sightseeing",
    "duration_minutes": 60,
    "rating": 4.0,
    "lat": 30.7645276,
    "lon": 103.9892787,
    "description": "A popular sightseeing spot in Chengdu.",
    "city": "Chengdu"
  },
  {
    "name": "仰天窝鱼嘴",
    "category": "history",
    "duration_minutes": 60,
    "rating": 4.0,
    "lat": 30.9980087,
    "lon": 103.6185319,
    "description": "A popular history spot in Chengdu.",
    "city": "Chengdu"
  },
  {
    "name": "企鹅馆",
    "category": "sightseeing",
    "duration_minutes": 60,
    "rating": 4.0,
    "lat": 30.7108723,
    "lon": 104.1020049,
    "description": "A popular sightseeing spot in Chengdu.",
    "city": "Chengdu"
  },
  {
    "name": "保利198公园-观景台",
    "category": "outdoor",
    "duration_minutes": 60,
    "rating": 4.0,
    "lat": 30.7467372,
    "lon": 104.1478238,
    "description": "A popular outdoor spot in Chengdu.",
    "city": "Chengdu"
  },
  {
    "name": "元通古镇",
    "category": "outdoor",
    "duration_minutes": 60,
    "rating": 4.0,
    "lat": 30.7356429,
    "lon": 103.6219799,
    "description": "A popular outdoor spot in Chengdu.",
    "city": "Chengdu"
  },
  {
    "name": "全真观-观景台",
    "category": "outdoor",
    "duration_minutes": 60,
    "rating": 4.0,
    "lat": 30.9044402,
    "lon": 103.5627505,
    "description": "A popular outdoor spot in Chengdu.",
    "city": "Chengdu"
  },
  {
    "name": "农博岛观景台",
    "category": "outdoor",
    "duration_minutes": 60,
    "rating": 4.0,
    "lat": 30.5105444,
    "lon": 103.7938294,
    "description": "A popular outdoor spot in Chengdu.",
    "city": "Chengdu"
  },
  {
    "name": "凤栖谷·落花溪畔乐园",
    "category": "outdoor",
    "duration_minutes": 60,
    "rating": 4.0,
    "lat": 30.6751405,
    "lon": 103.8459401,
    "description": "A popular outdoor spot in Chengdu.",
    "city": "Chengdu"
  },
  {
    "name": "刘公馆",
    "category": "outdoor",
    "duration_minutes": 60,
    "rating": 4.0,
    "lat": 30.8518836,
    "lon": 103.8434722,
    "description": "A popular outdoor spot in Chengdu.",
    "city": "Chengdu"
  },
  {
    "name": "刘存厚公馆",
    "category": "history",
    "duration_minutes": 60,
    "rating": 4.0,
    "lat": 30.6765792,
    "lon": 104.0737749,
    "description": "A popular history spot in Chengdu.",
    "city": "Chengdu"
  },
  {
    "name": "刘文彩公馆",
    "category": "sightseeing",
    "duration_minutes": 60,
    "rating": 4.0,
    "lat": 30.5080047,
    "lon": 103.6265126,
    "description": "A popular sightseeing spot in Chengdu.",
    "city": "Chengdu"
  },
  {
    "name": "刘文成公馆",
    "category": "sightseeing",
    "duration_minutes": 60,
    "rating": 4.0,
    "lat": 30.5085862,
    "lon": 103.6257149,
    "description": "A popular sightseeing spot in Chengdu.",
    "city": "Chengdu"
  },
  {
    "name": "刘文昭公馆",
    "category": "sightseeing",
    "duration_minutes": 60,
    "rating": 4.0,
    "lat": 30.5088487,
    "lon": 103.625624,
    "description": "A popular sightseeing spot in Chengdu.",
    "city": "Chengdu"
  },
  {
    "name": "刘文渊公馆",
    "category": "sightseeing",
    "duration_minutes": 60,
    "rating": 4.0,
    "lat": 30.5083252,
    "lon": 103.6254771,
    "description": "A popular sightseeing spot in Chengdu.",
    "city": "Chengdu"
  },
  {
    "name": "刘文辉公馆延庆园",
    "category": "museum",
    "duration_minutes": 60,
    "rating": 4.0,
    "lat": 30.5124842,
    "lon": 103.62464,
    "description": "A popular museum spot in Chengdu.",
    "city": "Chengdu"
  },
  {
    "name": "刘文辉旧居陈列馆",
    "category": "museum",
    "duration_minutes": 60,
    "rating": 4.0,
    "lat": 30.5130042,
    "lon": 103.624804,
    "description": "A popular museum spot in Chengdu.",
    "city": "Chengdu"
  },
  {
    "name": "刘氏庄园",
    "category": "sightseeing",
    "duration_minutes": 60,
    "rating": 4.0,
    "lat": 30.5086743,
    "lon": 103.6263295,
    "description": "A popular sightseeing spot in Chengdu.",
    "city": "Chengdu"
  },
  {
    "name": "刘氏祖居",
    "category": "sightseeing",
    "duration_minutes": 60,
    "rating": 4.0,
    "lat": 30.5082217,
    "lon": 103.6253868,
    "description": "A popular sightseeing spot in Chengdu.",
    "city": "Chengdu"
  },
  {
    "name": "初见龙泉山",
    "category": "outdoor",
    "duration_minutes": 60,
    "rating": 4.0,
    "lat": 30.605869,
    "lon": 104.1567202,
    "description": "A popular outdoor spot in Chengdu.",
    "city": "Chengdu"
  },
  {
    "name": "动物王国",
    "category": "outdoor",
    "duration_minutes": 60,
    "rating": 4.0,
    "lat": 30.975498,
    "lon": 103.5996477,
    "description": "A popular outdoor spot in Chengdu.",
    "city": "Chengdu"
  },
  {
    "name": "北城门",
    "category": "sightseeing",
    "duration_minutes": 60,
    "rating": 4.0,
    "lat": 30.7494183,
    "lon": 104.4735818,
    "description": "A popular sightseeing spot in Chengdu.",
    "city": "Chengdu"
  },
  {
    "name": "北极村",
    "category": "sightseeing",
    "duration_minutes": 60,
    "rating": 4.0,
    "lat": 30.4960837,
    "lon": 104.0699235,
    "description": "A popular sightseeing spot in Chengdu.",
    "city": "Chengdu"
  },
  {
    "name": "北极熊馆",
    "category": "sightseeing",
    "duration_minutes": 60,
    "rating": 4.0,
    "lat": 30.4956519,
    "lon": 104.0700539,
    "description": "A popular sightseeing spot in Chengdu.",
    "city": "Chengdu"
  },
  {
    "name": "北海狮馆",
    "category": "sightseeing",
    "duration_minutes": 60,
    "rating": 4.0,
    "lat": 30.4964198,
    "lon": 104.0704707,
    "description": "A popular sightseeing spot in Chengdu.",
    "city": "Chengdu"
  },
  {
    "name": "十二桥烈士",
    "category": "history",
    "duration_minutes": 60,
    "rating": 4.0,
    "lat": 30.5804837,
    "lon": 103.8203927,
    "description": "A popular history spot in Chengdu.",
    "city": "Chengdu"
  },
  {
    "name": "十二桥烈士殉难地",
    "category": "history",
    "duration_minutes": 60,
    "rating": 4.0,
    "lat": 30.6650362,
    "lon": 104.0442238,
    "description": "A popular history spot in Chengdu.",
    "city": "Chengdu"
  },
  {
    "name": "华侨城创意文化园",
    "category": "outdoor",
    "duration_minutes": 60,
    "rating": 4.0,
    "lat": 30.5095685,
    "lon": 103.6200914,
    "description": "A popular outdoor spot in Chengdu.",
    "city": "Chengdu"
  },
  {
    "name": "华希昆虫博物馆",
    "category": "museum",
    "duration_minutes": 60,
    "rating": 4.0,
    "lat": 30.8977792,
    "lon": 103.5940174,
    "description": "A popular museum spot in Chengdu.",
    "city": "Chengdu"
  },
  {
    "name": "华熙LIVE·528·成都时代美术馆",
    "category": "sightseeing",
    "duration_minutes": 60,
    "rating": 4.0,
    "lat": 30.5953654,
    "lon": 104.1429429,
    "description": "A popular sightseeing spot in Chengdu.",
    "city": "Chengdu"
  },
  {
    "name": "华西口腔健康教育博物馆",
    "category": "museum",
    "duration_minutes": 60,
    "rating": 4.0,
    "lat": 30.646048,
    "lon": 104.0631167,
    "description": "A popular museum spot in Chengdu.",
    "city": "Chengdu"
  },
  {
    "name": "华西坝",
    "category": "sightseeing",
    "duration_minutes": 60,
    "rating": 4.0,
    "lat": 30.6417937,
    "lon": 104.066617,
    "description": "A popular sightseeing spot in Chengdu.",
    "city": "Chengdu"
  },
  {
    "name": "南城门",
    "category": "sightseeing",
    "duration_minutes": 60,
    "rating": 4.0,
    "lat": 30.7370509,
    "lon": 104.4866514,
    "description": "A popular sightseeing spot in Chengdu.",
    "city": "Chengdu"
  },
  {
    "name": "南天门",
    "category": "outdoor",
    "duration_minutes": 60,
    "rating": 4.0,
    "lat": 31.3394606,
    "lon": 103.8436951,
    "description": "A popular outdoor spot in Chengdu.",
    "city": "Chengdu"
  },
  {
    "name": "卧佛洞",
    "category": "outdoor",
    "duration_minutes": 60,
    "rating": 4.0,
    "lat": 30.9462552,
    "lon": 103.4763622,
    "description": "A popular outdoor spot in Chengdu.",
    "city": "Chengdu"
  },
  {
    "name": "原聚兴诚银行祠堂街办事处暨国画家张采芹画室",
    "category": "sightseeing",
    "duration_minutes": 60,
    "rating": 4.0,
    "lat": 30.6593726,
    "lon": 104.0576153,
    "description": "A popular sightseeing spot in Chengdu.",
    "city": "Chengdu"
  },
  {
    "name": "双流追蝶记蝴蝶博物馆",
    "category": "museum",
    "duration_minutes": 60,
    "rating": 4.0,
    "lat": 30.5515405,
    "lon": 103.906146,
    "description": "A popular museum spot in Chengdu.",
    "city": "Chengdu"
  },
  {
    "name": "古戏台",
    "category": "sightseeing",
    "duration_minutes": 60,
    "rating": 4.0,
    "lat": 30.8158236,
    "lon": 103.554451,
    "description": "A popular sightseeing spot in Chengdu.",
    "city": "Chengdu"
  },
  {
    "name": "古蜀迷宫",
    "category": "sightseeing",
    "duration_minutes": 60,
    "rating": 4.0,
    "lat": 30.6367142,
    "lon": 104.1230367,
    "description": "A popular sightseeing spot in Chengdu.",
    "city": "Chengdu"
  },
  {
    "name": "合江亭",
    "category": "sightseeing",
    "duration_minutes": 60,
    "rating": 4.0,
    "lat": 30.6453519,
    "lon": 104.0812017,
    "description": "A popular sightseeing spot in Chengdu.",
    "city": "Chengdu"
  },
  {
    "name": "同心观景台",
    "category": "outdoor",
    "duration_minutes": 60,
    "rating": 4.0,
    "lat": 31.0670195,
    "lon": 103.6934894,
    "description": "A popular outdoor spot in Chengdu.",
    "city": "Chengdu"
  },
  {
    "name": "唐代遗址",
    "category": "history",
    "duration_minutes": 60,
    "rating": 4.0,
    "lat": 30.6640566,
    "lon": 104.0258812,
    "description": "A popular history spot in Chengdu.",
    "city": "Chengdu"
  },
  {
    "name": "嘉裕羊马湿地公园-观景台",
    "category": "outdoor",
    "duration_minutes": 60,
    "rating": 4.0,
    "lat": 30.649856,
    "lon": 103.7573406,
    "description": "A popular outdoor spot in Chengdu.",
    "city": "Chengdu"
  },
  {
    "name": "四川中国书画美术馆",
    "category": "sightseeing",
    "duration_minutes": 60,
    "rating": 4.0,
    "lat": 30.660226,
    "lon": 104.0389742,
    "description": "A popular sightseeing spot in Chengdu.",
    "city": "Chengdu"
  },
  {
    "name": "四川博物院",
    "category": "museum",
    "duration_minutes": 60,
    "rating": 4.0,
    "lat": 30.6631852,
    "lon": 104.031695,
    "description": "A popular museum spot in Chengdu.",
    "city": "Chengdu"
  },
  {
    "name": "四川名人馆(建设中)",
    "category": "museum",
    "duration_minutes": 60,
    "rating": 4.0,
    "lat": 30.4294952,
    "lon": 104.0642986,
    "description": "A popular museum spot in Chengdu.",
    "city": "Chengdu"
  },
  {
    "name": "四川大学革命烈士纪念碑",
    "category": "history",
    "duration_minutes": 60,
    "rating": 4.0,
    "lat": 30.6323087,
    "lon": 104.0873826,
    "description": "A popular history spot in Chengdu.",
    "city": "Chengdu"
  },
  {
    "name": "四川天府新区明昌博物馆华阳文博馆",
    "category": "museum",
    "duration_minutes": 60,
    "rating": 4.0,
    "lat": 30.4968294,
    "lon": 104.0412821,
    "description": "A popular museum spot in Chengdu.",
    "city": "Chengdu"
  },
  {
    "name": "四川当代美术馆",
    "category": "sightseeing",
    "duration_minutes": 60,
    "rating": 4.0,
    "lat": 30.7054535,
    "lon": 104.0314331,
    "description": "A popular sightseeing spot in Chengdu.",
    "city": "Chengdu"
  },
  {
    "name": "四川省诗书画院",
    "category": "sightseeing",
    "duration_minutes": 60,
    "rating": 4.0,
    "lat": 30.6599672,
    "lon": 104.0388458,
    "description": "A popular sightseeing spot in Chengdu.",
    "city": "Chengdu"
  },
  {
    "name": "四川省防灾减灾教育馆",
    "category": "museum",
    "duration_minutes": 60,
    "rating": 4.0,
    "lat": 30.6313285,
    "lon": 104.0144675,
    "description": "A popular museum spot in Chengdu.",
    "city": "Chengdu"
  },
  {
    "name": "四川福宝美术馆",
    "category": "sightseeing",
    "duration_minutes": 60,
    "rating": 4.0,
    "lat": 30.64708,
    "lon": 104.1315032,
    "description": "A popular sightseeing spot in Chengdu.",
    "city": "Chengdu"
  },
  {
    "name": "四川科技馆",
    "category": "museum",
    "duration_minutes": 60,
    "rating": 4.0,
    "lat": 30.6624305,
    "lon": 104.0633009,
    "description": "A popular museum spot in Chengdu.",
    "city": "Chengdu"
  },
  {
    "name": "四川美术社砖楼",
    "category": "sightseeing",
    "duration_minutes": 60,
    "rating": 4.0,
    "lat": 30.6595674,
    "lon": 104.0573747,
    "description": "A popular sightseeing spot in Chengdu.",
    "city": "Chengdu"
  },
  {
    "name": "四川钱币展厅",
    "category": "outdoor",
    "duration_minutes": 60,
    "rating": 4.0,
    "lat": 30.5111692,
    "lon": 103.6270861,
    "description": "A popular outdoor spot in Chengdu.",
    "city": "Chengdu"
  },
  {
    "name": "四望观",
    "category": "outdoor",
    "duration_minutes": 60,
    "rating": 4.0,
    "lat": 30.9131266,
    "lon": 103.564876,
    "description": "A popular outdoor spot in Chengdu.",
    "city": "Chengdu"
  },
  {
    "name": "国保碑",
    "category": "history",
    "duration_minutes": 60,
    "rating": 4.0,
    "lat": 30.6817495,
    "lon": 104.0096211,
    "description": "A popular history spot in Chengdu.",
    "city": "Chengdu"
  },
  {
    "name": "国色天乡·童话世界",
    "category": "outdoor",
    "duration_minutes": 60,
    "rating": 4.0,
    "lat": 30.7256769,
    "lon": 103.826589,
    "description": "A popular outdoor spot in Chengdu.",
    "city": "Chengdu"
  },
  {
    "name": "国色天乡·陆地乐园",
    "category": "outdoor",
    "duration_minutes": 60,
    "rating": 4.0,
    "lat": 30.7252342,
    "lon": 103.8194176,
    "description": "A popular outdoor spot in Chengdu.",
    "city": "Chengdu"
  },
  {
    "name": "国防兵器馆",
    "category": "museum",
    "duration_minutes": 60,
    "rating": 4.0,
    "lat": 30.5017589,
    "lon": 103.6155765,
    "description": "A popular museum spot in Chengdu.",
    "city": "Chengdu"
  },
  {
    "name": "国防科技园石刻",
    "category": "history",
    "duration_minutes": 60,
    "rating": 4.0,
    "lat": 30.7569569,
    "lon": 103.9256694,
    "description": "A popular history spot in Chengdu.",
    "city": "Chengdu"
  },
  {
    "name": "图灵卡丁车体验中心",
    "category": "outdoor",
    "duration_minutes": 60,
    "rating": 4.0,
    "lat": 30.3427904,
    "lon": 103.3490731,
    "description": "A popular outdoor spot in Chengdu.",
    "city": "Chengdu"
  },
  {
    "name": "土楼广场-观景台",
    "category": "outdoor",
    "duration_minutes": 60,
    "rating": 4.0,
    "lat": 30.6379934,
    "lon": 104.32635,
    "description": "A popular outdoor spot in Chengdu.",
    "city": "Chengdu"
  },
  {
    "name": "坐虎针龙",
    "category": "sightseeing",
    "duration_minutes": 60,
    "rating": 4.0,
    "lat": 30.9014087,
    "lon": 103.5653121,
    "description": "A popular sightseeing spot in Chengdu.",
    "city": "Chengdu"
  },
  {
    "name": "域上和美艺术馆",
    "category": "sightseeing",
    "duration_minutes": 60,
    "rating": 4.0,
    "lat": 30.6209902,
    "lon": 104.0860133,
    "description": "A popular sightseeing spot in Chengdu.",
    "city": "Chengdu"
  },
  {
    "name": "壮观台",
    "category": "outdoor",
    "duration_minutes": 60,
    "rating": 4.0,
    "lat": 30.9082886,
    "lon": 103.5568806,
    "description": "A popular outdoor spot in Chengdu.",
    "city": "Chengdu"
  },
  {
    "name": "夜合岗云海观景台",
    "category": "outdoor",
    "duration_minutes": 60,
    "rating": 4.0,
    "lat": 30.2801267,
    "lon": 103.1436234,
    "description": "A popular outdoor spot in Chengdu.",
    "city": "Chengdu"
  },
  {
    "name": "大椿巷",
    "category": "sightseeing",
    "duration_minutes": 60,
    "rating": 4.0,
    "lat": 30.9282849,
    "lon": 103.8218682,
    "description": "A popular sightseeing spot in Chengdu.",
    "city": "Chengdu"
  },
  {
    "name": "大熊猫2号别墅",
    "category": "sightseeing",
    "duration_minutes": 60,
    "rating": 4.0,
    "lat": 30.7409705,
    "lon": 104.1387079,
    "description": "A popular sightseeing spot in Chengdu.",
    "city": "Chengdu"
  },
  {
    "name": "大熊猫3号别墅",
    "category": "sightseeing",
    "duration_minutes": 60,
    "rating": 4.0,
    "lat": 30.7394206,
    "lon": 104.1428333,
    "description": "A popular sightseeing spot in Chengdu.",
    "city": "Chengdu"
  },
  {
    "name": "大熊猫4号别墅",
    "category": "sightseeing",
    "duration_minutes": 60,
    "rating": 4.0,
    "lat": 30.7391317,
    "lon": 104.1419369,
    "description": "A popular sightseeing spot in Chengdu.",
    "city": "Chengdu"
  },
  {
    "name": "大熊猫5号别墅",
    "category": "sightseeing",
    "duration_minutes": 60,
    "rating": 4.0,
    "lat": 30.738674,
    "lon": 104.1413258,
    "description": "A popular sightseeing spot in Chengdu.",
    "city": "Chengdu"
  },
  {
    "name": "大熊猫6号别墅",
    "category": "sightseeing",
    "duration_minutes": 60,
    "rating": 4.0,
    "lat": 30.7392162,
    "lon": 104.1409556,
    "description": "A popular sightseeing spot in Chengdu.",
    "city": "Chengdu"
  },
  {
    "name": "大熊猫7号别墅",
    "category": "sightseeing",
    "duration_minutes": 60,
    "rating": 4.0,
    "lat": 30.7377059,
    "lon": 104.1404429,
    "description": "A popular sightseeing spot in Chengdu.",
    "city": "Chengdu"
  },
  {
    "name": "大熊猫一号别墅",
    "category": "sightseeing",
    "duration_minutes": 60,
    "rating": 4.0,
    "lat": 30.7397184,
    "lon": 104.136144,
    "description": "A popular sightseeing spot in Chengdu.",
    "city": "Chengdu"
  },
  {
    "name": "大熊猫博物馆",
    "category": "museum",
    "duration_minutes": 60,
    "rating": 4.0,
    "lat": 30.7358596,
    "lon": 104.1440221,
    "description": "A popular museum spot in Chengdu.",
    "city": "Chengdu"
  },
  {
    "name": "大熊猫太阳产房",
    "category": "sightseeing",
    "duration_minutes": 60,
    "rating": 4.0,
    "lat": 30.7400072,
    "lon": 104.140921,
    "description": "A popular sightseeing spot in Chengdu.",
    "city": "Chengdu"
  },
  {
    "name": "大熊猫星星产房",
    "category": "sightseeing",
    "duration_minutes": 60,
    "rating": 4.0,
    "lat": 30.748529,
    "lon": 104.1359921,
    "description": "A popular sightseeing spot in Chengdu.",
    "city": "Chengdu"
  },
  {
    "name": "大熊猫月亮产房",
    "category": "sightseeing",
    "duration_minutes": 60,
    "rating": 4.0,
    "lat": 30.7418672,
    "lon": 104.1369981,
    "description": "A popular sightseeing spot in Chengdu.",
    "city": "Chengdu"
  },
  {
    "name": "大象馆",
    "category": "sightseeing",
    "duration_minutes": 60,
    "rating": 4.0,
    "lat": 30.7107011,
    "lon": 104.1057207,
    "description": "A popular sightseeing spot in Chengdu.",
    "city": "Chengdu"
  },
  {
    "name": "天台",
    "category": "history",
    "duration_minutes": 60,
    "rating": 4.0,
    "lat": 30.2615605,
    "lon": 103.0937517,
    "description": "A popular history spot in Chengdu.",
    "city": "Chengdu"
  },
  {
    "name": "天师洞",
    "category": "sightseeing",
    "duration_minutes": 60,
    "rating": 4.0,
    "lat": 30.9045615,
    "lon": 103.5587163,
    "description": "A popular sightseeing spot in Chengdu.",
    "city": "Chengdu"
  },
  {
    "name": "天府中医药博物馆",
    "category": "museum",
    "duration_minutes": 60,
    "rating": 4.0,
    "lat": 30.9445942,
    "lon": 103.9647995,
    "description": "A popular museum spot in Chengdu.",
    "city": "Chengdu"
  },
  {
    "name": "天府新区三星观景台",
    "category": "outdoor",
    "duration_minutes": 60,
    "rating": 4.0,
    "lat": 30.3078986,
    "lon": 104.1701167,
    "description": "A popular outdoor spot in Chengdu.",
    "city": "Chengdu"
  },
  {
    "name": "天府新区丹景山狮子宝观景台",
    "category": "outdoor",
    "duration_minutes": 60,
    "rating": 4.0,
    "lat": 30.3786486,
    "lon": 104.1792258,
    "description": "A popular outdoor spot in Chengdu.",
    "city": "Chengdu"
  },
  {
    "name": "天府熊猫塔",
    "category": "sightseeing",
    "duration_minutes": 60,
    "rating": 4.0,
    "lat": 30.6646911,
    "lon": 104.0921058,
    "description": "A popular sightseeing spot in Chengdu.",
    "city": "Chengdu"
  },
  {
    "name": "天府绿道0公里",
    "category": "sightseeing",
    "duration_minutes": 60,
    "rating": 4.0,
    "lat": 30.5672145,
    "lon": 104.0661534,
    "description": "A popular sightseeing spot in Chengdu.",
    "city": "Chengdu"
  },
  {
    "name": "天然图画",
    "category": "sightseeing",
    "duration_minutes": 60,
    "rating": 4.0,
    "lat": 30.9013937,
    "lon": 103.5656069,
    "description": "A popular sightseeing spot in Chengdu.",
    "city": "Chengdu"
  },
  {
    "name": "太和云海观景台",
    "category": "outdoor",
    "duration_minutes": 60,
    "rating": 4.0,
    "lat": 30.2144181,
    "lon": 103.1280902,
    "description": "A popular outdoor spot in Chengdu.",
    "city": "Chengdu"
  },
  {
    "name": "奥普乐水上乐园",
    "category": "outdoor",
    "duration_minutes": 60,
    "rating": 4.0,
    "lat": 30.7628102,
    "lon": 104.1659746,
    "description": "A popular outdoor spot in Chengdu.",
    "city": "Chengdu"
  },
  {
    "name": "好秾人·鹅的假日农场",
    "category": "outdoor",
    "duration_minutes": 60,
    "rating": 4.0,
    "lat": 30.7045348,
    "lon": 104.2640077,
    "description": "A popular outdoor spot in Chengdu.",
    "city": "Chengdu"
  },
  {
    "name": "孔子",
    "category": "history",
    "duration_minutes": 60,
    "rating": 4.0,
    "lat": 30.6117507,
    "lon": 104.1187486,
    "description": "A popular history spot in Chengdu.",
    "city": "Chengdu"
  },
  {
    "name": "孔明苑",
    "category": "sightseeing",
    "duration_minutes": 60,
    "rating": 4.0,
    "lat": 30.6488961,
    "lon": 104.0465035,
    "description": "A popular sightseeing spot in Chengdu.",
    "city": "Chengdu"
  },
  {
    "name": "孔雀",
    "category": "sightseeing",
    "duration_minutes": 60,
    "rating": 4.0,
    "lat": 30.7109815,
    "lon": 104.100851,
    "description": "A popular sightseeing spot in Chengdu.",
    "city": "Chengdu"
  },
  {
    "name": "字库塔",
    "category": "sightseeing",
    "duration_minutes": 60,
    "rating": 4.0,
    "lat": 30.8141466,
    "lon": 103.5558645,
    "description": "A popular sightseeing spot in Chengdu.",
    "city": "Chengdu"
  },
  {
    "name": "孙中山像",
    "category": "history",
    "duration_minutes": 60,
    "rating": 4.0,
    "lat": 30.6575789,
    "lon": 104.0744755,
    "description": "A popular history spot in Chengdu.",
    "city": "Chengdu"
  },
  {
    "name": "安仁古镇",
    "category": "outdoor",
    "duration_minutes": 60,
    "rating": 4.0,
    "lat": 30.5118121,
    "lon": 103.6171906,
    "description": "A popular outdoor spot in Chengdu.",
    "city": "Chengdu"
  },
  {
    "name": "安顺廊桥",
    "category": "sightseeing",
    "duration_minutes": 60,
    "rating": 4.0,
    "lat": 30.644143,
    "lon": 104.0834347,
    "description": "A popular sightseeing spot in Chengdu.",
    "city": "Chengdu"
  },
  {
    "name": "宝山展厅",
    "category": "museum",
    "duration_minutes": 60,
    "rating": 4.0,
    "lat": 31.2396211,
    "lon": 103.7786974,
    "description": "A popular museum spot in Chengdu.",
    "city": "Chengdu"
  },
  {
    "name": "宝瓶口",
    "category": "sightseeing",
    "duration_minutes": 60,
    "rating": 4.0,
    "lat": 31.0011322,
    "lon": 103.6105647,
    "description": "A popular sightseeing spot in Chengdu.",
    "city": "Chengdu"
  },
  {
    "name": "宝胜葡萄基地观景瞭望台",
    "category": "outdoor",
    "duration_minutes": 60,
    "rating": 4.0,
    "lat": 30.6672948,
    "lon": 104.3012291,
    "description": "A popular outdoor spot in Chengdu.",
    "city": "Chengdu"
  },
  {
    "name": "宝藏湖泊",
    "category": "sightseeing",
    "duration_minutes": 60,
    "rating": 4.0,
    "lat": 30.7391273,
    "lon": 104.140316,
    "description": "A popular sightseeing spot in Chengdu.",
    "city": "Chengdu"
  },
  {
    "name": "宽窄巷子",
    "category": "sightseeing",
    "duration_minutes": 60,
    "rating": 4.0,
    "lat": 30.6660531,
    "lon": 104.0510024,
    "description": "A popular sightseeing spot in Chengdu.",
    "city": "Chengdu"
  },
  {
    "name": "密林金丝猴馆",
    "category": "sightseeing",
    "duration_minutes": 60,
    "rating": 4.0,
    "lat": 30.7491924,
    "lon": 104.1324663,
    "description": "A popular sightseeing spot in Chengdu.",
    "city": "Chengdu"
  },
  {
    "name": "富强村晴霞山顶360度观景台",
    "category": "outdoor",
    "duration_minutes": 60,
    "rating": 4.0,
    "lat": 30.7346434,
    "lon": 103.4564273,
    "description": "A popular outdoor spot in Chengdu.",
    "city": "Chengdu"
  },
  {
    "name": "寿安陈家大院",
    "category": "sightseeing",
    "duration_minutes": 60,
    "rating": 4.0,
    "lat": 30.823926,
    "lon": 103.7399747,
    "description": "A popular sightseeing spot in Chengdu.",
    "city": "Chengdu"
  },
  {
    "name": "小岛动物农场",
    "category": "outdoor",
    "duration_minutes": 60,
    "rating": 4.0,
    "lat": 30.4619374,
    "lon": 104.0629402,
    "description": "A popular outdoor spot in Chengdu.",
    "city": "Chengdu"
  },
  {
    "name": "小熊猫1号活动场",
    "category": "sightseeing",
    "duration_minutes": 60,
    "rating": 4.0,
    "lat": 30.7385083,
    "lon": 104.1396218,
    "description": "A popular sightseeing spot in Chengdu.",
    "city": "Chengdu"
  },
  {
    "name": "小熊猫2号活动场",
    "category": "sightseeing",
    "duration_minutes": 60,
    "rating": 4.0,
    "lat": 30.7396145,
    "lon": 104.1385655,
    "description": "A popular sightseeing spot in Chengdu.",
    "city": "Chengdu"
  },
  {
    "name": "小熊猫产房",
    "category": "sightseeing",
    "duration_minutes": 60,
    "rating": 4.0,
    "lat": 30.7399072,
    "lon": 104.1378121,
    "description": "A popular sightseeing spot in Chengdu.",
    "city": "Chengdu"
  },
  {
    "name": "小熊猫园",
    "category": "sightseeing",
    "duration_minutes": 60,
    "rating": 4.0,
    "lat": 30.7435553,
    "lon": 104.1332383,
    "description": "A popular sightseeing spot in Chengdu.",
    "city": "Chengdu"
  },
  {
    "name": "尖尖山观景台",
    "category": "outdoor",
    "duration_minutes": 60,
    "rating": 4.0,
    "lat": 30.8534936,
    "lon": 104.4828612,
    "description": "A popular outdoor spot in Chengdu.",
    "city": "Chengdu"
  },
  {
    "name": "山月馆",
    "category": "sightseeing",
    "duration_minutes": 60,
    "rating": 4.0,
    "lat": 30.7474095,
    "lon": 104.1271883,
    "description": "A popular sightseeing spot in Chengdu.",
    "city": "Chengdu"
  },
  {
    "name": "山魈馆",
    "category": "sightseeing",
    "duration_minutes": 60,
    "rating": 4.0,
    "lat": 30.7123142,
    "lon": 104.10391,
    "description": "A popular sightseeing spot in Chengdu.",
    "city": "Chengdu"
  },
  {
    "name": "峨眉山门",
    "category": "sightseeing",
    "duration_minutes": 60,
    "rating": 4.0,
    "lat": 30.5823744,
    "lon": 104.2739554,
    "description": "A popular sightseeing spot in Chengdu.",
    "city": "Chengdu"
  },
  {
    "name": "川音1939艺术馆",
    "category": "sightseeing",
    "duration_minutes": 60,
    "rating": 4.0,
    "lat": 30.8068734,
    "lon": 104.1766846,
    "description": "A popular sightseeing spot in Chengdu.",
    "city": "Chengdu"
  },
  {
    "name": "巴金纪念馆",
    "category": "museum",
    "duration_minutes": 60,
    "rating": 4.0,
    "lat": 30.5718234,
    "lon": 104.2683216,
    "description": "A popular museum spot in Chengdu.",
    "city": "Chengdu"
  },
  {
    "name": "平乐骑龙山古道国保碑",
    "category": "history",
    "duration_minutes": 60,
    "rating": 4.0,
    "lat": 30.3468389,
    "lon": 103.3439215,
    "description": "A popular history spot in Chengdu.",
    "city": "Chengdu"
  },
  {
    "name": "平地观景",
    "category": "outdoor",
    "duration_minutes": 60,
    "rating": 4.0,
    "lat": 30.5621908,
    "lon": 104.3095577,
    "description": "A popular outdoor spot in Chengdu.",
    "city": "Chengdu"
  },
  {
    "name": "幸福梅林",
    "category": "sightseeing",
    "duration_minutes": 60,
    "rating": 4.0,
    "lat": 30.5856162,
    "lon": 104.1342863,
    "description": "A popular sightseeing spot in Chengdu.",
    "city": "Chengdu"
  },
  {
    "name": "广汇美术馆",
    "category": "sightseeing",
    "duration_minutes": 60,
    "rating": 4.0,
    "lat": 30.4390449,
    "lon": 104.077947,
    "description": "A popular sightseeing spot in Chengdu.",
    "city": "Chengdu"
  },
  {
    "name": "庆龄码头观景台",
    "category": "outdoor",
    "duration_minutes": 60,
    "rating": 4.0,
    "lat": 30.6462968,
    "lon": 104.0813295,
    "description": "A popular outdoor spot in Chengdu.",
    "city": "Chengdu"
  },
  {
    "name": "应家碾绿道观景台",
    "category": "outdoor",
    "duration_minutes": 60,
    "rating": 4.0,
    "lat": 30.8875967,
    "lon": 103.8551609,
    "description": "A popular outdoor spot in Chengdu.",
    "city": "Chengdu"
  },
  {
    "name": "建川博物馆聚落",
    "category": "outdoor",
    "duration_minutes": 60,
    "rating": 4.0,
    "lat": 30.502308,
    "lon": 103.6177827,
    "description": "A popular outdoor spot in Chengdu.",
    "city": "Chengdu"
  },
  {
    "name": "建设型蒸汽机车JS-8328",
    "category": "sightseeing",
    "duration_minutes": 60,
    "rating": 4.0,
    "lat": 30.7642246,
    "lon": 103.9890952,
    "description": "A popular sightseeing spot in Chengdu.",
    "city": "Chengdu"
  },
  {
    "name": "彭州博物馆",
    "category": "museum",
    "duration_minutes": 60,
    "rating": 4.0,
    "lat": 30.9899902,
    "lon": 103.9277537,
    "description": "A popular museum spot in Chengdu.",
    "city": "Chengdu"
  },
  {
    "name": "悯农原乡·自然生态亲子研学基地",
    "category": "outdoor",
    "duration_minutes": 60,
    "rating": 4.0,
    "lat": 30.7057849,
    "lon": 103.7602073,
    "description": "A popular outdoor spot in Chengdu.",
    "city": "Chengdu"
  },
  {
    "name": "惠里",
    "category": "outdoor",
    "duration_minutes": 60,
    "rating": 4.0,
    "lat": 30.869526,
    "lon": 103.913283,
    "description": "A popular outdoor spot in Chengdu.",
    "city": "Chengdu"
  },
  {
    "name": "成都动物园",
    "category": "outdoor",
    "duration_minutes": 60,
    "rating": 4.0,
    "lat": 30.7120685,
    "lon": 104.1037115,
    "description": "A popular outdoor spot in Chengdu.",
    "city": "Chengdu"
  },
  {
    "name": "成都北湖洛嘉森乐园",
    "category": "outdoor",
    "duration_minutes": 60,
    "rating": 4.0,
    "lat": 30.7172963,
    "lon": 104.1477196,
    "description": "A popular outdoor spot in Chengdu.",
    "city": "Chengdu"
  },
  {
    "name": "成都十二月市博物馆",
    "category": "museum",
    "duration_minutes": 60,
    "rating": 4.0,
    "lat": 30.652107,
    "lon": 104.083437,
    "description": "A popular museum spot in Chengdu.",
    "city": "Chengdu"
  },
  {
    "name": "成都博物馆",
    "category": "museum",
    "duration_minutes": 60,
    "rating": 4.0,
    "lat": 30.659669,
    "lon": 104.0611267,
    "description": "A popular museum spot in Chengdu.",
    "city": "Chengdu"
  },
  {
    "name": "成都原点",
    "category": "sightseeing",
    "duration_minutes": 60,
    "rating": 4.0,
    "lat": 30.6720715,
    "lon": 104.0711941,
    "description": "A popular sightseeing spot in Chengdu.",
    "city": "Chengdu"
  },
  {
    "name": "成都大熊猫繁育研究基地",
    "category": "outdoor",
    "duration_minutes": 60,
    "rating": 4.0,
    "lat": 30.7432234,
    "lon": 104.1356578,
    "description": "A popular outdoor spot in Chengdu.",
    "city": "Chengdu"
  },
  {
    "name": "成都天台山旅游景区-观景台",
    "category": "outdoor",
    "duration_minutes": 60,
    "rating": 4.0,
    "lat": 30.2816,
    "lon": 103.1135441,
    "description": "A popular outdoor spot in Chengdu.",
    "city": "Chengdu"
  },
  {
    "name": "成都川菜博物馆",
    "category": "museum",
    "duration_minutes": 60,
    "rating": 4.0,
    "lat": 30.897923,
    "lon": 103.927885,
    "description": "A popular museum spot in Chengdu.",
    "city": "Chengdu"
  },
  {
    "name": "成都市李劼人故居纪念馆",
    "category": "museum",
    "duration_minutes": 60,
    "rating": 4.0,
    "lat": 30.6213985,
    "lon": 104.1224578,
    "description": "A popular museum spot in Chengdu.",
    "city": "Chengdu"
  },
  {
    "name": "成都市档案馆",
    "category": "museum",
    "duration_minutes": 60,
    "rating": 4.0,
    "lat": 30.6052575,
    "lon": 104.0691489,
    "description": "A popular museum spot in Chengdu.",
    "city": "Chengdu"
  },
  {
    "name": "成都市美术馆A馆",
    "category": "sightseeing",
    "duration_minutes": 60,
    "rating": 4.0,
    "lat": 30.7153124,
    "lon": 104.0221178,
    "description": "A popular sightseeing spot in Chengdu.",
    "city": "Chengdu"
  },
  {
    "name": "成都市美术馆B馆",
    "category": "sightseeing",
    "duration_minutes": 60,
    "rating": 4.0,
    "lat": 30.7123941,
    "lon": 104.0182448,
    "description": "A popular sightseeing spot in Chengdu.",
    "city": "Chengdu"
  },
  {
    "name": "成都市金牛区展览馆",
    "category": "museum",
    "duration_minutes": 60,
    "rating": 4.0,
    "lat": 30.702304,
    "lon": 104.0231566,
    "description": "A popular museum spot in Chengdu.",
    "city": "Chengdu"
  },
  {
    "name": "成都市锦江区第三大街社区美术馆",
    "category": "sightseeing",
    "duration_minutes": 60,
    "rating": 4.0,
    "lat": 30.6496641,
    "lon": 104.0960506,
    "description": "A popular sightseeing spot in Chengdu.",
    "city": "Chengdu"
  },
  {
    "name": "成都杜甫草堂博物馆-观景台",
    "category": "outdoor",
    "duration_minutes": 60,
    "rating": 4.0,
    "lat": 30.6638756,
    "lon": 104.0246176,
    "description": "A popular outdoor spot in Chengdu.",
    "city": "Chengdu"
  },
  {
    "name": "成都极地海洋公园",
    "category": "outdoor",
    "duration_minutes": 60,
    "rating": 4.0,
    "lat": 30.4969291,
    "lon": 104.0711065,
    "description": "A popular outdoor spot in Chengdu.",
    "city": "Chengdu"
  },
  {
    "name": "成都植物园-观景台",
    "category": "outdoor",
    "duration_minutes": 60,
    "rating": 4.0,
    "lat": 30.7659644,
    "lon": 104.1224504,
    "description": "A popular outdoor spot in Chengdu.",
    "city": "Chengdu"
  },
  {
    "name": "成都欢乐谷",
    "category": "sightseeing",
    "duration_minutes": 60,
    "rating": 4.0,
    "lat": 30.7238742,
    "lon": 104.029947,
    "description": "A popular sightseeing spot in Chengdu.",
    "city": "Chengdu"
  },
  {
    "name": "成都永陵博物馆",
    "category": "museum",
    "duration_minutes": 60,
    "rating": 4.0,
    "lat": 30.6777962,
    "lon": 104.0443055,
    "description": "A popular museum spot in Chengdu.",
    "city": "Chengdu"
  },
  {
    "name": "成都涛博物馆",
    "category": "museum",
    "duration_minutes": 60,
    "rating": 4.0,
    "lat": 30.6570296,
    "lon": 104.0403826,
    "description": "A popular museum spot in Chengdu.",
    "city": "Chengdu"
  },
  {
    "name": "成都烈士纪念馆",
    "category": "museum",
    "duration_minutes": 60,
    "rating": 4.0,
    "lat": 30.554248,
    "lon": 104.1200816,
    "description": "A popular museum spot in Chengdu.",
    "city": "Chengdu"
  },
  {
    "name": "成都理工大学",
    "category": "history",
    "duration_minutes": 60,
    "rating": 4.0,
    "lat": 30.6748858,
    "lon": 104.1356587,
    "description": "A popular history spot in Chengdu.",
    "city": "Chengdu"
  },
  {
    "name": "成都生态文明建设主题展馆初心馆",
    "category": "museum",
    "duration_minutes": 60,
    "rating": 4.0,
    "lat": 30.7703535,
    "lon": 104.0855093,
    "description": "A popular museum spot in Chengdu.",
    "city": "Chengdu"
  },
  {
    "name": "成都直升机博物馆",
    "category": "museum",
    "duration_minutes": 60,
    "rating": 4.0,
    "lat": 30.6033745,
    "lon": 104.0115289,
    "description": "A popular museum spot in Chengdu.",
    "city": "Chengdu"
  },
  {
    "name": "成都砖雕老地图",
    "category": "sightseeing",
    "duration_minutes": 60,
    "rating": 4.0,
    "lat": 30.6749724,
    "lon": 104.0709364,
    "description": "A popular sightseeing spot in Chengdu.",
    "city": "Chengdu"
  },
  {
    "name": "成都砚湖砚文化博物馆",
    "category": "museum",
    "duration_minutes": 60,
    "rating": 4.0,
    "lat": 30.5202825,
    "lon": 103.5997937,
    "description": "A popular museum spot in Chengdu.",
    "city": "Chengdu"
  },
  {
    "name": "成都自然博物馆",
    "category": "museum",
    "duration_minutes": 60,
    "rating": 4.0,
    "lat": 30.6806865,
    "lon": 104.1416318,
    "description": "A popular museum spot in Chengdu.",
    "city": "Chengdu"
  },
  {
    "name": "成都航空大世界",
    "category": "outdoor",
    "duration_minutes": 60,
    "rating": 4.0,
    "lat": 30.4509653,
    "lon": 104.0968686,
    "description": "A popular outdoor spot in Chengdu.",
    "city": "Chengdu"
  },
  {
    "name": "成都芯智慧音乐博物馆",
    "category": "museum",
    "duration_minutes": 60,
    "rating": 4.0,
    "lat": 30.5666798,
    "lon": 103.8892862,
    "description": "A popular museum spot in Chengdu.",
    "city": "Chengdu"
  },
  {
    "name": "成都融创乐园",
    "category": "outdoor",
    "duration_minutes": 60,
    "rating": 4.0,
    "lat": 30.9539168,
    "lon": 103.6206342,
    "description": "A popular outdoor spot in Chengdu.",
    "city": "Chengdu"
  },
  {
    "name": "成都隋唐窑址博物馆",
    "category": "museum",
    "duration_minutes": 60,
    "rating": 4.0,
    "lat": 30.6659751,
    "lon": 104.0386181,
    "description": "A popular museum spot in Chengdu.",
    "city": "Chengdu"
  },
  {
    "name": "成都露天音乐公园-观景看台",
    "category": "outdoor",
    "duration_minutes": 60,
    "rating": 4.0,
    "lat": 30.730413,
    "lon": 104.0756817,
    "description": "A popular outdoor spot in Chengdu.",
    "city": "Chengdu"
  },
  {
    "name": "成飞展厅",
    "category": "museum",
    "duration_minutes": 60,
    "rating": 4.0,
    "lat": 30.7014624,
    "lon": 103.9632268,
    "description": "A popular museum spot in Chengdu.",
    "city": "Chengdu"
  },
  {
    "name": "成飞赋",
    "category": "history",
    "duration_minutes": 60,
    "rating": 4.0,
    "lat": 30.7036913,
    "lon": 103.9544716,
    "description": "A popular history spot in Chengdu.",
    "city": "Chengdu"
  },
  {
    "name": "战旗五季花田景区-和尚坡观景台",
    "category": "outdoor",
    "duration_minutes": 60,
    "rating": 4.0,
    "lat": 30.9323152,
    "lon": 103.7811245,
    "description": "A popular outdoor spot in Chengdu.",
    "city": "Chengdu"
  },
  {
    "name": "战旗五季花田景区-横山观景台",
    "category": "outdoor",
    "duration_minutes": 60,
    "rating": 4.0,
    "lat": 30.9318871,
    "lon": 103.7816068,
    "description": "A popular outdoor spot in Chengdu.",
    "city": "Chengdu"
  },
  {
    "name": "拾野自然艺术博物馆",
    "category": "museum",
    "duration_minutes": 60,
    "rating": 4.0,
    "lat": 30.6644375,
    "lon": 104.0914343,
    "description": "A popular museum spot in Chengdu.",
    "city": "Chengdu"
  },
  {
    "name": "插旗山顶观景台",
    "category": "outdoor",
    "duration_minutes": 60,
    "rating": 4.0,
    "lat": 30.2629948,
    "lon": 103.6551896,
    "description": "A popular outdoor spot in Chengdu.",
    "city": "Chengdu"
  },
  {
    "name": "揽月馆",
    "category": "sightseeing",
    "duration_minutes": 60,
    "rating": 4.0,
    "lat": 30.7456805,
    "lon": 104.1283996,
    "description": "A popular sightseeing spot in Chengdu.",
    "city": "Chengdu"
  },
  {
    "name": "揽锦台",
    "category": "outdoor",
    "duration_minutes": 60,
    "rating": 4.0,
    "lat": 30.6406986,
    "lon": 104.2035952,
    "description": "A popular outdoor spot in Chengdu.",
    "city": "Chengdu"
  },
  {
    "name": "擦耳岩古渡",
    "category": "history",
    "duration_minutes": 60,
    "rating": 4.0,
    "lat": 30.5803475,
    "lon": 103.8204675,
    "description": "A popular history spot in Chengdu.",
    "city": "Chengdu"
  },
  {
    "name": "教堂",
    "category": "outdoor",
    "duration_minutes": 60,
    "rating": 4.0,
    "lat": 30.7656788,
    "lon": 103.9574144,
    "description": "A popular outdoor spot in Chengdu.",
    "city": "Chengdu"
  },
  {
    "name": "文保碑",
    "category": "history",
    "duration_minutes": 60,
    "rating": 4.0,
    "lat": 30.6472951,
    "lon": 104.043584,
    "description": "A popular history spot in Chengdu.",
    "city": "Chengdu"
  },
  {
    "name": "文殊院",
    "category": "history",
    "duration_minutes": 60,
    "rating": 4.0,
    "lat": 30.6777655,
    "lon": 104.0702055,
    "description": "A popular history spot in Chengdu.",
    "city": "Chengdu"
  },
  {
    "name": "文物精品馆",
    "category": "museum",
    "duration_minutes": 60,
    "rating": 4.0,
    "lat": 30.8337588,
    "lon": 104.1574613,
    "description": "A popular museum spot in Chengdu.",
    "city": "Chengdu"
  },
  {
    "name": "新华日报驻成都办事处旧址",
    "category": "sightseeing",
    "duration_minutes": 60,
    "rating": 4.0,
    "lat": 30.6596709,
    "lon": 104.0571322,
    "description": "A popular sightseeing spot in Chengdu.",
    "city": "Chengdu"
  },
  {
    "name": "新津县纯阳观博物馆",
    "category": "museum",
    "duration_minutes": 60,
    "rating": 4.0,
    "lat": 30.4242965,
    "lon": 103.7937511,
    "description": "A popular museum spot in Chengdu.",
    "city": "Chengdu"
  },
  {
    "name": "新见书山-观景台",
    "category": "outdoor",
    "duration_minutes": 60,
    "rating": 4.0,
    "lat": 30.5753327,
    "lon": 104.3193843,
    "description": "A popular outdoor spot in Chengdu.",
    "city": "Chengdu"
  },
  {
    "name": "新都古城墙",
    "category": "sightseeing",
    "duration_minutes": 60,
    "rating": 4.0,
    "lat": 30.82418,
    "lon": 104.1570032,
    "description": "A popular sightseeing spot in Chengdu.",
    "city": "Chengdu"
  },
  {
    "name": "日出观景台",
    "category": "outdoor",
    "duration_minutes": 60,
    "rating": 4.0,
    "lat": 30.5328882,
    "lon": 104.3080635,
    "description": "A popular outdoor spot in Chengdu.",
    "city": "Chengdu"
  },
  {
    "name": "旭日馆",
    "category": "sightseeing",
    "duration_minutes": 60,
    "rating": 4.0,
    "lat": 30.7451564,
    "lon": 104.1358298,
    "description": "A popular sightseeing spot in Chengdu.",
    "city": "Chengdu"
  },
  {
    "name": "明月馆",
    "category": "sightseeing",
    "duration_minutes": 60,
    "rating": 4.0,
    "lat": 30.7471793,
    "lon": 104.1298102,
    "description": "A popular sightseeing spot in Chengdu.",
    "city": "Chengdu"
  },
  {
    "name": "明蜀王陵博物馆",
    "category": "museum",
    "duration_minutes": 60,
    "rating": 4.0,
    "lat": 30.6461757,
    "lon": 104.1867485,
    "description": "A popular museum spot in Chengdu.",
    "city": "Chengdu"
  },
  {
    "name": "星云馆",
    "category": "sightseeing",
    "duration_minutes": 60,
    "rating": 4.0,
    "lat": 30.7498375,
    "lon": 104.1356598,
    "description": "A popular sightseeing spot in Chengdu.",
    "city": "Chengdu"
  },
  {
    "name": "星光馆",
    "category": "sightseeing",
    "duration_minutes": 60,
    "rating": 4.0,
    "lat": 30.7487801,
    "lon": 104.1368452,
    "description": "A popular sightseeing spot in Chengdu.",
    "city": "Chengdu"
  },
  {
    "name": "星汉馆",
    "category": "sightseeing",
    "duration_minutes": 60,
    "rating": 4.0,
    "lat": 30.7476192,
    "lon": 104.1346432,
    "description": "A popular sightseeing spot in Chengdu.",
    "city": "Chengdu"
  },
  {
    "name": "星雨馆",
    "category": "sightseeing",
    "duration_minutes": 60,
    "rating": 4.0,
    "lat": 30.7509986,
    "lon": 104.1347789,
    "description": "A popular sightseeing spot in Chengdu.",
    "city": "Chengdu"
  },
  {
    "name": "映日馆",
    "category": "sightseeing",
    "duration_minutes": 60,
    "rating": 4.0,
    "lat": 30.7460731,
    "lon": 104.1364872,
    "description": "A popular sightseeing spot in Chengdu.",
    "city": "Chengdu"
  },
  {
    "name": "春夜喜雨园",
    "category": "sightseeing",
    "duration_minutes": 60,
    "rating": 4.0,
    "lat": 30.6632664,
    "lon": 104.0262054,
    "description": "A popular sightseeing spot in Chengdu.",
    "city": "Chengdu"
  },
  {
    "name": "曼克瑞尔婚礼文创园",
    "category": "outdoor",
    "duration_minutes": 60,
    "rating": 4.0,
    "lat": 30.5390933,
    "lon": 104.1515033,
    "description": "A popular outdoor spot in Chengdu.",
    "city": "Chengdu"
  },
  {
    "name": "望月馆",
    "category": "sightseeing",
    "duration_minutes": 60,
    "rating": 4.0,
    "lat": 30.7486781,
    "lon": 104.128971,
    "description": "A popular sightseeing spot in Chengdu.",
    "city": "Chengdu"
  },
  {
    "name": "望江楼古建筑群",
    "category": "history",
    "duration_minutes": 60,
    "rating": 4.0,
    "lat": 30.6327059,
    "lon": 104.0909407,
    "description": "A popular history spot in Chengdu.",
    "city": "Chengdu"
  },
  {
    "name": "朝东来山顶露营地日出观景台",
    "category": "outdoor",
    "duration_minutes": 60,
    "rating": 4.0,
    "lat": 30.4849379,
    "lon": 104.3124205,
    "description": "A popular outdoor spot in Chengdu.",
    "city": "Chengdu"
  },
  {
    "name": "朝阳湖风景名胜区",
    "category": "sightseeing",
    "duration_minutes": 60,
    "rating": 4.0,
    "lat": 30.1424733,
    "lon": 103.4191818,
    "description": "A popular sightseeing spot in Chengdu.",
    "city": "Chengdu"
  },
  {
    "name": "木牛流马",
    "category": "outdoor",
    "duration_minutes": 60,
    "rating": 4.0,
    "lat": 30.6500406,
    "lon": 104.0475352,
    "description": "A popular outdoor spot in Chengdu.",
    "city": "Chengdu"
  },
  {
    "name": "朱熹宗祠",
    "category": "sightseeing",
    "duration_minutes": 60,
    "rating": 4.0,
    "lat": 30.6365117,
    "lon": 104.1949774,
    "description": "A popular sightseeing spot in Chengdu.",
    "city": "Chengdu"
  },
  {
    "name": "机车博物院",
    "category": "museum",
    "duration_minutes": 60,
    "rating": 4.0,
    "lat": 30.764036,
    "lon": 103.9894361,
    "description": "A popular museum spot in Chengdu.",
    "city": "Chengdu"
  },
  {
    "name": "杜甫草堂",
    "category": "sightseeing",
    "duration_minutes": 60,
    "rating": 4.0,
    "lat": 30.6627715,
    "lon": 104.0262767,
    "description": "A popular sightseeing spot in Chengdu.",
    "city": "Chengdu"
  },
  {
    "name": "杜甫草堂博物馆",
    "category": "museum",
    "duration_minutes": 60,
    "rating": 4.0,
    "lat": 30.6619682,
    "lon": 104.0244323,
    "description": "A popular museum spot in Chengdu.",
    "city": "Chengdu"
  },
  {
    "name": "林为干院士像",
    "category": "history",
    "duration_minutes": 60,
    "rating": 4.0,
    "lat": 30.7546045,
    "lon": 103.929215,
    "description": "A popular history spot in Chengdu.",
    "city": "Chengdu"
  },
  {
    "name": "校史馆",
    "category": "museum",
    "duration_minutes": 60,
    "rating": 4.0,
    "lat": 30.7683692,
    "lon": 103.9857469,
    "description": "A popular museum spot in Chengdu.",
    "city": "Chengdu"
  },
  {
    "name": "校训石",
    "category": "history",
    "duration_minutes": 60,
    "rating": 4.0,
    "lat": 30.7510038,
    "lon": 103.9225202,
    "description": "A popular history spot in Chengdu.",
    "city": "Chengdu"
  },
  {
    "name": "桂湖公园",
    "category": "sightseeing",
    "duration_minutes": 60,
    "rating": 4.0,
    "lat": 30.8238468,
    "lon": 104.1560832,
    "description": "A popular sightseeing spot in Chengdu.",
    "city": "Chengdu"
  },
  {
    "name": "桂溪生态公园东区-观景台",
    "category": "outdoor",
    "duration_minutes": 60,
    "rating": 4.0,
    "lat": 30.5661468,
    "lon": 104.0687843,
    "description": "A popular outdoor spot in Chengdu.",
    "city": "Chengdu"
  },
  {
    "name": "梦幻水母馆",
    "category": "sightseeing",
    "duration_minutes": 60,
    "rating": 4.0,
    "lat": 30.4961588,
    "lon": 104.0713981,
    "description": "A popular sightseeing spot in Chengdu.",
    "city": "Chengdu"
  },
  {
    "name": "植物科普馆",
    "category": "museum",
    "duration_minutes": 60,
    "rating": 4.0,
    "lat": 30.7675979,
    "lon": 104.1259252,
    "description": "A popular museum spot in Chengdu.",
    "city": "Chengdu"
  },
  {
    "name": "植物编艺公园-编艺观景台",
    "category": "outdoor",
    "duration_minutes": 60,
    "rating": 4.0,
    "lat": 30.7652499,
    "lon": 103.7418348,
    "description": "A popular outdoor spot in Chengdu.",
    "city": "Chengdu"
  },
  {
    "name": "樱桃沟景区观景台",
    "category": "outdoor",
    "duration_minutes": 60,
    "rating": 4.0,
    "lat": 30.4738682,
    "lon": 104.2661955,
    "description": "A popular outdoor spot in Chengdu.",
    "city": "Chengdu"
  },
  {
    "name": "欢乐剧场",
    "category": "sightseeing",
    "duration_minutes": 60,
    "rating": 4.0,
    "lat": 30.4961718,
    "lon": 104.0704191,
    "description": "A popular sightseeing spot in Chengdu.",
    "city": "Chengdu"
  },
  {
    "name": "欢乐谷",
    "category": "outdoor",
    "duration_minutes": 60,
    "rating": 4.0,
    "lat": 30.7245891,
    "lon": 104.033174,
    "description": "A popular outdoor spot in Chengdu.",
    "city": "Chengdu"
  },
  {
    "name": "武侯祠",
    "category": "museum",
    "duration_minutes": 60,
    "rating": 4.0,
    "lat": 30.6483863,
    "lon": 104.0454567,
    "description": "A popular museum spot in Chengdu.",
    "city": "Chengdu"
  },
  {
    "name": "武侯祠美术馆（荐馨殿）",
    "category": "sightseeing",
    "duration_minutes": 60,
    "rating": 4.0,
    "lat": 30.6500675,
    "lon": 104.0451846,
    "description": "A popular sightseeing spot in Chengdu.",
    "city": "Chengdu"
  },
  {
    "name": "歼-5",
    "category": "history",
    "duration_minutes": 60,
    "rating": 4.0,
    "lat": 30.5037068,
    "lon": 103.6198738,
    "description": "A popular history spot in Chengdu.",
    "city": "Chengdu"
  },
  {
    "name": "殊可美术馆",
    "category": "sightseeing",
    "duration_minutes": 60,
    "rating": 4.0,
    "lat": 30.6756916,
    "lon": 104.0710502,
    "description": "A popular sightseeing spot in Chengdu.",
    "city": "Chengdu"
  },
  {
    "name": "毛主席像",
    "category": "history",
    "duration_minutes": 60,
    "rating": 4.0,
    "lat": 30.6612402,
    "lon": 104.0633009,
    "description": "A popular history spot in Chengdu.",
    "city": "Chengdu"
  },
  {
    "name": "毛泽东像",
    "category": "history",
    "duration_minutes": 60,
    "rating": 4.0,
    "lat": 30.6341408,
    "lon": 104.0882823,
    "description": "A popular history spot in Chengdu.",
    "city": "Chengdu"
  },
  {
    "name": "水井坊博物馆(天仙桥南路店)",
    "category": "museum",
    "duration_minutes": 60,
    "rating": 4.0,
    "lat": 30.6474392,
    "lon": 104.0835363,
    "description": "A popular museum spot in Chengdu.",
    "city": "Chengdu"
  },
  {
    "name": "永陵",
    "category": "sightseeing",
    "duration_minutes": 60,
    "rating": 4.0,
    "lat": 30.6760775,
    "lon": 104.0444989,
    "description": "A popular sightseeing spot in Chengdu.",
    "city": "Chengdu"
  },
  {
    "name": "江安校区美术馆",
    "category": "sightseeing",
    "duration_minutes": 60,
    "rating": 4.0,
    "lat": 30.5585263,
    "lon": 103.9930743,
    "description": "A popular sightseeing spot in Chengdu.",
    "city": "Chengdu"
  },
  {
    "name": "江月馆",
    "category": "sightseeing",
    "duration_minutes": 60,
    "rating": 4.0,
    "lat": 30.7464529,
    "lon": 104.1293608,
    "description": "A popular sightseeing spot in Chengdu.",
    "city": "Chengdu"
  },
  {
    "name": "沱江观景台",
    "category": "outdoor",
    "duration_minutes": 60,
    "rating": 4.0,
    "lat": 30.5819302,
    "lon": 104.4853678,
    "description": "A popular outdoor spot in Chengdu.",
    "city": "Chengdu"
  },
  {
    "name": "洛带古镇",
    "category": "sightseeing",
    "duration_minutes": 60,
    "rating": 4.0,
    "lat": 30.6383084,
    "lon": 104.3255288,
    "description": "A popular sightseeing spot in Chengdu.",
    "city": "Chengdu"
  },
  {
    "name": "洛带金龙长城",
    "category": "sightseeing",
    "duration_minutes": 60,
    "rating": 4.0,
    "lat": 30.6792114,
    "lon": 104.3693918,
    "description": "A popular sightseeing spot in Chengdu.",
    "city": "Chengdu"
  },
  {
    "name": "洛水湿地公园-观景台",
    "category": "outdoor",
    "duration_minutes": 60,
    "rating": 4.0,
    "lat": 30.6421374,
    "lon": 104.3173716,
    "description": "A popular outdoor spot in Chengdu.",
    "city": "Chengdu"
  },
  {
    "name": "浓园国际艺术馆",
    "category": "sightseeing",
    "duration_minutes": 60,
    "rating": 4.0,
    "lat": 30.5881868,
    "lon": 103.9847089,
    "description": "A popular sightseeing spot in Chengdu.",
    "city": "Chengdu"
  },
  {
    "name": "浣花溪公园-观景台",
    "category": "outdoor",
    "duration_minutes": 60,
    "rating": 4.0,
    "lat": 30.6588778,
    "lon": 104.0268506,
    "description": "A popular outdoor spot in Chengdu.",
    "city": "Chengdu"
  },
  {
    "name": "海底世界",
    "category": "sightseeing",
    "duration_minutes": 60,
    "rating": 4.0,
    "lat": 30.4978932,
    "lon": 104.0723103,
    "description": "A popular sightseeing spot in Chengdu.",
    "city": "Chengdu"
  },
  {
    "name": "海洋交流广场",
    "category": "sightseeing",
    "duration_minutes": 60,
    "rating": 4.0,
    "lat": 30.4970637,
    "lon": 104.0699343,
    "description": "A popular sightseeing spot in Chengdu.",
    "city": "Chengdu"
  },
  {
    "name": "海象馆",
    "category": "sightseeing",
    "duration_minutes": 60,
    "rating": 4.0,
    "lat": 30.4967337,
    "lon": 104.0702711,
    "description": "A popular sightseeing spot in Chengdu.",
    "city": "Chengdu"
  },
  {
    "name": "海豹池",
    "category": "sightseeing",
    "duration_minutes": 60,
    "rating": 4.0,
    "lat": 30.7105159,
    "lon": 104.1022852,
    "description": "A popular sightseeing spot in Chengdu.",
    "city": "Chengdu"
  },
  {
    "name": "深林归谷观景台",
    "category": "outdoor",
    "duration_minutes": 60,
    "rating": 4.0,
    "lat": 31.1057888,
    "lon": 103.6384627,
    "description": "A popular outdoor spot in Chengdu.",
    "city": "Chengdu"
  },
  {
    "name": "温江区博物馆",
    "category": "museum",
    "duration_minutes": 60,
    "rating": 4.0,
    "lat": 30.7006336,
    "lon": 103.835062,
    "description": "A popular museum spot in Chengdu.",
    "city": "Chengdu"
  },
  {
    "name": "潘兜的森林(丹景山狮子堡观景台)",
    "category": "outdoor",
    "duration_minutes": 60,
    "rating": 4.0,
    "lat": 30.3790756,
    "lon": 104.1803541,
    "description": "A popular outdoor spot in Chengdu.",
    "city": "Chengdu"
  },
  {
    "name": "火烈鸟",
    "category": "sightseeing",
    "duration_minutes": 60,
    "rating": 4.0,
    "lat": 30.7114637,
    "lon": 104.1008368,
    "description": "A popular sightseeing spot in Chengdu.",
    "city": "Chengdu"
  },
  {
    "name": "火车艺术馆",
    "category": "sightseeing",
    "duration_minutes": 60,
    "rating": 4.0,
    "lat": 30.6754608,
    "lon": 104.0624835,
    "description": "A popular sightseeing spot in Chengdu.",
    "city": "Chengdu"
  },
  {
    "name": "灯会水幕电影",
    "category": "outdoor",
    "duration_minutes": 60,
    "rating": 4.0,
    "lat": 30.5571172,
    "lon": 104.0802264,
    "description": "A popular outdoor spot in Chengdu.",
    "city": "Chengdu"
  },
  {
    "name": "熊猫塔",
    "category": "sightseeing",
    "duration_minutes": 60,
    "rating": 4.0,
    "lat": 30.742951,
    "lon": 104.1312429,
    "description": "A popular sightseeing spot in Chengdu.",
    "city": "Chengdu"
  },
  {
    "name": "熊猫广场",
    "category": "sightseeing",
    "duration_minutes": 60,
    "rating": 4.0,
    "lat": 30.6614091,
    "lon": 104.0735365,
    "description": "A popular sightseeing spot in Chengdu.",
    "city": "Chengdu"
  },
  {
    "name": "熊猫科学探秘馆",
    "category": "museum",
    "duration_minutes": 60,
    "rating": 4.0,
    "lat": 30.7364954,
    "lon": 104.141641,
    "description": "A popular museum spot in Chengdu.",
    "city": "Chengdu"
  },
  {
    "name": "熊猫美术馆",
    "category": "sightseeing",
    "duration_minutes": 60,
    "rating": 4.0,
    "lat": 30.7489758,
    "lon": 104.1341296,
    "description": "A popular sightseeing spot in Chengdu.",
    "city": "Chengdu"
  },
  {
    "name": "熊猫谷",
    "category": "outdoor",
    "duration_minutes": 60,
    "rating": 4.0,
    "lat": 30.9658358,
    "lon": 103.5828836,
    "description": "A popular outdoor spot in Chengdu.",
    "city": "Chengdu"
  },
  {
    "name": "爱情码头",
    "category": "outdoor",
    "duration_minutes": 60,
    "rating": 4.0,
    "lat": 30.7656772,
    "lon": 103.9597461,
    "description": "A popular outdoor spot in Chengdu.",
    "city": "Chengdu"
  },
  {
    "name": "狐猴馆",
    "category": "sightseeing",
    "duration_minutes": 60,
    "rating": 4.0,
    "lat": 30.7124641,
    "lon": 104.1031549,
    "description": "A popular sightseeing spot in Chengdu.",
    "city": "Chengdu"
  },
  {
    "name": "狒狒",
    "category": "sightseeing",
    "duration_minutes": 60,
    "rating": 4.0,
    "lat": 30.7123406,
    "lon": 104.1036126,
    "description": "A popular sightseeing spot in Chengdu.",
    "city": "Chengdu"
  },
  {
    "name": "狮虎馆",
    "category": "sightseeing",
    "duration_minutes": 60,
    "rating": 4.0,
    "lat": 30.7119717,
    "lon": 104.1048248,
    "description": "A popular sightseeing spot in Chengdu.",
    "city": "Chengdu"
  },
  {
    "name": "狼·獴",
    "category": "sightseeing",
    "duration_minutes": 60,
    "rating": 4.0,
    "lat": 30.709811,
    "lon": 104.1048007,
    "description": "A popular sightseeing spot in Chengdu.",
    "city": "Chengdu"
  },
  {
    "name": "玉垒阁",
    "category": "outdoor",
    "duration_minutes": 60,
    "rating": 4.0,
    "lat": 31.0044961,
    "lon": 103.6123867,
    "description": "A popular outdoor spot in Chengdu.",
    "city": "Chengdu"
  },
  {
    "name": "环球中心",
    "category": "sightseeing",
    "duration_minutes": 60,
    "rating": 4.0,
    "lat": 30.5714638,
    "lon": 104.0630834,
    "description": "A popular sightseeing spot in Chengdu.",
    "city": "Chengdu"
  },
  {
    "name": "瓮城门",
    "category": "sightseeing",
    "duration_minutes": 60,
    "rating": 4.0,
    "lat": 30.7492619,
    "lon": 104.4745702,
    "description": "A popular sightseeing spot in Chengdu.",
    "city": "Chengdu"
  },
  {
    "name": "电子科技博物馆",
    "category": "museum",
    "duration_minutes": 60,
    "rating": 4.0,
    "lat": 30.7524512,
    "lon": 103.9252954,
    "description": "A popular museum spot in Chengdu.",
    "city": "Chengdu"
  },
  {
    "name": "白马寺观景台",
    "category": "outdoor",
    "duration_minutes": 60,
    "rating": 4.0,
    "lat": 30.6855861,
    "lon": 104.0632089,
    "description": "A popular outdoor spot in Chengdu.",
    "city": "Chengdu"
  },
  {
    "name": "百工堰公园-观景台",
    "category": "outdoor",
    "duration_minutes": 60,
    "rating": 4.0,
    "lat": 30.5753305,
    "lon": 104.2977009,
    "description": "A popular outdoor spot in Chengdu.",
    "city": "Chengdu"
  },
  {
    "name": "百鸟苑",
    "category": "sightseeing",
    "duration_minutes": 60,
    "rating": 4.0,
    "lat": 30.7118255,
    "lon": 104.1013498,
    "description": "A popular sightseeing spot in Chengdu.",
    "city": "Chengdu"
  },
  {
    "name": "相亲角",
    "category": "sightseeing",
    "duration_minutes": 60,
    "rating": 4.0,
    "lat": 30.6600331,
    "lon": 104.0543414,
    "description": "A popular sightseeing spot in Chengdu.",
    "city": "Chengdu"
  },
  {
    "name": "相机博物馆",
    "category": "museum",
    "duration_minutes": 60,
    "rating": 4.0,
    "lat": 30.6711203,
    "lon": 104.0306929,
    "description": "A popular museum spot in Chengdu.",
    "city": "Chengdu"
  },
  {
    "name": "相约·岚月里",
    "category": "sightseeing",
    "duration_minutes": 60,
    "rating": 4.0,
    "lat": 30.5259342,
    "lon": 104.3053915,
    "description": "A popular sightseeing spot in Chengdu.",
    "city": "Chengdu"
  },
  {
    "name": "眺望百工堰水库",
    "category": "outdoor",
    "duration_minutes": 60,
    "rating": 4.0,
    "lat": 30.5594113,
    "lon": 104.3044985,
    "description": "A popular outdoor spot in Chengdu.",
    "city": "Chengdu"
  },
  {
    "name": "矮马",
    "category": "sightseeing",
    "duration_minutes": 60,
    "rating": 4.0,
    "lat": 30.7102069,
    "lon": 104.102536,
    "description": "A popular sightseeing spot in Chengdu.",
    "city": "Chengdu"
  },
  {
    "name": "石象湖生态风景区",
    "category": "sightseeing",
    "duration_minutes": 60,
    "rating": 4.0,
    "lat": 30.1967517,
    "lon": 103.419372,
    "description": "A popular sightseeing spot in Chengdu.",
    "city": "Chengdu"
  },
  {
    "name": "石马村雪山观景台",
    "category": "outdoor",
    "duration_minutes": 60,
    "rating": 4.0,
    "lat": 30.237879,
    "lon": 103.6297197,
    "description": "A popular outdoor spot in Chengdu.",
    "city": "Chengdu"
  },
  {
    "name": "破屋废墟",
    "category": "history",
    "duration_minutes": 60,
    "rating": 4.0,
    "lat": 31.0697324,
    "lon": 103.5244022,
    "description": "A popular history spot in Chengdu.",
    "city": "Chengdu"
  },
  {
    "name": "神龙抬头",
    "category": "history",
    "duration_minutes": 60,
    "rating": 4.0,
    "lat": 30.322556,
    "lon": 103.9662692,
    "description": "A popular history spot in Chengdu.",
    "city": "Chengdu"
  },
  {
    "name": "离堆",
    "category": "sightseeing",
    "duration_minutes": 60,
    "rating": 4.0,
    "lat": 31.0009527,
    "lon": 103.6103076,
    "description": "A popular sightseeing spot in Chengdu.",
    "city": "Chengdu"
  },
  {
    "name": "秋月馆",
    "category": "sightseeing",
    "duration_minutes": 60,
    "rating": 4.0,
    "lat": 30.7483175,
    "lon": 104.1275812,
    "description": "A popular sightseeing spot in Chengdu.",
    "city": "Chengdu"
  },
  {
    "name": "种子科普馆",
    "category": "museum",
    "duration_minutes": 60,
    "rating": 4.0,
    "lat": 30.7223685,
    "lon": 103.9354452,
    "description": "A popular museum spot in Chengdu.",
    "city": "Chengdu"
  },
  {
    "name": "科研楼碑",
    "category": "history",
    "duration_minutes": 60,
    "rating": 4.0,
    "lat": 30.7538871,
    "lon": 103.9289675,
    "description": "A popular history spot in Chengdu.",
    "city": "Chengdu"
  },
  {
    "name": "秦堰楼",
    "category": "outdoor",
    "duration_minutes": 60,
    "rating": 4.0,
    "lat": 31.0092802,
    "lon": 103.6075206,
    "description": "A popular outdoor spot in Chengdu.",
    "city": "Chengdu"
  },
  {
    "name": "类人猿馆",
    "category": "sightseeing",
    "duration_minutes": 60,
    "rating": 4.0,
    "lat": 30.7123465,
    "lon": 104.1023167,
    "description": "A popular sightseeing spot in Chengdu.",
    "city": "Chengdu"
  },
  {
    "name": "紫坪埔观景台",
    "category": "outdoor",
    "duration_minutes": 60,
    "rating": 4.0,
    "lat": 31.0456648,
    "lon": 103.5734234,
    "description": "A popular outdoor spot in Chengdu.",
    "city": "Chengdu"
  },
  {
    "name": "繁花山谷",
    "category": "outdoor",
    "duration_minutes": 60,
    "rating": 4.0,
    "lat": 30.6048988,
    "lon": 104.4828332,
    "description": "A popular outdoor spot in Chengdu.",
    "city": "Chengdu"
  },
  {
    "name": "红军长征纪念馆",
    "category": "museum",
    "duration_minutes": 60,
    "rating": 4.0,
    "lat": 30.3113996,
    "lon": 103.1225481,
    "description": "A popular museum spot in Chengdu.",
    "city": "Chengdu"
  },
  {
    "name": "红台美术馆",
    "category": "sightseeing",
    "duration_minutes": 60,
    "rating": 4.0,
    "lat": 30.6636681,
    "lon": 104.0441395,
    "description": "A popular sightseeing spot in Chengdu.",
    "city": "Chengdu"
  },
  {
    "name": "红塔子",
    "category": "sightseeing",
    "duration_minutes": 60,
    "rating": 4.0,
    "lat": 31.0048931,
    "lon": 103.61712,
    "description": "A popular sightseeing spot in Chengdu.",
    "city": "Chengdu"
  },
  {
    "name": "红美术馆",
    "category": "sightseeing",
    "duration_minutes": 60,
    "rating": 4.0,
    "lat": 30.616496,
    "lon": 104.0848412,
    "description": "A popular sightseeing spot in Chengdu.",
    "city": "Chengdu"
  },
  {
    "name": "综合馆",
    "category": "museum",
    "duration_minutes": 60,
    "rating": 4.0,
    "lat": 30.6778848,
    "lon": 104.0442475,
    "description": "A popular museum spot in Chengdu.",
    "city": "Chengdu"
  },
  {
    "name": "罨画池",
    "category": "museum",
    "duration_minutes": 60,
    "rating": 4.0,
    "lat": 30.6313761,
    "lon": 103.6714695,
    "description": "门票：8元",
    "city": "Chengdu"
  },
  {
    "name": "羊驼",
    "category": "sightseeing",
    "duration_minutes": 60,
    "rating": 4.0,
    "lat": 30.710162,
    "lon": 104.102363,
    "description": "A popular sightseeing spot in Chengdu.",
    "city": "Chengdu"
  },
  {
    "name": "美术馆",
    "category": "sightseeing",
    "duration_minutes": 60,
    "rating": 4.0,
    "lat": 30.5825457,
    "lon": 104.2779037,
    "description": "A popular sightseeing spot in Chengdu.",
    "city": "Chengdu"
  },
  {
    "name": "羚羊",
    "category": "sightseeing",
    "duration_minutes": 60,
    "rating": 4.0,
    "lat": 30.7126179,
    "lon": 104.1056584,
    "description": "A popular sightseeing spot in Chengdu.",
    "city": "Chengdu"
  },
  {
    "name": "老鹰岩观景台",
    "category": "outdoor",
    "duration_minutes": 60,
    "rating": 4.0,
    "lat": 30.7997458,
    "lon": 104.4853152,
    "description": "A popular outdoor spot in Chengdu.",
    "city": "Chengdu"
  },
  {
    "name": "胜日馆",
    "category": "sightseeing",
    "duration_minutes": 60,
    "rating": 4.0,
    "lat": 30.7440869,
    "lon": 104.1358571,
    "description": "A popular sightseeing spot in Chengdu.",
    "city": "Chengdu"
  },
  {
    "name": "花乡农居",
    "category": "sightseeing",
    "duration_minutes": 60,
    "rating": 4.0,
    "lat": 30.5869714,
    "lon": 104.1588602,
    "description": "A popular sightseeing spot in Chengdu.",
    "city": "Chengdu"
  },
  {
    "name": "花海观景台",
    "category": "outdoor",
    "duration_minutes": 60,
    "rating": 4.0,
    "lat": 30.8322184,
    "lon": 103.7064097,
    "description": "A popular outdoor spot in Chengdu.",
    "city": "Chengdu"
  },
  {
    "name": "花舞人间",
    "category": "outdoor",
    "duration_minutes": 60,
    "rating": 4.0,
    "lat": 30.389007,
    "lon": 103.804646,
    "description": "A popular outdoor spot in Chengdu.",
    "city": "Chengdu"
  },
  {
    "name": "芳草亭日出观景台·客吧·露营",
    "category": "outdoor",
    "duration_minutes": 60,
    "rating": 4.0,
    "lat": 30.5326152,
    "lon": 104.3077639,
    "description": "A popular outdoor spot in Chengdu.",
    "city": "Chengdu"
  },
  {
    "name": "芳草亭观景台",
    "category": "outdoor",
    "duration_minutes": 60,
    "rating": 4.0,
    "lat": 30.5327436,
    "lon": 104.3079873,
    "description": "A popular outdoor spot in Chengdu.",
    "city": "Chengdu"
  },
  {
    "name": "茶花谷",
    "category": "outdoor",
    "duration_minutes": 60,
    "rating": 4.0,
    "lat": 31.1708332,
    "lon": 103.9524394,
    "description": "A popular outdoor spot in Chengdu.",
    "city": "Chengdu"
  },
  {
    "name": "萌宠星球",
    "category": "sightseeing",
    "duration_minutes": 60,
    "rating": 4.0,
    "lat": 30.4980243,
    "lon": 104.0699387,
    "description": "A popular sightseeing spot in Chengdu.",
    "city": "Chengdu"
  },
  {
    "name": "萌龟馆",
    "category": "sightseeing",
    "duration_minutes": 60,
    "rating": 4.0,
    "lat": 30.4981042,
    "lon": 104.0711767,
    "description": "A popular sightseeing spot in Chengdu.",
    "city": "Chengdu"
  },
  {
    "name": "葛仙花谷",
    "category": "sightseeing",
    "duration_minutes": 60,
    "rating": 4.0,
    "lat": 31.1426948,
    "lon": 103.9541333,
    "description": "A popular sightseeing spot in Chengdu.",
    "city": "Chengdu"
  },
  {
    "name": "蒲虹路垭口观景台",
    "category": "outdoor",
    "duration_minutes": 60,
    "rating": 4.0,
    "lat": 31.0884175,
    "lon": 103.6406994,
    "description": "A popular outdoor spot in Chengdu.",
    "city": "Chengdu"
  },
  {
    "name": "蒲阳街道石花观景台",
    "category": "outdoor",
    "duration_minutes": 60,
    "rating": 4.0,
    "lat": 31.0958047,
    "lon": 103.6944025,
    "description": "A popular outdoor spot in Chengdu.",
    "city": "Chengdu"
  },
  {
    "name": "蓉欧城观景台",
    "category": "outdoor",
    "duration_minutes": 60,
    "rating": 4.0,
    "lat": 30.7711616,
    "lon": 104.3795268,
    "description": "A popular outdoor spot in Chengdu.",
    "city": "Chengdu"
  },
  {
    "name": "蔚蓝花海",
    "category": "outdoor",
    "duration_minutes": 60,
    "rating": 4.0,
    "lat": 30.6374652,
    "lon": 104.3055866,
    "description": "A popular outdoor spot in Chengdu.",
    "city": "Chengdu"
  },
  {
    "name": "虹口景区庙坝-观景台",
    "category": "outdoor",
    "duration_minutes": 60,
    "rating": 4.0,
    "lat": 31.1058558,
    "lon": 103.6387172,
    "description": "A popular outdoor spot in Chengdu.",
    "city": "Chengdu"
  },
  {
    "name": "蜀水荷乡",
    "category": "outdoor",
    "duration_minutes": 60,
    "rating": 4.0,
    "lat": 31.1191591,
    "lon": 103.9964898,
    "description": "A popular outdoor spot in Chengdu.",
    "city": "Chengdu"
  },
  {
    "name": "蜀绣公园",
    "category": "museum",
    "duration_minutes": 60,
    "rating": 4.0,
    "lat": 30.7706724,
    "lon": 104.0084032,
    "description": "A popular museum spot in Chengdu.",
    "city": "Chengdu"
  },
  {
    "name": "蜀锦织绣博物馆",
    "category": "museum",
    "duration_minutes": 60,
    "rating": 4.0,
    "lat": 30.6597633,
    "lon": 104.0345095,
    "description": "A popular museum spot in Chengdu.",
    "city": "Chengdu"
  },
  {
    "name": "蜈蚣洞",
    "category": "outdoor",
    "duration_minutes": 60,
    "rating": 4.0,
    "lat": 31.171033,
    "lon": 103.9510238,
    "description": "A popular outdoor spot in Chengdu.",
    "city": "Chengdu"
  },
  {
    "name": "蟠龙瀑布观景台",
    "category": "outdoor",
    "duration_minutes": 60,
    "rating": 4.0,
    "lat": 30.2570703,
    "lon": 103.0885696,
    "description": "A popular outdoor spot in Chengdu.",
    "city": "Chengdu"
  },
  {
    "name": "街子古镇",
    "category": "sightseeing",
    "duration_minutes": 60,
    "rating": 4.0,
    "lat": 30.8171477,
    "lon": 103.5565359,
    "description": "A popular sightseeing spot in Chengdu.",
    "city": "Chengdu"
  },
  {
    "name": "西南民族博物馆",
    "category": "museum",
    "duration_minutes": 60,
    "rating": 4.0,
    "lat": 30.6416536,
    "lon": 104.0466857,
    "description": "A popular museum spot in Chengdu.",
    "city": "Chengdu"
  },
  {
    "name": "西岭雪山大飞水景区映雪湖-观景台",
    "category": "outdoor",
    "duration_minutes": 60,
    "rating": 4.0,
    "lat": 30.7009825,
    "lon": 103.1926655,
    "description": "A popular outdoor spot in Chengdu.",
    "city": "Chengdu"
  },
  {
    "name": "西岭雪山景区-观景台",
    "category": "outdoor",
    "duration_minutes": 60,
    "rating": 4.0,
    "lat": 30.6945636,
    "lon": 103.1641356,
    "description": "A popular outdoor spot in Chengdu.",
    "city": "Chengdu"
  },
  {
    "name": "西蜀人家红木博览馆",
    "category": "museum",
    "duration_minutes": 60,
    "rating": 4.0,
    "lat": 30.5291714,
    "lon": 104.0359867,
    "description": "A popular museum spot in Chengdu.",
    "city": "Chengdu"
  },
  {
    "name": "西蜀廊桥古镇",
    "category": "sightseeing",
    "duration_minutes": 60,
    "rating": 4.0,
    "lat": 30.5610805,
    "lon": 104.0706051,
    "description": "A popular sightseeing spot in Chengdu.",
    "city": "Chengdu"
  },
  {
    "name": "观景台",
    "category": "outdoor",
    "duration_minutes": 60,
    "rating": 4.0,
    "lat": 30.5600705,
    "lon": 104.3044245,
    "description": "A popular outdoor spot in Chengdu.",
    "city": "Chengdu"
  },
  {
    "name": "观景台休闲苑",
    "category": "outdoor",
    "duration_minutes": 60,
    "rating": 4.0,
    "lat": 30.8136938,
    "lon": 103.5254553,
    "description": "A popular outdoor spot in Chengdu.",
    "city": "Chengdu"
  },
  {
    "name": "观景台农家乐",
    "category": "outdoor",
    "duration_minutes": 60,
    "rating": 4.0,
    "lat": 30.3469888,
    "lon": 103.3029603,
    "description": "A popular outdoor spot in Chengdu.",
    "city": "Chengdu"
  },
  {
    "name": "观景台茶园",
    "category": "outdoor",
    "duration_minutes": 60,
    "rating": 4.0,
    "lat": 30.5221023,
    "lon": 104.049311,
    "description": "A popular outdoor spot in Chengdu.",
    "city": "Chengdu"
  },
  {
    "name": "观景平台",
    "category": "outdoor",
    "duration_minutes": 60,
    "rating": 4.0,
    "lat": 30.5745356,
    "lon": 104.3231957,
    "description": "A popular outdoor spot in Chengdu.",
    "city": "Chengdu"
  },
  {
    "name": "观景点",
    "category": "outdoor",
    "duration_minutes": 60,
    "rating": 4.0,
    "lat": 31.1395042,
    "lon": 103.8836834,
    "description": "A popular outdoor spot in Chengdu.",
    "city": "Chengdu"
  },
  {
    "name": "观鸟台",
    "category": "outdoor",
    "duration_minutes": 60,
    "rating": 4.0,
    "lat": 30.5704139,
    "lon": 104.1430584,
    "description": "A popular outdoor spot in Chengdu.",
    "city": "Chengdu"
  },
  {
    "name": "许燎源现代设计艺术博物馆",
    "category": "museum",
    "duration_minutes": 60,
    "rating": 4.0,
    "lat": 30.5850666,
    "lon": 104.1539815,
    "description": "A popular museum spot in Chengdu.",
    "city": "Chengdu"
  },
  {
    "name": "跃美术馆",
    "category": "sightseeing",
    "duration_minutes": 60,
    "rating": 4.0,
    "lat": 30.5874684,
    "lon": 103.9872159,
    "description": "A popular sightseeing spot in Chengdu.",
    "city": "Chengdu"
  },
  {
    "name": "辛亥革命四川首义旧址",
    "category": "history",
    "duration_minutes": 60,
    "rating": 4.0,
    "lat": 30.5554077,
    "lon": 104.2782964,
    "description": "A popular history spot in Chengdu.",
    "city": "Chengdu"
  },
  {
    "name": "近悦儿童美术馆",
    "category": "sightseeing",
    "duration_minutes": 60,
    "rating": 4.0,
    "lat": 30.6320567,
    "lon": 104.0126415,
    "description": "A popular sightseeing spot in Chengdu.",
    "city": "Chengdu"
  },
  {
    "name": "连心亭",
    "category": "outdoor",
    "duration_minutes": 60,
    "rating": 4.0,
    "lat": 30.5521579,
    "lon": 104.315058,
    "description": "A popular outdoor spot in Chengdu.",
    "city": "Chengdu"
  },
  {
    "name": "遇见博物馆",
    "category": "museum",
    "duration_minutes": 60,
    "rating": 4.0,
    "lat": 30.5442002,
    "lon": 104.0679999,
    "description": "A popular museum spot in Chengdu.",
    "city": "Chengdu"
  },
  {
    "name": "道不外求（张大千故居）",
    "category": "history",
    "duration_minutes": 60,
    "rating": 4.0,
    "lat": 30.9127658,
    "lon": 103.560909,
    "description": "张大千故居",
    "city": "Chengdu"
  },
  {
    "name": "道文化陈列馆",
    "category": "museum",
    "duration_minutes": 60,
    "rating": 4.0,
    "lat": 30.6651125,
    "lon": 104.0408194,
    "description": "A popular museum spot in Chengdu.",
    "city": "Chengdu"
  },
  {
    "name": "都江堰市英烈纪念馆",
    "category": "museum",
    "duration_minutes": 60,
    "rating": 4.0,
    "lat": 31.0048567,
    "lon": 103.6183647,
    "description": "A popular museum spot in Chengdu.",
    "city": "Chengdu"
  },
  {
    "name": "都统岩观景台",
    "category": "outdoor",
    "duration_minutes": 60,
    "rating": 4.0,
    "lat": 30.7739133,
    "lon": 103.4393608,
    "description": "A popular outdoor spot in Chengdu.",
    "city": "Chengdu"
  },
  {
    "name": "金堂农场乐翻天",
    "category": "outdoor",
    "duration_minutes": 60,
    "rating": 4.0,
    "lat": 30.8069057,
    "lon": 104.433203,
    "description": "A popular outdoor spot in Chengdu.",
    "city": "Chengdu"
  },
  {
    "name": "金堂县云顶石城风景区",
    "category": "sightseeing",
    "duration_minutes": 60,
    "rating": 4.0,
    "lat": 30.7373529,
    "lon": 104.4864614,
    "description": "A popular sightseeing spot in Chengdu.",
    "city": "Chengdu"
  },
  {
    "name": "金堂县龚家山观景台",
    "category": "outdoor",
    "duration_minutes": 60,
    "rating": 4.0,
    "lat": 30.7702658,
    "lon": 104.5208312,
    "description": "A popular outdoor spot in Chengdu.",
    "city": "Chengdu"
  },
  {
    "name": "金沙遗址博物馆",
    "category": "museum",
    "duration_minutes": 60,
    "rating": 4.0,
    "lat": 30.6843156,
    "lon": 104.01041,
    "description": "A popular museum spot in Chengdu.",
    "city": "Chengdu"
  },
  {
    "name": "金鱼馆",
    "category": "sightseeing",
    "duration_minutes": 60,
    "rating": 4.0,
    "lat": 30.7129124,
    "lon": 104.1012307,
    "description": "A popular sightseeing spot in Chengdu.",
    "city": "Chengdu"
  },
  {
    "name": "金龙长城",
    "category": "sightseeing",
    "duration_minutes": 60,
    "rating": 4.0,
    "lat": 30.6789805,
    "lon": 104.369078,
    "description": "A popular sightseeing spot in Chengdu.",
    "city": "Chengdu"
  },
  {
    "name": "铭贤书院",
    "category": "history",
    "duration_minutes": 60,
    "rating": 4.0,
    "lat": 30.8117422,
    "lon": 104.3349884,
    "description": "A popular history spot in Chengdu.",
    "city": "Chengdu"
  },
  {
    "name": "铭贤书院·曾家寨子纪念碑",
    "category": "history",
    "duration_minutes": 60,
    "rating": 4.0,
    "lat": 30.810906,
    "lon": 104.3350393,
    "description": "A popular history spot in Chengdu.",
    "city": "Chengdu"
  },
  {
    "name": "铭贤书院遗址",
    "category": "history",
    "duration_minutes": 60,
    "rating": 4.0,
    "lat": 30.8113817,
    "lon": 104.3343594,
    "description": "A popular history spot in Chengdu.",
    "city": "Chengdu"
  },
  {
    "name": "银杏坪",
    "category": "outdoor",
    "duration_minutes": 60,
    "rating": 4.0,
    "lat": 31.1699388,
    "lon": 103.9526144,
    "description": "A popular outdoor spot in Chengdu.",
    "city": "Chengdu"
  },
  {
    "name": "银杏黄",
    "category": "outdoor",
    "duration_minutes": 60,
    "rating": 4.0,
    "lat": 30.5019347,
    "lon": 104.0430113,
    "description": "11月下旬周边街道一片金黄煞是好看。",
    "city": "Chengdu"
  },
  {
    "name": "锦里",
    "category": "sightseeing",
    "duration_minutes": 60,
    "rating": 4.0,
    "lat": 30.6484759,
    "lon": 104.04738,
    "description": "A popular sightseeing spot in Chengdu.",
    "city": "Chengdu"
  },
  {
    "name": "镜像美术馆",
    "category": "sightseeing",
    "duration_minutes": 60,
    "rating": 4.0,
    "lat": 30.8137915,
    "lon": 104.0775517,
    "description": "A popular sightseeing spot in Chengdu.",
    "city": "Chengdu"
  },
  {
    "name": "长江漂流纪念馆",
    "category": "museum",
    "duration_minutes": 60,
    "rating": 4.0,
    "lat": 30.5041146,
    "lon": 103.6166793,
    "description": "A popular museum spot in Chengdu.",
    "city": "Chengdu"
  },
  {
    "name": "长秋月观景台",
    "category": "outdoor",
    "duration_minutes": 60,
    "rating": 4.0,
    "lat": 30.2276919,
    "lon": 103.6197181,
    "description": "A popular outdoor spot in Chengdu.",
    "city": "Chengdu"
  },
  {
    "name": "长颈鹿馆",
    "category": "sightseeing",
    "duration_minutes": 60,
    "rating": 4.0,
    "lat": 30.7104382,
    "lon": 104.1049455,
    "description": "A popular sightseeing spot in Chengdu.",
    "city": "Chengdu"
  },
  {
    "name": "阅剑台",
    "category": "outdoor",
    "duration_minutes": 60,
    "rating": 4.0,
    "lat": 30.703371,
    "lon": 103.9543869,
    "description": "A popular outdoor spot in Chengdu.",
    "city": "Chengdu"
  },
  {
    "name": "阴阳界观景台",
    "category": "outdoor",
    "duration_minutes": 60,
    "rating": 4.0,
    "lat": 30.7028705,
    "lon": 103.1603953,
    "description": "A popular outdoor spot in Chengdu.",
    "city": "Chengdu"
  },
  {
    "name": "青城后山-观景台",
    "category": "outdoor",
    "duration_minutes": 60,
    "rating": 4.0,
    "lat": 30.9440144,
    "lon": 103.4819579,
    "description": "A popular outdoor spot in Chengdu.",
    "city": "Chengdu"
  },
  {
    "name": "青城山(后山)",
    "category": "sightseeing",
    "duration_minutes": 60,
    "rating": 4.0,
    "lat": 30.9345764,
    "lon": 103.4803057,
    "description": "A popular sightseeing spot in Chengdu.",
    "city": "Chengdu"
  },
  {
    "name": "青白江凤凰湖旅游景区二期-观景台",
    "category": "outdoor",
    "duration_minutes": 60,
    "rating": 4.0,
    "lat": 30.8988787,
    "lon": 104.2806678,
    "description": "A popular outdoor spot in Chengdu.",
    "city": "Chengdu"
  },
  {
    "name": "青羊宫",
    "category": "history",
    "duration_minutes": 60,
    "rating": 4.0,
    "lat": 30.6639702,
    "lon": 104.0401509,
    "description": "A popular history spot in Chengdu.",
    "city": "Chengdu"
  },
  {
    "name": "青龙湖湿地公园-观景台",
    "category": "outdoor",
    "duration_minutes": 60,
    "rating": 4.0,
    "lat": 30.6418026,
    "lon": 104.1917555,
    "description": "A popular outdoor spot in Chengdu.",
    "city": "Chengdu"
  },
  {
    "name": "静远堂",
    "category": "sightseeing",
    "duration_minutes": 60,
    "rating": 4.0,
    "lat": 30.6484071,
    "lon": 104.0450221,
    "description": "A popular sightseeing spot in Chengdu.",
    "city": "Chengdu"
  },
  {
    "name": "音乐·百花谷",
    "category": "outdoor",
    "duration_minutes": 60,
    "rating": 4.0,
    "lat": 30.7680974,
    "lon": 104.1617101,
    "description": "A popular outdoor spot in Chengdu.",
    "city": "Chengdu"
  },
  {
    "name": "音乐百花谷-观景台",
    "category": "outdoor",
    "duration_minutes": 60,
    "rating": 4.0,
    "lat": 30.7662369,
    "lon": 104.1628202,
    "description": "A popular outdoor spot in Chengdu.",
    "city": "Chengdu"
  },
  {
    "name": "韶山1型电力机车SS1-0818",
    "category": "sightseeing",
    "duration_minutes": 60,
    "rating": 4.0,
    "lat": 30.7639359,
    "lon": 103.9894855,
    "description": "A popular sightseeing spot in Chengdu.",
    "city": "Chengdu"
  },
  {
    "name": "顶层观景台",
    "category": "outdoor",
    "duration_minutes": 60,
    "rating": 4.0,
    "lat": 30.5250766,
    "lon": 104.3048304,
    "description": "A popular outdoor spot in Chengdu.",
    "city": "Chengdu"
  },
  {
    "name": "风水墩",
    "category": "history",
    "duration_minutes": 60,
    "rating": 4.0,
    "lat": 30.5079291,
    "lon": 103.6261852,
    "description": "A popular history spot in Chengdu.",
    "city": "Chengdu"
  },
  {
    "name": "飞升台",
    "category": "outdoor",
    "duration_minutes": 60,
    "rating": 4.0,
    "lat": 31.1733373,
    "lon": 103.9524372,
    "description": "A popular outdoor spot in Chengdu.",
    "city": "Chengdu"
  },
  {
    "name": "飞机起落观景台",
    "category": "outdoor",
    "duration_minutes": 60,
    "rating": 4.0,
    "lat": 30.5175916,
    "lon": 103.9307802,
    "description": "A popular outdoor spot in Chengdu.",
    "city": "Chengdu"
  },
  {
    "name": "飞虎奇兵馆",
    "category": "museum",
    "duration_minutes": 60,
    "rating": 4.0,
    "lat": 30.5011716,
    "lon": 103.617315,
    "description": "A popular museum spot in Chengdu.",
    "city": "Chengdu"
  },
  {
    "name": "饮食文化博物馆",
    "category": "museum",
    "duration_minutes": 60,
    "rating": 4.0,
    "lat": 30.5826881,
    "lon": 104.2782258,
    "description": "A popular museum spot in Chengdu.",
    "city": "Chengdu"
  },
  {
    "name": "马鞍山观景台",
    "category": "outdoor",
    "duration_minutes": 60,
    "rating": 4.0,
    "lat": 30.3284508,
    "lon": 104.2658235,
    "description": "A popular outdoor spot in Chengdu.",
    "city": "Chengdu"
  },
  {
    "name": "鱼凫王墓",
    "category": "history",
    "duration_minutes": 60,
    "rating": 4.0,
    "lat": 30.7983882,
    "lon": 103.756501,
    "description": "A popular history spot in Chengdu.",
    "city": "Chengdu"
  },
  {
    "name": "鱼嘴",
    "category": "sightseeing",
    "duration_minutes": 60,
    "rating": 4.0,
    "lat": 31.0092227,
    "lon": 103.604285,
    "description": "A popular sightseeing spot in Chengdu.",
    "city": "Chengdu"
  },
  {
    "name": "鲁家滩潮玩运动公园",
    "category": "outdoor",
    "duration_minutes": 60,
    "rating": 4.0,
    "lat": 30.702301,
    "lon": 103.7634209,
    "description": "A popular outdoor spot in Chengdu.",
    "city": "Chengdu"
  },
  {
    "name": "鲨鱼馆",
    "category": "sightseeing",
    "duration_minutes": 60,
    "rating": 4.0,
    "lat": 30.4981956,
    "lon": 104.0718462,
    "description": "A popular sightseeing spot in Chengdu.",
    "city": "Chengdu"
  },
  {
    "name": "鲸豚馆",
    "category": "sightseeing",
    "duration_minutes": 60,
    "rating": 4.0,
    "lat": 30.4977227,
    "lon": 104.070236,
    "description": "A popular sightseeing spot in Chengdu.",
    "city": "Chengdu"
  },
  {
    "name": "鸟瞰海窝子",
    "category": "outdoor",
    "duration_minutes": 60,
    "rating": 4.0,
    "lat": 31.1201514,
    "lon": 103.8538664,
    "description": "A popular outdoor spot in Chengdu.",
    "city": "Chengdu"
  },
  {
    "name": "鸟蛋展示区",
    "category": "sightseeing",
    "duration_minutes": 60,
    "rating": 4.0,
    "lat": 30.7104744,
    "lon": 104.1019969,
    "description": "A popular sightseeing spot in Chengdu.",
    "city": "Chengdu"
  },
  {
    "name": "鸟语林",
    "category": "outdoor",
    "duration_minutes": 60,
    "rating": 4.0,
    "lat": 30.6347474,
    "lon": 104.1244211,
    "description": "A popular outdoor spot in Chengdu.",
    "city": "Chengdu"
  },
  {
    "name": "鹿野苑石刻艺术博物馆",
    "category": "museum",
    "duration_minutes": 60,
    "rating": 4.0,
    "lat": 30.8844629,
    "lon": 103.867056,
    "description": "A popular museum spot in Chengdu.",
    "city": "Chengdu"
  },
  {
    "name": "麓山美术馆",
    "category": "sightseeing",
    "duration_minutes": 60,
    "rating": 4.0,
    "lat": 30.484274,
    "lon": 104.0918324,
    "description": "A popular sightseeing spot in Chengdu.",
    "city": "Chengdu"
  },
  {
    "name": "黃龙溪古鎮",
    "category": "sightseeing",
    "duration_minutes": 60,
    "rating": 4.0,
    "lat": 30.3176367,
    "lon": 103.9690498,
    "description": "A popular sightseeing spot in Chengdu.",
    "city": "Chengdu"
  },
  {
    "name": "黄浆岩观景台",
    "category": "outdoor",
    "duration_minutes": 60,
    "rating": 4.0,
    "lat": 30.2801661,
    "lon": 103.1248154,
    "description": "A popular outdoor spot in Chengdu.",
    "city": "Chengdu"
  },
  {
    "name": "黄葛树·树包碑",
    "category": "sightseeing",
    "duration_minutes": 60,
    "rating": 4.0,
    "lat": 30.7108909,
    "lon": 104.1032456,
    "description": "A popular sightseeing spot in Chengdu.",
    "city": "Chengdu"
  },
  {
    "name": "龙家山公园-竹立方观景台",
    "category": "outdoor",
    "duration_minutes": 60,
    "rating": 4.0,
    "lat": 30.6997802,
    "lon": 104.5464503,
    "description": "A popular outdoor spot in Chengdu.",
    "city": "Chengdu"
  },
  {
    "name": "龙泉山观景台",
    "category": "outdoor",
    "duration_minutes": 60,
    "rating": 4.0,
    "lat": 30.5598006,
    "lon": 104.3045488,
    "description": "A popular outdoor spot in Chengdu.",
    "city": "Chengdu"
  },
  {
    "name": "龙泉山隧洞",
    "category": "history",
    "duration_minutes": 60,
    "rating": 4.0,
    "lat": 30.458452,
    "lon": 104.2295811,
    "description": "A popular history spot in Chengdu.",
    "city": "Chengdu"
  },
  {
    "name": "龙泉驿区美术馆",
    "category": "sightseeing",
    "duration_minutes": 60,
    "rating": 4.0,
    "lat": 30.5639493,
    "lon": 104.2587803,
    "description": "A popular sightseeing spot in Chengdu.",
    "city": "Chengdu"
  },
  {
    "name": "龙泉驿欢乐田园",
    "category": "outdoor",
    "duration_minutes": 60,
    "rating": 4.0,
    "lat": 30.6068091,
    "lon": 104.2511296,
    "description": "A popular outdoor spot in Chengdu.",
    "city": "Chengdu"
  },
  {
    "name": "龙颈飞瀑",
    "category": "history",
    "duration_minutes": 60,
    "rating": 4.0,
    "lat": 30.322531,
    "lon": 103.9663486,
    "description": "A popular history spot in Chengdu.",
    "city": "Chengdu"
  },
  {
    "name": "龟负洛书",
    "category": "sightseeing",
    "duration_minutes": 60,
    "rating": 4.0,
    "lat": 30.7218534,
    "lon": 104.1298289,
    "description": "A popular sightseeing spot in Chengdu.",
    "city": "Chengdu"
  }
]