[
  {
    "name": "碧沙岗公园",
    "category": "outdoor",
    "duration_minutes": 120,
    "rating": 4.0,
    "lat": 34.75128,
    "lon": 113.630255,
    "description": "电话: 0371-67882871 | 地址: 建设东路31号(绿城广场地铁站J口步行50米) | 类别: 风景名胜;公园广场;公园",
    "city": "郑州"
  },
  {
    "name": "二七广场",
    "category": "outdoor",
    "duration_minutes": 120,
    "rating": 4.0,
    "lat": 34.75186,
    "lon": 113.666451,
    "description": "地址: 西大街21号 | 类别: 风景名胜;公园广场;城市广场",
    "city": "郑州"
  },
  {
    "name": "五一公园",
    "category": "outdoor",
    "duration_minutes": 120,
    "rating": 4.0,
    "lat": 34.753615,
    "lon": 113.617872,
    "description": "电话: 0371-66687406 | 地址: 文化宫路68号(五一公园地铁站D2口步行440米) | 类别: 风景名胜;公园广场;公园",
    "city": "郑州"
  },
  {
    "name": "碧沙岗",
    "category": "outdoor",
    "duration_minutes": 120,
    "rating": 4.0,
    "lat": 34.752896,
    "lon": 113.627417,
    "description": "电话: 0371-67449989 | 地址: 建设东路31号(碧沙岗地铁站B口步行380米) | 类别: 风景名胜;公园广场;公园|地名地址信息;热点地名;热点地名",
    "city": "郑州"
  },
  {
    "name": "郑州市人民公园",
    "category": "outdoor",
    "duration_minutes": 120,
    "rating": 4.0,
    "lat": 34.76161,
    "lon": 113.662369,
    "description": "电话: 0371-66222219 | 地址: 北二七路97号 | 类别: 风景名胜;公园广场;公园",
    "city": "郑州"
  },
  {
    "name": "德化步行街",
    "category": "sightseeing",
    "duration_minutes": 120,
    "rating": 4.0,
    "lat": 34.749703,
    "lon": 113.666303,
    "description": "地址: 德化街85附71号(二七广场地铁站F口步行480米) | 类别: 购物服务;特色商业街;特色商业街",
    "city": "郑州"
  },
  {
    "name": "郑州二砂文化创意园",
    "category": "sightseeing",
    "duration_minutes": 120,
    "rating": 4.0,
    "lat": 34.743255,
    "lon": 113.593681,
    "description": "地址: 华山路与颍河西路交叉口西500米路北 | 类别: 风景名胜;风景名胜;风景名胜",
    "city": "郑州"
  },
  {
    "name": "郑州二七纪念馆",
    "category": "history",
    "duration_minutes": 120,
    "rating": 4.0,
    "lat": 34.752186,
    "lon": 113.666494,
    "description": "电话: 0371-66959799;0371-66966798 | 地址: 德化街街道二七路230号二七广场(近火车站) | 类别: 风景名胜;风景名胜;纪念馆",
    "city": "郑州"
  },
  {
    "name": "西流湖公园",
    "category": "outdoor",
    "duration_minutes": 120,
    "rating": 4.0,
    "lat": 34.763312,
    "lon": 113.578986,
    "description": "地址: 建设西路与湖西路交叉口 | 类别: 风景名胜;公园广场;公园",
    "city": "郑州"
  },
  {
    "name": "郑州市月季公园",
    "category": "outdoor",
    "duration_minutes": 120,
    "rating": 4.0,
    "lat": 34.766916,
    "lon": 113.629315,
    "description": "地址: 西站路80号(桐柏路西站街81号院旁) | 类别: 风景名胜;公园广场;公园",
    "city": "郑州"
  },
  {
    "name": "遇见山海城市度假区",
    "category": "outdoor",
    "duration_minutes": 120,
    "rating": 4.0,
    "lat": 34.772464,
    "lon": 113.64927,
    "description": "电话: 0371-88509999 | 地址: 南阳路300号(海滩寺地铁站C口步行100米) | 类别: 体育休闲服务;度假疗养场所;度假村",
    "city": "郑州"
  },
  {
    "name": "河南博物院",
    "category": "museum",
    "duration_minutes": 120,
    "rating": 4.0,
    "lat": 34.788263,
    "lon": 113.672097,
    "description": "地址: 农业路8号 | 类别: 科教文化服务;博物馆;博物馆",
    "city": "郑州"
  },
  {
    "name": "紫荆山公园",
    "category": "outdoor",
    "duration_minutes": 120,
    "rating": 4.0,
    "lat": 34.76189,
    "lon": 113.687708,
    "description": "电话: 0371-65953180 | 地址: 金水路108号(紫荆山地铁站B口步行270米) | 类别: 风景名胜;公园广场;公园",
    "city": "郑州"
  },
  {
    "name": "二七米房时尚创意街区",
    "category": "sightseeing",
    "duration_minutes": 120,
    "rating": 4.0,
    "lat": 34.703116,
    "lon": 113.649385,
    "description": "电话: 18937678779 | 地址: 行云路赣江路西南角 | 类别: 体育休闲服务;体育休闲服务场所;体育休闲服务场所",
    "city": "郑州"
  },
  {
    "name": "郑州市动物园",
    "category": "outdoor",
    "duration_minutes": 120,
    "rating": 4.0,
    "lat": 34.789401,
    "lon": 113.685214,
    "description": "电话: 0371-65721245;0371-65738095 | 地址: 花园路103号(关虎屯地铁站A口步行120米) | 类别: 风景名胜;公园广场;动物园",
    "city": "郑州"
  },
  {
    "name": "郑州雕塑公园",
    "category": "outdoor",
    "duration_minutes": 120,
    "rating": 4.0,
    "lat": 34.782866,
    "lon": 113.590365,
    "description": "电话: 0371-85513876 | 地址: 化工路28号 | 类别: 风景名胜;公园广场;公园",
    "city": "郑州"
  },
  {
    "name": "极地冰雪小镇(郑州人民公园店)",
    "category": "outdoor",
    "duration_minutes": 120,
    "rating": 4.0,
    "lat": 34.757914,
    "lon": 113.662808,
    "description": "电话: 0371-88955711 | 地址: 西太康路58号(人民公园地铁站D口步行480米) | 类别: 体育休闲服务;休闲场所;游乐场|风景名胜;风景名胜相关;旅游景点",
    "city": "郑州"
  },
  {
    "name": "郑州商都遗址博物院",
    "category": "museum",
    "duration_minutes": 120,
    "rating": 4.0,
    "lat": 34.746532,
    "lon": 113.686552,
    "description": "电话: 0371-65106868 | 地址: 东大街366号 | 类别: 科教文化服务;博物馆;博物馆",
    "city": "郑州"
  },
  {
    "name": "郑州植物园",
    "category": "outdoor",
    "duration_minutes": 120,
    "rating": 4.0,
    "lat": 34.734592,
    "lon": 113.536584,
    "description": "电话: 0371-67888933 | 地址: 四环路 | 类别: 风景名胜;公园广场;植物园",
    "city": "郑州"
  },
  {
    "name": "郑州博物馆(文翰街馆)",
    "category": "museum",
    "duration_minutes": 120,
    "rating": 4.0,
    "lat": 34.7396,
    "lon": 113.54672,
    "description": "电话: 0371-67447301 | 地址: 文翰街与汇智路交叉口东南220米 | 类别: 科教文化服务;博物馆;博物馆",
    "city": "郑州"
  },
  {
    "name": "郑州市西流湖公园(北区)",
    "category": "outdoor",
    "duration_minutes": 120,
    "rating": 4.0,
    "lat": 34.776304,
    "lon": 113.587815,
    "description": "地址: 化工路 | 类别: 风景名胜;公园广场;公园",
    "city": "郑州"
  },
  {
    "name": "郑州大观音寺",
    "category": "history",
    "duration_minutes": 120,
    "rating": 4.0,
    "lat": 34.822344,
    "lon": 113.66632,
    "description": "电话: 15036122291 | 地址: 国基路76号 | 类别: 风景名胜;风景名胜;寺庙道观",
    "city": "郑州"
  },
  {
    "name": "郑州二七纪念堂",
    "category": "sightseeing",
    "duration_minutes": 120,
    "rating": 4.0,
    "lat": 34.74619,
    "lon": 113.66618,
    "description": "电话: 0371-66959799;0371-67119608 | 地址: 一马路街道钱塘路82号 | 类别: 风景名胜;风景名胜;风景名胜",
    "city": "郑州"
  },
  {
    "name": "众易广场",
    "category": "sightseeing",
    "duration_minutes": 120,
    "rating": 4.0,
    "lat": 34.736691,
    "lon": 113.642818,
    "description": "地址: 陇海中路与大学北路交叉口西100米 | 类别: 商务住宅;楼宇;商住两用楼宇",
    "city": "郑州"
  },
  {
    "name": "郑州之林",
    "category": "outdoor",
    "duration_minutes": 120,
    "rating": 4.0,
    "lat": 34.774692,
    "lon": 113.715345,
    "description": "地址: 众意西路 | 类别: 风景名胜;公园广场;公园",
    "city": "郑州"
  },
  {
    "name": "南环公园",
    "category": "outdoor",
    "duration_minutes": 120,
    "rating": 4.0,
    "lat": 34.666539,
    "lon": 113.647477,
    "description": "地址: 南四环与大学南路交叉口东北角 | 类别: 风景名胜;公园广场;公园",
    "city": "郑州"
  },
  {
    "name": "郑州党史馆",
    "category": "sightseeing",
    "duration_minutes": 120,
    "rating": 4.0,
    "lat": 34.744632,
    "lon": 113.627221,
    "description": "电话: 0371-67170952 | 地址: 嵩山南路66号(绿城广场地铁站F口步行260米) | 类别: 科教文化服务;科教文化场所;科教文化场所",
    "city": "郑州"
  },
  {
    "name": "中原福塔",
    "category": "history",
    "duration_minutes": 120,
    "rating": 4.0,
    "lat": 34.723295,
    "lon": 113.728679,
    "description": "电话: 0371-60609199 | 地址: 经济技术开发区航海东路1206号 | 类别: 风景名胜;风景名胜;国家级景点",
    "city": "郑州"
  },
  {
    "name": "郑州纺织工业遗址博物馆",
    "category": "museum",
    "duration_minutes": 120,
    "rating": 4.0,
    "lat": 34.760537,
    "lon": 113.617695,
    "description": "地址: 棉纺西路28号 | 类别: 科教文化服务;博物馆;博物馆",
    "city": "郑州"
  },
  {
    "name": "郑州海洋馆",
    "category": "outdoor",
    "duration_minutes": 120,
    "rating": 4.0,
    "lat": 34.820057,
    "lon": 113.658001,
    "description": "电话: 0371-63567403;0371-63567402;0371-63798862 | 地址: 国基路86号 | 类别: 风景名胜;公园广场;水族馆",
    "city": "郑州"
  },
  {
    "name": "郑州龙湖湿地公园",
    "category": "outdoor",
    "duration_minutes": 120,
    "rating": 4.0,
    "lat": 34.8142,
    "lon": 113.734745,
    "description": "地址: 源十三街隧道附近 | 类别: 风景名胜;公园广场;公园",
    "city": "郑州"
  },
  {
    "name": "郑州烈士陵园",
    "category": "sightseeing",
    "duration_minutes": 120,
    "rating": 4.0,
    "lat": 34.705835,
    "lon": 113.623243,
    "description": "电话: 0371-68953720 | 地址: 丹青路11号 | 类别: 生活服务;丧葬设施;陵园",
    "city": "郑州"
  },
  {
    "name": "郑州海洋世界",
    "category": "outdoor",
    "duration_minutes": 120,
    "rating": 4.0,
    "lat": 34.754104,
    "lon": 113.670905,
    "description": "电话: 13592173737 | 地址: 乐城祥锐广场负一楼 | 类别: 风景名胜;公园广场;水族馆",
    "city": "郑州"
  },
  {
    "name": "郑州世纪公园",
    "category": "outdoor",
    "duration_minutes": 120,
    "rating": 4.0,
    "lat": 34.731018,
    "lon": 113.719656,
    "description": "地址: 石化路1号 | 类别: 体育休闲服务;休闲场所;游乐场|风景名胜;风景名胜相关;旅游景点",
    "city": "郑州"
  },
  {
    "name": "郑州市滨河公园",
    "category": "outdoor",
    "duration_minutes": 120,
    "rating": 4.0,
    "lat": 34.743229,
    "lon": 113.635258,
    "description": "地址: 兴华北街8号 | 类别: 风景名胜;公园广场;公园",
    "city": "郑州"
  },
  {
    "name": "文博公园",
    "category": "outdoor",
    "duration_minutes": 120,
    "rating": 4.0,
    "lat": 34.788335,
    "lon": 113.674487,
    "description": "地址: 文化路街道农业路1号 | 类别: 风景名胜;公园广场;公园",
    "city": "郑州"
  },
  {
    "name": "河南艺术中心-文化广场",
    "category": "outdoor",
    "duration_minutes": 120,
    "rating": 4.0,
    "lat": 34.770705,
    "lon": 113.724036,
    "description": "地址: 商城路176-177号 | 类别: 风景名胜;公园广场;城市广场",
    "city": "郑州"
  },
  {
    "name": "郑州北大清真寺",
    "category": "sightseeing",
    "duration_minutes": 120,
    "rating": 4.0,
    "lat": 34.755416,
    "lon": 113.67871,
    "description": "地址: 清真寺街128号 | 类别: 风景名胜;风景名胜;回教寺",
    "city": "郑州"
  },
  {
    "name": "郑州蝶湖公园",
    "category": "outdoor",
    "duration_minutes": 120,
    "rating": 4.0,
    "lat": 34.683794,
    "lon": 113.77854,
    "description": "地址: 蝶湖东一街 | 类别: 风景名胜;公园广场;公园",
    "city": "郑州"
  },
  {
    "name": "大河村遗址博物馆",
    "category": "museum",
    "duration_minutes": 120,
    "rating": 4.0,
    "lat": 34.837405,
    "lon": 113.694559,
    "description": "地址: 中州大道与连霍高速交叉口南500米路东 | 类别: 科教文化服务;博物馆;博物馆",
    "city": "郑州"
  },
  {
    "name": "郑州商都古城旅游区",
    "category": "history",
    "duration_minutes": 120,
    "rating": 4.0,
    "lat": 34.747709,
    "lon": 113.687244,
    "description": "地址: 东大街292号 | 类别: 风景名胜;风景名胜;风景名胜",
    "city": "郑州"
  },
  {
    "name": "大玉米58楼城市观光厅",
    "category": "sightseeing",
    "duration_minutes": 120,
    "rating": 4.0,
    "lat": 34.770765,
    "lon": 113.727346,
    "description": "电话: 0371-68895858 | 地址: 会展路绿地千玺广场(会展中心地铁站E2口步行350米) | 类别: 风景名胜;风景名胜相关;旅游景点",
    "city": "郑州"
  },
  {
    "name": "东风渠生态文化公园",
    "category": "outdoor",
    "duration_minutes": 120,
    "rating": 4.0,
    "lat": 34.829988,
    "lon": 113.65935,
    "description": "地址: 文化路与三全路交叉口东北角 | 类别: 风景名胜;公园广场;公园",
    "city": "郑州"
  },
  {
    "name": "如意湖景区",
    "category": "outdoor",
    "duration_minutes": 120,
    "rating": 4.0,
    "lat": 34.772895,
    "lon": 113.724204,
    "description": "电话: 0371-55157573 | 地址: 商务内环路11号 | 类别: 风景名胜;风景名胜;风景名胜",
    "city": "郑州"
  },
  {
    "name": "大世界",
    "category": "sightseeing",
    "duration_minutes": 120,
    "rating": 4.0,
    "lat": 34.746356,
    "lon": 113.664857,
    "description": "地址: 敦睦路与大同路交叉口南60米 | 类别: 风景名胜;风景名胜相关;旅游景点",
    "city": "郑州"
  },
  {
    "name": "河南自然博物馆",
    "category": "museum",
    "duration_minutes": 120,
    "rating": 4.0,
    "lat": 34.765612,
    "lon": 113.751945,
    "description": "电话: 0371-68108999 | 地址: 郑东新区金水东路18号 | 类别: 科教文化服务;博物馆;博物馆",
    "city": "郑州"
  },
  {
    "name": "郑州市森林公园",
    "category": "outdoor",
    "duration_minutes": 120,
    "rating": 4.0,
    "lat": 34.812694,
    "lon": 113.708205,
    "description": "地址: 中州大道与广电南路交叉口向南120米路东 | 类别: 风景名胜;公园广场;公园",
    "city": "郑州"
  },
  {
    "name": "人民广场",
    "category": "outdoor",
    "duration_minutes": 120,
    "rating": 4.0,
    "lat": 34.763142,
    "lon": 113.679765,
    "description": "地址: 人民路11号 | 类别: 风景名胜;公园广场;城市广场",
    "city": "郑州"
  },
  {
    "name": "梦溪园",
    "category": "sightseeing",
    "duration_minutes": 120,
    "rating": 4.0,
    "lat": 34.760628,
    "lon": 113.689718,
    "description": "电话: 0371-65953180 | 地址: 金水路108号紫荆山公园(东南角) | 类别: 风景名胜;风景名胜相关;旅游景点",
    "city": "郑州"
  },
  {
    "name": "中铁·泰和里火车公园",
    "category": "outdoor",
    "duration_minutes": 120,
    "rating": 4.0,
    "lat": 34.738765,
    "lon": 113.660533,
    "description": "地址: 陇海中路5号附6号 | 类别: 风景名胜;公园广场;公园",
    "city": "郑州"
  },
  {
    "name": "绿荫公园",
    "category": "outdoor",
    "duration_minutes": 120,
    "rating": 4.0,
    "lat": 34.800681,
    "lon": 113.642944,
    "description": "地址: 东风路 | 类别: 风景名胜;公园广场;公园",
    "city": "郑州"
  },
  {
    "name": "大河村国家考古遗址公园",
    "category": "outdoor",
    "duration_minutes": 120,
    "rating": 4.0,
    "lat": 34.841266,
    "lon": 113.703616,
    "description": "电话: 0371-67171008 | 地址: 中州大道与连霍高速交叉口南500米路东 | 类别: 风景名胜;公园广场;公园",
    "city": "郑州"
  },
  {
    "name": "人民路基督教堂",
    "category": "sightseeing",
    "duration_minutes": 120,
    "rating": 4.0,
    "lat": 34.753949,
    "lon": 113.668159,
    "description": "地址: 二七广场地铁站A口步行220米 | 类别: 风景名胜;风景名胜;教堂",
    "city": "郑州"
  },
  {
    "name": "儿童公园",
    "category": "outdoor",
    "duration_minutes": 120,
    "rating": 4.0,
    "lat": 34.734055,
    "lon": 113.609082,
    "description": "地址: 陇海西路与桐柏南路交汇处向西250米路南 | 类别: 风景名胜;公园广场;公园",
    "city": "郑州"
  },
  {
    "name": "北下街清真寺",
    "category": "sightseeing",
    "duration_minutes": 120,
    "rating": 4.0,
    "lat": 34.752748,
    "lon": 113.670127,
    "description": "地址: 北下街与团结路交叉口南80米 | 类别: 风景名胜;风景名胜;回教寺",
    "city": "郑州"
  },
  {
    "name": "天健湖公园",
    "category": "outdoor",
    "duration_minutes": 120,
    "rating": 4.0,
    "lat": 34.81719,
    "lon": 113.482993,
    "description": "地址: 枫香街与创新大道交叉口西北侧 | 类别: 风景名胜;公园广场;公园",
    "city": "郑州"
  },
  {
    "name": "CBD广场",
    "category": "sightseeing",
    "duration_minutes": 120,
    "rating": 4.0,
    "lat": 34.769628,
    "lon": 113.728667,
    "description": "地址: 商务内环路中央公园1号国际商务会展中心 | 类别: 商务住宅;楼宇;楼宇相关|风景名胜;风景名胜相关;旅游景点",
    "city": "郑州"
  },
  {
    "name": "张湾火神爷庙",
    "category": "history",
    "duration_minutes": 120,
    "rating": 4.0,
    "lat": 34.739255,
    "lon": 113.570154,
    "description": "地址: 丹水大道 | 类别: 风景名胜;风景名胜;寺庙道观",
    "city": "郑州"
  },
  {
    "name": "阜民里广场",
    "category": "outdoor",
    "duration_minutes": 120,
    "rating": 4.0,
    "lat": 34.746349,
    "lon": 113.670939,
    "description": "地址: 城南路101号 | 类别: 风景名胜;公园广场;城市广场",
    "city": "郑州"
  },
  {
    "name": "航海广场",
    "category": "outdoor",
    "duration_minutes": 120,
    "rating": 4.0,
    "lat": 34.719832,
    "lon": 113.708196,
    "description": "地址: 航海东路(航海广场地铁站A口步行340米) | 类别: 风景名胜;公园广场;城市广场",
    "city": "郑州"
  },
  {
    "name": "如意湖文化广场",
    "category": "outdoor",
    "duration_minutes": 120,
    "rating": 4.0,
    "lat": 34.774632,
    "lon": 113.726122,
    "description": "地址: 如意湖 | 类别: 风景名胜;公园广场;城市广场",
    "city": "郑州"
  },
  {
    "name": "龙子湖公园",
    "category": "outdoor",
    "duration_minutes": 120,
    "rating": 4.0,
    "lat": 34.78741,
    "lon": 113.805447,
    "description": "地址: 博学路街道龙子湖东路秋实街交叉口公园内 | 类别: 风景名胜;公园广场;公园",
    "city": "郑州"
  },
  {
    "name": "郑州绿谷质量文化公园",
    "category": "outdoor",
    "duration_minutes": 120,
    "rating": 4.0,
    "lat": 34.809167,
    "lon": 113.592155,
    "description": "地址: 科学大道北50米 | 类别: 风景名胜;公园广场;公园",
    "city": "郑州"
  },
  {
    "name": "郑州龙湖湿地公园-粉黛园",
    "category": "outdoor",
    "duration_minutes": 120,
    "rating": 4.0,
    "lat": 34.824432,
    "lon": 113.716466,
    "description": "地址: 龙湖内环北路郑州龙湖公园(西北角) | 类别: 风景名胜;风景名胜相关;旅游景点",
    "city": "郑州"
  },
  {
    "name": "关帝庙",
    "category": "history",
    "duration_minutes": 120,
    "rating": 4.0,
    "lat": 34.769075,
    "lon": 113.574967,
    "description": "地址: 后仓村6号楼2单元 | 类别: 风景名胜;风景名胜;寺庙道观",
    "city": "郑州"
  },
  {
    "name": "净秀公园",
    "category": "outdoor",
    "duration_minutes": 120,
    "rating": 4.0,
    "lat": 34.717029,
    "lon": 113.6639,
    "description": "地址: 华中路与碧云路交叉口西120米 | 类别: 风景名胜;公园广场;公园",
    "city": "郑州"
  },
  {
    "name": "水墨秦淮",
    "category": "sightseeing",
    "duration_minutes": 120,
    "rating": 4.0,
    "lat": 34.727347,
    "lon": 113.640745,
    "description": "地址: 人和路升龙商业广场A区2层5-20013 | 类别: 风景名胜;风景名胜相关;旅游景点",
    "city": "郑州"
  },
  {
    "name": "郑东新区市民体育公园",
    "category": "outdoor",
    "duration_minutes": 120,
    "rating": 4.0,
    "lat": 34.758389,
    "lon": 113.764743,
    "description": "地址: 创业路 | 类别: 风景名胜;公园广场;公园",
    "city": "郑州"
  },
  {
    "name": "序园",
    "category": "outdoor",
    "duration_minutes": 120,
    "rating": 4.0,
    "lat": 34.734431,
    "lon": 113.624653,
    "description": "地址: 淮河西路与工人路交汇处东18 | 类别: 风景名胜;公园广场;公园",
    "city": "郑州"
  },
  {
    "name": "樱桃沟景区",
    "category": "sightseeing",
    "duration_minutes": 120,
    "rating": 4.0,
    "lat": 34.612593,
    "lon": 113.595447,
    "description": "电话: 0371-61773855;0371-68596677 | 地址: 侯寨乡凤栖南路 | 类别: 风景名胜;风景名胜;国家级景点",
    "city": "郑州"
  },
  {
    "name": "石佛和园",
    "category": "sightseeing",
    "duration_minutes": 120,
    "rating": 4.0,
    "lat": 34.814416,
    "lon": 113.586235,
    "description": "地址: 郁香路61号 | 类别: 风景名胜;风景名胜;风景名胜",
    "city": "郑州"
  },
  {
    "name": "小楼清真寺",
    "category": "sightseeing",
    "duration_minutes": 120,
    "rating": 4.0,
    "lat": 34.753209,
    "lon": 113.66327,
    "description": "地址: 解放路28号 | 类别: 风景名胜;风景名胜;回教寺",
    "city": "郑州"
  },
  {
    "name": "平等街·国韵潮声非遗文化街区",
    "category": "sightseeing",
    "duration_minutes": 120,
    "rating": 4.0,
    "lat": 34.749265,
    "lon": 113.673966,
    "description": "地址: 西大街街道刘家胡同与维新街交叉口东南100米 | 类别: 风景名胜;风景名胜;风景名胜",
    "city": "郑州"
  },
  {
    "name": "郑州黄河滩地公园",
    "category": "outdoor",
    "duration_minutes": 120,
    "rating": 4.0,
    "lat": 34.927372,
    "lon": 113.582336,
    "description": "地址: 黄河大坝路郑州黄河国家湿地公园 | 类别: 风景名胜;公园广场;公园",
    "city": "郑州"
  },
  {
    "name": "郑州绿城公园",
    "category": "outdoor",
    "duration_minutes": 120,
    "rating": 4.0,
    "lat": 34.716562,
    "lon": 113.606446,
    "description": "地址: 化工物流园斜对面 | 类别: 风景名胜;公园广场;公园",
    "city": "郑州"
  },
  {
    "name": "长江公园",
    "category": "outdoor",
    "duration_minutes": 120,
    "rating": 4.0,
    "lat": 34.711366,
    "lon": 113.613342,
    "description": "地址: 桐柏南路 | 类别: 风景名胜;公园广场;公园",
    "city": "郑州"
  },
  {
    "name": "经纬广场",
    "category": "outdoor",
    "duration_minutes": 120,
    "rating": 4.0,
    "lat": 34.768172,
    "lon": 113.696339,
    "description": "电话: 0371-65951659 | 地址: 纬四路20-1号 | 类别: 风景名胜;公园广场;城市广场",
    "city": "郑州"
  },
  {
    "name": "南水北调生态文化公园",
    "category": "outdoor",
    "duration_minutes": 120,
    "rating": 4.0,
    "lat": 34.692178,
    "lon": 113.636349,
    "description": "地址: 环翠路与人和路交叉口西380米 | 类别: 风景名胜;公园广场;公园",
    "city": "郑州"
  },
  {
    "name": "新郑市南龙湖城市湿地公园",
    "category": "outdoor",
    "duration_minutes": 120,
    "rating": 4.0,
    "lat": 34.632889,
    "lon": 113.712828,
    "description": "地址: 祥云路 | 类别: 风景名胜;公园广场;公园",
    "city": "郑州"
  },
  {
    "name": "郑州市紫荆山公园-西园",
    "category": "outdoor",
    "duration_minutes": 120,
    "rating": 4.0,
    "lat": 34.76279,
    "lon": 113.683866,
    "description": "电话: 0371-65953180 | 地址: 金水路108号紫荆山公园(紫荆山地铁站A口步行90米) | 类别: 风景名胜;风景名胜相关;旅游景点",
    "city": "郑州"
  },
  {
    "name": "双秀公园",
    "category": "outdoor",
    "duration_minutes": 120,
    "rating": 4.0,
    "lat": 34.709114,
    "lon": 113.672439,
    "description": "地址: 长江东路与连云路交叉口东南角 | 类别: 风景名胜;公园广场;公园",
    "city": "郑州"
  },
  {
    "name": "莲花公园",
    "category": "outdoor",
    "duration_minutes": 120,
    "rating": 4.0,
    "lat": 34.820201,
    "lon": 113.568071,
    "description": "地址: 枫杨办事处莲花街与迎春街交叉口东北150米 | 类别: 风景名胜;公园广场;公园",
    "city": "郑州"
  },
  {
    "name": "郑州市绿城广场",
    "category": "outdoor",
    "duration_minutes": 120,
    "rating": 4.0,
    "lat": 34.746381,
    "lon": 113.629954,
    "description": "地址: 兴华北街16-4号(绿城广场地铁站C口步行180米) | 类别: 风景名胜;公园广场;城市广场",
    "city": "郑州"
  },
  {
    "name": "二七纪念馆-纪念塔",
    "category": "museum",
    "duration_minutes": 120,
    "rating": 4.0,
    "lat": 34.752287,
    "lon": 113.666515,
    "description": "地址: 解放路与西大街交叉口南40米 | 类别: 体育休闲服务;娱乐场所;娱乐场所",
    "city": "郑州"
  },
  {
    "name": "郑州文庙",
    "category": "history",
    "duration_minutes": 120,
    "rating": 4.0,
    "lat": 34.748659,
    "lon": 113.688345,
    "description": "地址: 东大街301号(郑州文庙地铁站D口步行440米) | 类别: 风景名胜;风景名胜;寺庙道观",
    "city": "郑州"
  },
  {
    "name": "贾鲁河公园",
    "category": "outdoor",
    "duration_minutes": 120,
    "rating": 4.0,
    "lat": 34.72539,
    "lon": 113.575834,
    "description": "地址: 丹水大道与渠南路交叉口正南方向938米 | 类别: 风景名胜;公园广场;公园",
    "city": "郑州"
  },
  {
    "name": "郑州西流湖公园(南区)",
    "category": "outdoor",
    "duration_minutes": 120,
    "rating": 4.0,
    "lat": 34.760656,
    "lon": 113.576927,
    "description": "地址: 中原西路郑州西流湖公园南区 | 类别: 风景名胜;公园广场;公园",
    "city": "郑州"
  },
  {
    "name": "郑州商都国家考古遗址公园",
    "category": "outdoor",
    "duration_minutes": 120,
    "rating": 4.0,
    "lat": 34.747088,
    "lon": 113.687229,
    "description": "地址: 城南路商都遗址公园(郑州文庙地铁站B口步行80米) | 类别: 风景名胜;公园广场;公园",
    "city": "郑州"
  },
  {
    "name": "城隍庙",
    "category": "history",
    "duration_minutes": 120,
    "rating": 4.0,
    "lat": 34.752061,
    "lon": 113.686977,
    "description": "地址: 商城路84号 | 类别: 风景名胜;风景名胜;寺庙道观",
    "city": "郑州"
  },
  {
    "name": "明伦岛",
    "category": "sightseeing",
    "duration_minutes": 120,
    "rating": 4.0,
    "lat": 34.714655,
    "lon": 113.570941,
    "description": "地址: 侯寨乡鲁河明伦岛A区9号楼 | 类别: 风景名胜;风景名胜;风景名胜",
    "city": "郑州"
  },
  {
    "name": "河南南水北调博物馆(暂停开放)",
    "category": "museum",
    "duration_minutes": 120,
    "rating": 4.0,
    "lat": 34.745303,
    "lon": 113.627384,
    "description": "电话: 0371-67714993 | 地址: 嵩山南路168号 | 类别: 科教文化服务;博物馆;博物馆",
    "city": "郑州"
  },
  {
    "name": "青少年公园",
    "category": "outdoor",
    "duration_minutes": 120,
    "rating": 4.0,
    "lat": 34.785487,
    "lon": 113.655253,
    "description": "地址: 农业路天明路20号院东北侧约250米 | 类别: 风景名胜;公园广场;公园",
    "city": "郑州"
  },
  {
    "name": "佛光寺",
    "category": "history",
    "duration_minutes": 120,
    "rating": 4.0,
    "lat": 34.7699,
    "lon": 113.578346,
    "description": "地址: 西流湖街道建设路街道郑上路西流湖附近后仓村 | 类别: 风景名胜;风景名胜;寺庙道观",
    "city": "郑州"
  },
  {
    "name": "郑州树木园",
    "category": "sightseeing",
    "duration_minutes": 120,
    "rating": 4.0,
    "lat": 34.670784,
    "lon": 113.555864,
    "description": "地址: 侯寨乡316省道 | 类别: 风景名胜;风景名胜;风景名胜",
    "city": "郑州"
  },
  {
    "name": "郑州黄河国家湿地公园",
    "category": "outdoor",
    "duration_minutes": 120,
    "rating": 4.0,
    "lat": 34.908128,
    "lon": 113.654863,
    "description": "地址: 黄河大堤 | 类别: 风景名胜;风景名胜;风景名胜",
    "city": "郑州"
  },
  {
    "name": "Park Park",
    "category": "museum",
    "duration_minutes": 120,
    "rating": 4.0,
    "lat": 34.775525,
    "lon": 113.756427,
    "description": "地址: 熊儿河路与众旺路交叉口西北80米 | 类别: 科教文化服务;博物馆;博物馆",
    "city": "郑州"
  },
  {
    "name": "高铁公园",
    "category": "outdoor",
    "duration_minutes": 120,
    "rating": 4.0,
    "lat": 34.788562,
    "lon": 113.777497,
    "description": "地址: 平安大道与东三环交汇处 | 类别: 风景名胜;公园广场;公园广场",
    "city": "郑州"
  },
  {
    "name": "朱屯基督教堂",
    "category": "sightseeing",
    "duration_minutes": 120,
    "rating": 4.0,
    "lat": 34.772423,
    "lon": 113.619981,
    "description": "地址: 桐柏路街道桐柏路与煤仓北街交叉口 | 类别: 风景名胜;风景名胜;教堂",
    "city": "郑州"
  },
  {
    "name": "建业中原文化小镇樱桃沟足球小镇",
    "category": "sightseeing",
    "duration_minutes": 120,
    "rating": 4.0,
    "lat": 34.618548,
    "lon": 113.581698,
    "description": "地址: 侯寨乡上李河社区牛王庙嘴村001号 | 类别: 风景名胜;风景名胜相关;旅游景点",
    "city": "郑州"
  },
  {
    "name": "黄河花园口旅游区",
    "category": "sightseeing",
    "duration_minutes": 120,
    "rating": 4.0,
    "lat": 34.903629,
    "lon": 113.676636,
    "description": "电话: 0371-65983318 | 地址: 防汛拥军路与黄古线交叉口西北50米 | 类别: 风景名胜;风景名胜;省级景点",
    "city": "郑州"
  },
  {
    "name": "贾鲁河源头",
    "category": "sightseeing",
    "duration_minutes": 120,
    "rating": 4.0,
    "lat": 34.640738,
    "lon": 113.528342,
    "description": "电话: 15838026589 | 地址: 三水路012乡 | 类别: 风景名胜;风景名胜;风景名胜",
    "city": "郑州"
  },
  {
    "name": "海豚乐园",
    "category": "outdoor",
    "duration_minutes": 120,
    "rating": 4.0,
    "lat": 34.762926,
    "lon": 113.608193,
    "description": "电话: 0371-67690888 | 地址: 锦艺城购物中心B区北1号门西170米 | 类别: 风景名胜;公园广场;水族馆",
    "city": "郑州"
  },
  {
    "name": "陇秀公园",
    "category": "outdoor",
    "duration_minutes": 120,
    "rating": 4.0,
    "lat": 34.728058,
    "lon": 113.675655,
    "description": "地址: 陇海里路4号(陇秀公园地铁站A口步行140米) | 类别: 风景名胜;公园广场;公园",
    "city": "郑州"
  },
  {
    "name": "中原英烈纪念馆",
    "category": "history",
    "duration_minutes": 120,
    "rating": 4.0,
    "lat": 34.70857,
    "lon": 113.622705,
    "description": "电话: 0371-69389738 | 地址: 嵩山路街道工人路与丹青路交叉口向东100米 | 类别: 风景名胜;风景名胜;纪念馆",
    "city": "郑州"
  },
  {
    "name": "滨河公园",
    "category": "outdoor",
    "duration_minutes": 120,
    "rating": 4.0,
    "lat": 34.734303,
    "lon": 113.624614,
    "description": "地址: 陇海西路50号 | 类别: 风景名胜;公园广场;公园",
    "city": "郑州"
  },
  {
    "name": "云麓公园(装修中)",
    "category": "outdoor",
    "duration_minutes": 120,
    "rating": 4.0,
    "lat": 34.788299,
    "lon": 113.618246,
    "description": "地址: 嵩山北路 | 类别: 风景名胜;公园广场;公园",
    "city": "郑州"
  },
  {
    "name": "李商隐公园",
    "category": "outdoor",
    "duration_minutes": 120,
    "rating": 4.0,
    "lat": 34.754824,
    "lon": 113.448331,
    "description": "地址: 商隐路136号 | 类别: 风景名胜;公园广场;公园",
    "city": "郑州"
  },
  {
    "name": "龙湖广场",
    "category": "outdoor",
    "duration_minutes": 120,
    "rating": 4.0,
    "lat": 34.599746,
    "lon": 113.688468,
    "description": "地址: 文昌路与泰山路交叉口东南角 | 类别: 风景名胜;公园广场;城市广场",
    "city": "郑州"
  },
  {
    "name": "玉帝庙院",
    "category": "history",
    "duration_minutes": 120,
    "rating": 4.0,
    "lat": 34.714801,
    "lon": 113.608734,
    "description": "地址: 桐柏南路与滨湖南路交叉口西480米 | 类别: 风景名胜;风景名胜;寺庙道观",
    "city": "郑州"
  },
  {
    "name": "东陈伍寨公园",
    "category": "outdoor",
    "duration_minutes": 120,
    "rating": 4.0,
    "lat": 34.770893,
    "lon": 113.596015,
    "description": "地址: 金水西路 | 类别: 风景名胜;公园广场;公园",
    "city": "郑州"
  },
  {
    "name": "古树苑",
    "category": "outdoor",
    "duration_minutes": 120,
    "rating": 4.0,
    "lat": 34.865827,
    "lon": 113.616988,
    "description": "地址: 开元路与天河路交叉口向北300米 | 类别: 风景名胜;公园广场;公园",
    "city": "郑州"
  },
  {
    "name": "象湖",
    "category": "outdoor",
    "duration_minutes": 120,
    "rating": 4.0,
    "lat": 34.736387,
    "lon": 113.536614,
    "description": "电话: 0371-67888933 | 地址: 中原路与四环路交叉口向南1公里郑州植物园内 | 类别: 风景名胜;风景名胜相关;旅游景点",
    "city": "郑州"
  },
  {
    "name": "原日本驻郑州领事馆旧址(不对外开放)",
    "category": "history",
    "duration_minutes": 120,
    "rating": 4.0,
    "lat": 34.742774,
    "lon": 113.667682,
    "description": "地址: 东三马路80号 | 类别: 风景名胜;风景名胜;纪念馆",
    "city": "郑州"
  },
  {
    "name": "龙湖沙滩",
    "category": "outdoor",
    "duration_minutes": 120,
    "rating": 4.0,
    "lat": 34.823861,
    "lon": 113.714109,
    "description": "地址: 郑州龙湖湿地公园(西北角) | 类别: 风景名胜;风景名胜;海滩",
    "city": "郑州"
  },
  {
    "name": "郑州市西流湖公园月季花海",
    "category": "outdoor",
    "duration_minutes": 120,
    "rating": 4.0,
    "lat": 34.776329,
    "lon": 113.591015,
    "description": "地址: 西三环西流湖公园北区 | 类别: 风景名胜;风景名胜;风景名胜",
    "city": "郑州"
  },
  {
    "name": "汲古瞻园艺术馆",
    "category": "sightseeing",
    "duration_minutes": 120,
    "rating": 4.0,
    "lat": 34.618849,
    "lon": 113.581699,
    "description": "电话: 15038102875 | 地址: 侯寨乡上李河社区牛王庙嘴村001号建业中原文化小镇樱桃沟足球小镇 | 类别: 风景名胜;风景名胜相关;旅游景点",
    "city": "郑州"
  },
  {
    "name": "文博公园-文博广场",
    "category": "outdoor",
    "duration_minutes": 120,
    "rating": 4.0,
    "lat": 34.788032,
    "lon": 113.674347,
    "description": "地址: 文化路街道农业路1号文博公园 | 类别: 风景名胜;风景名胜相关;旅游景点",
    "city": "郑州"
  },
  {
    "name": "郑州普兰斯薰衣草庄园",
    "category": "sightseeing",
    "duration_minutes": 120,
    "rating": 4.0,
    "lat": 34.901162,
    "lon": 113.716412,
    "description": "地址: 花园口镇赵兰庄北2公里 | 类别: 风景名胜;风景名胜;风景名胜",
    "city": "郑州"
  },
  {
    "name": "郑州雕塑公园-童趣乐园",
    "category": "outdoor",
    "duration_minutes": 120,
    "rating": 4.0,
    "lat": 34.782223,
    "lon": 113.592464,
    "description": "地址: 化工路28号郑州雕塑公园内(东侧) | 类别: 风景名胜;风景名胜相关;旅游景点",
    "city": "郑州"
  },
  {
    "name": "锦和公园",
    "category": "outdoor",
    "duration_minutes": 120,
    "rating": 4.0,
    "lat": 34.84051,
    "lon": 113.525646,
    "description": "地址: 连霍高速与西四环交叉口西南角 | 类别: 风景名胜;公园广场;公园广场",
    "city": "郑州"
  },
  {
    "name": "二七区铭功路天主教堂",
    "category": "sightseeing",
    "duration_minutes": 120,
    "rating": 4.0,
    "lat": 34.75424,
    "lon": 113.659794,
    "description": "电话: 0371-66229744 | 地址: 一道街51-1号(人民公园地铁站B口步行400米) | 类别: 风景名胜;风景名胜;教堂",
    "city": "郑州"
  },
  {
    "name": "点点梦想城(名门城市广场A号楼店)",
    "category": "sightseeing",
    "duration_minutes": 120,
    "rating": 4.0,
    "lat": 34.761818,
    "lon": 113.712494,
    "description": "电话: 0371-66241666;0371-66243666 | 地址: 金水路297号名门城市广场5层 | 类别: 科教文化服务;培训机构;培训机构|体育休闲服务;体育休闲服务场所;体育休闲服务场所|风景名胜;风景名胜相关;旅游景点",
    "city": "郑州"
  },
  {
    "name": "法云寺",
    "category": "history",
    "duration_minutes": 120,
    "rating": 4.0,
    "lat": 34.690791,
    "lon": 113.776265,
    "description": "地址: 潮晟路路北 | 类别: 风景名胜;风景名胜;寺庙道观",
    "city": "郑州"
  },
  {
    "name": "晴云阁",
    "category": "sightseeing",
    "duration_minutes": 120,
    "rating": 4.0,
    "lat": 34.75578,
    "lon": 113.575297,
    "description": "地址: 柿园村卫生所(西湖花园南院西北)西侧220米 | 类别: 风景名胜;风景名胜;风景名胜",
    "city": "郑州"
  },
  {
    "name": "泰山村龙翔千稼集旅游风景区",
    "category": "outdoor",
    "duration_minutes": 120,
    "rating": 4.0,
    "lat": 34.579606,
    "lon": 113.639921,
    "description": "电话: 0371-85901919 | 地址: 龙湖街道 | 类别: 风景名胜;风景名胜;风景名胜",
    "city": "郑州"
  },
  {
    "name": "中州盆景园",
    "category": "outdoor",
    "duration_minutes": 120,
    "rating": 4.0,
    "lat": 34.769663,
    "lon": 113.587546,
    "description": "地址: 西流湖街道西流湖公园(东北角) | 类别: 风景名胜;公园广场;公园|商务住宅;住宅区;住宅小区",
    "city": "郑州"
  },
  {
    "name": "唐人街文化广场",
    "category": "outdoor",
    "duration_minutes": 120,
    "rating": 4.0,
    "lat": 34.754489,
    "lon": 113.720049,
    "description": "电话: 0371-66359988 | 地址: 商城东路3-1号 | 类别: 风景名胜;公园广场;城市广场",
    "city": "郑州"
  },
  {
    "name": "八卦庙",
    "category": "history",
    "duration_minutes": 120,
    "rating": 4.0,
    "lat": 34.710292,
    "lon": 113.581788,
    "description": "地址: 侯寨乡 | 类别: 风景名胜;风景名胜;寺庙道观",
    "city": "郑州"
  },
  {
    "name": "南裹头广场",
    "category": "outdoor",
    "duration_minutes": 120,
    "rating": 4.0,
    "lat": 34.929001,
    "lon": 113.612957,
    "description": "地址: 黄河大堤路 | 类别: 风景名胜;公园广场;城市广场",
    "city": "郑州"
  },
  {
    "name": "荥阳市人民公园",
    "category": "outdoor",
    "duration_minutes": 120,
    "rating": 4.0,
    "lat": 34.770773,
    "lon": 113.406304,
    "description": "电话: 0371-64931777 | 地址: 京城路31号 | 类别: 风景名胜;公园广场;植物园",
    "city": "郑州"
  },
  {
    "name": "商代亳都都城遗址",
    "category": "history",
    "duration_minutes": 120,
    "rating": 4.0,
    "lat": 34.746415,
    "lon": 113.674705,
    "description": "地址: 西大街街道东大街与城东路交口西侧420米路南郑州商都国家考古遗址公园内(西侧) | 类别: 风景名胜;风景名胜相关;旅游景点",
    "city": "郑州"
  },
  {
    "name": "龙湖湿地公园",
    "category": "outdoor",
    "duration_minutes": 120,
    "rating": 4.0,
    "lat": 34.822474,
    "lon": 113.711507,
    "description": "地址: 龙湖内环路龙湖湿地公园 | 类别: 风景名胜;风景名胜相关;旅游景点",
    "city": "郑州"
  },
  {
    "name": "郑州植物园-热带植物展览温室",
    "category": "sightseeing",
    "duration_minutes": 120,
    "rating": 4.0,
    "lat": 34.736951,
    "lon": 113.534549,
    "description": "电话: 0371-67888933 | 地址: 中原路与四环路交叉口向南1公里郑州植物园内(西北角) | 类别: 风景名胜;风景名胜相关;旅游景点",
    "city": "郑州"
  },
  {
    "name": "黄河富景生态世界(暂停开放)",
    "category": "sightseeing",
    "duration_minutes": 120,
    "rating": 4.0,
    "lat": 34.905107,
    "lon": 113.745115,
    "description": "电话: 0371-65632119 | 地址: 黄河东滩区 | 类别: 风景名胜;风景名胜;省级景点",
    "city": "郑州"
  },
  {
    "name": "人民广场毛主席雕像",
    "category": "sightseeing",
    "duration_minutes": 120,
    "rating": 4.0,
    "lat": 34.763386,
    "lon": 113.680777,
    "description": "地址: 金水路与人民路交叉口人民广场内(东侧) | 类别: 风景名胜;风景名胜;风景名胜",
    "city": "郑州"
  },
  {
    "name": "兰溪书院",
    "category": "sightseeing",
    "duration_minutes": 120,
    "rating": 4.0,
    "lat": 34.809118,
    "lon": 113.822824,
    "description": "电话: 19337198667 | 地址: 龙子湖街道北三环 | 类别: 商务住宅;住宅区;住宅小区",
    "city": "郑州"
  },
  {
    "name": "郑州蝶湖公园-沙滩",
    "category": "outdoor",
    "duration_minutes": 120,
    "rating": 4.0,
    "lat": 34.681259,
    "lon": 113.774139,
    "description": "地址: 蝶湖西南角 | 类别: 风景名胜;风景名胜;海滩",
    "city": "郑州"
  },
  {
    "name": "黄河博物馆",
    "category": "museum",
    "duration_minutes": 120,
    "rating": 4.0,
    "lat": 34.87184,
    "lon": 113.677764,
    "description": "电话: 0371-69556703;0371-69556704 | 地址: 花园北路与迎宾路交叉口 | 类别: 科教文化服务;博物馆;博物馆",
    "city": "郑州"
  },
  {
    "name": "象湖生态湿地公园",
    "category": "outdoor",
    "duration_minutes": 120,
    "rating": 4.0,
    "lat": 34.778664,
    "lon": 113.87406,
    "description": "地址: 郑东新区郑开大道 | 类别: 风景名胜;公园广场;公园",
    "city": "郑州"
  },
  {
    "name": "洞林湖国际旅游度假区",
    "category": "outdoor",
    "duration_minutes": 120,
    "rating": 4.0,
    "lat": 34.670218,
    "lon": 113.481606,
    "description": "电话: 0371-85228686 | 类别: 风景名胜;风景名胜;省级景点",
    "city": "郑州"
  },
  {
    "name": "管城体育公园",
    "category": "outdoor",
    "duration_minutes": 120,
    "rating": 4.0,
    "lat": 34.685589,
    "lon": 113.714465,
    "description": "地址: 紫辰路与鼎尚街交叉口南220米 | 类别: 风景名胜;公园广场;公园",
    "city": "郑州"
  },
  {
    "name": "数码公园",
    "category": "outdoor",
    "duration_minutes": 120,
    "rating": 4.0,
    "lat": 34.79885,
    "lon": 113.674174,
    "description": "地址: 东风路与渠西路交叉口 | 类别: 风景名胜;公园广场;公园",
    "city": "郑州"
  },
  {
    "name": "紫荆山广场",
    "category": "outdoor",
    "duration_minutes": 120,
    "rating": 4.0,
    "lat": 34.762662,
    "lon": 113.684149,
    "description": "电话: 0371-65953180 | 地址: 金水路108号(紫荆山地铁站A口步行150米) | 类别: 风景名胜;公园广场;公园",
    "city": "郑州"
  },
  {
    "name": "郑州黄河文化公园",
    "category": "outdoor",
    "duration_minutes": 120,
    "rating": 4.0,
    "lat": 34.953667,
    "lon": 113.512589,
    "description": "电话: 0371-68222228 | 地址: 江山路黄河南岸1号 | 类别: 风景名胜;风景名胜;国家级景点",
    "city": "郑州"
  },
  {
    "name": "大佛寺",
    "category": "history",
    "duration_minutes": 120,
    "rating": 4.0,
    "lat": 34.758187,
    "lon": 113.571891,
    "description": "地址: 凯旋路89号(西流湖地铁站B口步行400米) | 类别: 风景名胜;风景名胜;寺庙道观",
    "city": "郑州"
  },
  {
    "name": "郑州商代遗址",
    "category": "history",
    "duration_minutes": 120,
    "rating": 4.0,
    "lat": 34.75106,
    "lon": 113.690277,
    "description": "地址: 郑州文庙地铁站C口步行480米 | 类别: 风景名胜;风景名胜;风景名胜",
    "city": "郑州"
  },
  {
    "name": "金水源欢乐岛",
    "category": "sightseeing",
    "duration_minutes": 120,
    "rating": 4.0,
    "lat": 34.66919,
    "lon": 113.618866,
    "description": "电话: 17760733468 | 地址: 嵩山南路与桂江路交叉口向西1000米路南 | 类别: 体育休闲服务;休闲场所;游乐场",
    "city": "郑州"
  },
  {
    "name": "东城垣遗址博物馆",
    "category": "museum",
    "duration_minutes": 120,
    "rating": 4.0,
    "lat": 34.753359,
    "lon": 113.690781,
    "description": "电话: 0371-61778575 | 地址: 城东路123-2号 | 类别: 科教文化服务;博物馆;博物馆",
    "city": "郑州"
  },
  {
    "name": "天和园",
    "category": "outdoor",
    "duration_minutes": 120,
    "rating": 4.0,
    "lat": 34.703956,
    "lon": 113.62722,
    "description": "地址: 嵩山南路 | 类别: 风景名胜;公园广场;公园",
    "city": "郑州"
  },
  {
    "name": "黄河滩",
    "category": "sightseeing",
    "duration_minutes": 120,
    "rating": 4.0,
    "lat": 34.928896,
    "lon": 113.613109,
    "description": "地址: 新城街道南裹头广场东北 | 类别: 风景名胜;风景名胜;海滩",
    "city": "郑州"
  },
  {
    "name": "中亘西流湖游乐园",
    "category": "outdoor",
    "duration_minutes": 120,
    "rating": 4.0,
    "lat": 34.770301,
    "lon": 113.5536,
    "description": "电话: 18939560111 | 地址: 雪松路与昌达路东南角雪松路2号001号 | 类别: 体育休闲服务;休闲场所;游乐场",
    "city": "郑州"
  },
  {
    "name": "郑州市长江路基督教堂",
    "category": "outdoor",
    "duration_minutes": 120,
    "rating": 4.0,
    "lat": 34.70564,
    "lon": 113.641697,
    "description": "电话: 0371-68976220 | 地址: 大学南路98号 | 类别: 风景名胜;风景名胜;教堂",
    "city": "郑州"
  },
  {
    "name": "洞林湖",
    "category": "outdoor",
    "duration_minutes": 120,
    "rating": 4.0,
    "lat": 34.672643,
    "lon": 113.488134,
    "description": "地址: 贾峪镇新田大道 | 类别: 风景名胜;风景名胜;风景名胜",
    "city": "郑州"
  },
  {
    "name": "吉象小镇",
    "category": "sightseeing",
    "duration_minutes": 120,
    "rating": 4.0,
    "lat": 34.784566,
    "lon": 113.613922,
    "description": "地址: 五龙口南路8号建业盛悦销售中心大楼 | 类别: 风景名胜;风景名胜相关;旅游景点",
    "city": "郑州"
  },
  {
    "name": "东风渠滨河公园",
    "category": "outdoor",
    "duration_minutes": 120,
    "rating": 4.0,
    "lat": 34.79902,
    "lon": 113.67901,
    "description": "地址: 东风路与花园路交叉口 | 类别: 风景名胜;公园广场;公园",
    "city": "郑州"
  },
  {
    "name": "郑州索河郊野公园",
    "category": "outdoor",
    "duration_minutes": 120,
    "rating": 4.0,
    "lat": 34.708495,
    "lon": 113.381985,
    "description": "电话: 0371-85296369 | 地址: 乔楼镇塔山南路 | 类别: 风景名胜;公园广场;公园",
    "city": "郑州"
  },
  {
    "name": "忆江南旅游度假区",
    "category": "outdoor",
    "duration_minutes": 120,
    "rating": 4.0,
    "lat": 34.913359,
    "lon": 113.490632,
    "description": "电话: 0371-85217777;0371-85218888 | 地址: 江山路与炎黄快速路交叉口向西5000米路北 | 类别: 风景名胜;风景名胜;风景名胜",
    "city": "郑州"
  },
  {
    "name": "须水河滨河公园",
    "category": "outdoor",
    "duration_minutes": 120,
    "rating": 4.0,
    "lat": 34.815992,
    "lon": 113.513527,
    "description": "地址: 沟赵乡枫香街郑州轻工业大学(科学校区)对面 | 类别: 风景名胜;公园广场;公园",
    "city": "郑州"
  },
  {
    "name": "经开滨河公园",
    "category": "outdoor",
    "duration_minutes": 120,
    "rating": 4.0,
    "lat": 34.684348,
    "lon": 113.768692,
    "description": "地址: 蝶湖东一街郑州蝶湖公园 | 类别: 风景名胜;公园广场;公园",
    "city": "郑州"
  },
  {
    "name": "解放路游园",
    "category": "outdoor",
    "duration_minutes": 120,
    "rating": 4.0,
    "lat": 34.754279,
    "lon": 113.656427,
    "description": "地址: 解放路89附近 | 类别: 风景名胜;公园广场;公园",
    "city": "郑州"
  },
  {
    "name": "西吴河科普公园",
    "category": "outdoor",
    "duration_minutes": 120,
    "rating": 4.0,
    "lat": 34.697144,
    "lon": 113.705845,
    "description": "地址: 十八里河镇中州大道辅路与紫辰路交叉口东160米 | 类别: 风景名胜;公园广场;公园",
    "city": "郑州"
  },
  {
    "name": "郑州方特旅游度假区",
    "category": "sightseeing",
    "duration_minutes": 120,
    "rating": 4.0,
    "lat": 34.765965,
    "lon": 113.929932,
    "description": "电话: 0371-56928000;4001660006 | 地址: 郑汴物流通道与人文路交叉口 | 类别: 风景名胜;风景名胜相关;旅游景点",
    "city": "郑州"
  },
  {
    "name": "普罗旺世爱丽丝公园",
    "category": "outdoor",
    "duration_minutes": 120,
    "rating": 4.0,
    "lat": 34.821217,
    "lon": 113.635383,
    "description": "地址: 国基路与丰华北路交叉口东北300米 | 类别: 风景名胜;公园广场;公园",
    "city": "郑州"
  },
  {
    "name": "长平游园",
    "category": "outdoor",
    "duration_minutes": 120,
    "rating": 4.0,
    "lat": 34.709349,
    "lon": 113.64309,
    "description": "地址: 长江中路与大学南路交叉口西南角 | 类别: 风景名胜;公园广场;公园",
    "city": "郑州"
  },
  {
    "name": "足球公园",
    "category": "outdoor",
    "duration_minutes": 120,
    "rating": 4.0,
    "lat": 34.804127,
    "lon": 113.72277,
    "description": "地址: 众意路与如意河西二街交叉口西260米 | 类别: 风景名胜;公园广场;公园",
    "city": "郑州"
  },
  {
    "name": "郑州大象陶瓷博物馆",
    "category": "museum",
    "duration_minutes": 120,
    "rating": 4.0,
    "lat": 34.760177,
    "lon": 113.689335,
    "description": "电话: 18203675959 | 地址: 顺河路36号 | 类别: 科教文化服务;博物馆;博物馆",
    "city": "郑州"
  },
  {
    "name": "郑新公园",
    "category": "outdoor",
    "duration_minutes": 120,
    "rating": 4.0,
    "lat": 34.698477,
    "lon": 113.686925,
    "description": "地址: 新郑路和南三环交汇处 | 类别: 风景名胜;公园广场;公园",
    "city": "郑州"
  },
  {
    "name": "灰色博物馆",
    "category": "museum",
    "duration_minutes": 120,
    "rating": 4.0,
    "lat": 34.749208,
    "lon": 113.665465,
    "description": "电话: 18664610520 | 地址: 二七区无限城购物中心5楼546-566号 | 类别: 科教文化服务;博物馆;博物馆",
    "city": "郑州"
  },
  {
    "name": "滨河国际新城",
    "category": "outdoor",
    "duration_minutes": 120,
    "rating": 4.0,
    "lat": 34.687261,
    "lon": 113.790261,
    "description": "地址: 经开第十四大街与经南八路交叉口西南240米 | 类别: 风景名胜;公园广场;城市广场|商务住宅;产业园区;产业园区",
    "city": "郑州"
  },
  {
    "name": "文化公园",
    "category": "outdoor",
    "duration_minutes": 120,
    "rating": 4.0,
    "lat": 34.804201,
    "lon": 113.668122,
    "description": "地址: 文化路与文劳路交叉口向南90米路东 | 类别: 风景名胜;公园广场;公园",
    "city": "郑州"
  },
  {
    "name": "郑州方特欢乐世界",
    "category": "sightseeing",
    "duration_minutes": 120,
    "rating": 4.0,
    "lat": 34.767309,
    "lon": 113.932376,
    "description": "电话: 0371-56928000;4001660006 | 地址: 物流大道与人文路交叉口向南 | 类别: 体育休闲服务;休闲场所;游乐场",
    "city": "郑州"
  },
  {
    "name": "荥阳京襄城遗址生态园",
    "category": "history",
    "duration_minutes": 120,
    "rating": 4.0,
    "lat": 34.723579,
    "lon": 113.443189,
    "description": "地址: 京襄城遗址生态园(商隐路西200米) | 类别: 风景名胜;风景名胜;风景名胜",
    "city": "郑州"
  },
  {
    "name": "郑州CPark文化广场",
    "category": "outdoor",
    "duration_minutes": 120,
    "rating": 4.0,
    "lat": 34.742936,
    "lon": 113.546865,
    "description": "地址: 丹水大道与汇智路交叉口东侧(郑州博物馆北侧广场) | 类别: 风景名胜;公园广场;公园广场",
    "city": "郑州"
  },
  {
    "name": "铁路苗圃健身公园",
    "category": "outdoor",
    "duration_minutes": 120,
    "rating": 4.0,
    "lat": 34.725977,
    "lon": 113.668261,
    "description": "地址: 苗圃街苗圃花园社区南侧约70米 | 类别: 风景名胜;公园广场;公园",
    "city": "郑州"
  },
  {
    "name": "洞林寺",
    "category": "sightseeing",
    "duration_minutes": 120,
    "rating": 4.0,
    "lat": 34.676302,
    "lon": 113.493874,
    "description": "地址: 新田城维他左岸街20号东北方向190米 | 类别: 风景名胜;风景名胜;风景名胜",
    "city": "郑州"
  },
  {
    "name": "郑州聚瓷博物馆",
    "category": "museum",
    "duration_minutes": 120,
    "rating": 4.0,
    "lat": 34.738057,
    "lon": 113.627366,
    "description": "地址: 嵩山南路与陇海中路辅路交叉口西北180米 | 类别: 科教文化服务;博物馆;博物馆",
    "city": "郑州"
  },
  {
    "name": "绿博园",
    "category": "sightseeing",
    "duration_minutes": 120,
    "rating": 4.0,
    "lat": 34.755324,
    "lon": 113.933241,
    "description": "电话: 0371-69682333;0371-69682111 | 地址: 郑开大道与人文路交汇处 | 类别: 风景名胜;风景名胜;国家级景点",
    "city": "郑州"
  },
  {
    "name": "郑州银基动物王国",
    "category": "outdoor",
    "duration_minutes": 120,
    "rating": 4.0,
    "lat": 34.486206,
    "lon": 113.550465,
    "description": "电话: 4000178178 | 地址: 刘寨镇大鸿路1号银基国际旅游度假区 | 类别: 风景名胜;公园广场;动物园",
    "city": "郑州"
  },
  {
    "name": "郑州佛学社",
    "category": "history",
    "duration_minutes": 120,
    "rating": 4.0,
    "lat": 34.757935,
    "lon": 113.671149,
    "description": "地址: 杜岭街169号(人民路地铁站D口步行270米) | 类别: 风景名胜;风景名胜;寺庙道观",
    "city": "郑州"
  },
  {
    "name": "潘多拉森林动物王国",
    "category": "outdoor",
    "duration_minutes": 120,
    "rating": 4.0,
    "lat": 34.85647,
    "lon": 113.812713,
    "description": "地址: 东四环(马渡村5号院南侧约150米) | 类别: 风景名胜;风景名胜相关;旅游景点",
    "city": "郑州"
  },
  {
    "name": "七里河公园",
    "category": "outdoor",
    "duration_minutes": 120,
    "rating": 4.0,
    "lat": 34.757901,
    "lon": 113.752587,
    "description": "地址: 客文一街与七里河围和处 | 类别: 风景名胜;公园广场;公园",
    "city": "郑州"
  },
  {
    "name": "三皇山桃花峪旅游区",
    "category": "outdoor",
    "duration_minutes": 120,
    "rating": 4.0,
    "lat": 34.944512,
    "lon": 113.493979,
    "description": "地址: 广武镇桃花峪风景区(黄河风景名胜区西侧,黄河岸边) | 类别: 风景名胜;风景名胜;省级景点",
    "city": "郑州"
  },
  {
    "name": "郑州银基国际旅游度假区",
    "category": "sightseeing",
    "duration_minutes": 120,
    "rating": 4.0,
    "lat": 34.483547,
    "lon": 113.550128,
    "description": "电话: 4000178178;+862126137886,17386939 | 地址: 刘寨镇大鸿路1号 | 类别: 体育休闲服务;度假疗养场所;度假村",
    "city": "郑州"
  },
  {
    "name": "郑州百年古宅(任家古宅)",
    "category": "museum",
    "duration_minutes": 120,
    "rating": 4.0,
    "lat": 34.829909,
    "lon": 113.560659,
    "description": "地址: 雪松路东 | 类别: 科教文化服务;博物馆;博物馆",
    "city": "郑州"
  },
  {
    "name": "滨湖湿地公园",
    "category": "outdoor",
    "duration_minutes": 120,
    "rating": 4.0,
    "lat": 34.808114,
    "lon": 113.723307,
    "description": "地址: 郑州龙湖湿地公园(西南角) | 类别: 风景名胜;公园广场;公园",
    "city": "郑州"
  },
  {
    "name": "郑州商代遗址",
    "category": "outdoor",
    "duration_minutes": 120,
    "rating": 4.0,
    "lat": 34.755429,
    "lon": 113.67215,
    "description": "地址: 国家考古遗址公园 | 类别: 风景名胜;公园广场;公园",
    "city": "郑州"
  },
  {
    "name": "荷花观赏区",
    "category": "sightseeing",
    "duration_minutes": 120,
    "rating": 4.0,
    "lat": 34.75122,
    "lon": 113.571642,
    "description": "地址: 西流湖公园(西南角) | 类别: 风景名胜;风景名胜相关;旅游景点",
    "city": "郑州"
  },
  {
    "name": "贾鲁河玩水大岩石",
    "category": "sightseeing",
    "duration_minutes": 120,
    "rating": 4.0,
    "lat": 34.725022,
    "lon": 113.575302,
    "description": "地址: 贾鲁河公园 | 类别: 风景名胜;风景名胜;风景名胜",
    "city": "郑州"
  },
  {
    "name": "八一游园",
    "category": "outdoor",
    "duration_minutes": 120,
    "rating": 4.0,
    "lat": 34.728312,
    "lon": 113.59594,
    "description": "地址: 昆仑路与淮河西路交叉口南60米 | 类别: 风景名胜;公园广场;公园",
    "city": "郑州"
  },
  {
    "name": "黄帝千古情景区(暂停开放)",
    "category": "sightseeing",
    "duration_minutes": 120,
    "rating": 4.0,
    "lat": 34.598516,
    "lon": 113.645635,
    "description": "电话: 0371-58676666 | 地址: 大学南路566号 | 类别: 风景名胜;风景名胜相关;旅游景点",
    "city": "郑州"
  },
  {
    "name": "嗨皮文旅小镇",
    "category": "sightseeing",
    "duration_minutes": 120,
    "rating": 4.0,
    "lat": 34.676915,
    "lon": 113.468909,
    "description": "地址: 贾峪镇新田城北大路5-1号 | 类别: 体育休闲服务;娱乐场所;游戏厅",
    "city": "郑州"
  },
  {
    "name": "西港短剧影视城",
    "category": "sightseeing",
    "duration_minutes": 120,
    "rating": 4.0,
    "lat": 34.640454,
    "lon": 113.548074,
    "description": "电话: 18839770714 | 地址: 河源西路3号 | 类别: 风景名胜;风景名胜相关;旅游景点",
    "city": "郑州"
  },
  {
    "name": "贾鲁河滨河公园",
    "category": "outdoor",
    "duration_minutes": 120,
    "rating": 4.0,
    "lat": 34.849905,
    "lon": 113.627577,
    "description": "地址: 旭辉一江雲著东侧280米 | 类别: 风景名胜;公园广场;公园",
    "city": "郑州"
  },
  {
    "name": "滨河公园",
    "category": "outdoor",
    "duration_minutes": 120,
    "rating": 4.0,
    "lat": 34.718936,
    "lon": 113.730332,
    "description": "地址: 城东路街道(中原福塔地铁站B口步行240米) | 类别: 风景名胜;公园广场;公园",
    "city": "郑州"
  },
  {
    "name": "东石羊寺村",
    "category": "sightseeing",
    "duration_minutes": 120,
    "rating": 4.0,
    "lat": 34.740477,
    "lon": 113.58611,
    "description": "地址: 颍河西路与冠云路交叉口西100米 | 类别: 风景名胜;风景名胜相关;旅游景点",
    "city": "郑州"
  },
  {
    "name": "月湖公园",
    "category": "outdoor",
    "duration_minutes": 120,
    "rating": 4.0,
    "lat": 34.872963,
    "lon": 113.638031,
    "description": "地址: 文化路与开元路交汇处(北大学城) | 类别: 风景名胜;公园广场;公园",
    "city": "郑州"
  },
  {
    "name": "郑州市西太康路基督教堂",
    "category": "sightseeing",
    "duration_minutes": 120,
    "rating": 4.0,
    "lat": 34.757606,
    "lon": 113.663657,
    "description": "电话: 0371-66253622 | 地址: 西太康路 | 类别: 风景名胜;风景名胜;教堂",
    "city": "郑州"
  },
  {
    "name": "郑州市动物园-动物王国",
    "category": "outdoor",
    "duration_minutes": 120,
    "rating": 4.0,
    "lat": 34.78862,
    "lon": 113.68606,
    "description": "电话: 0371-65721245;0371-65738095 | 地址: 花园路103(郑州市动物园) | 类别: 风景名胜;公园广场;动物园",
    "city": "郑州"
  },
  {
    "name": "海事广场",
    "category": "outdoor",
    "duration_minutes": 120,
    "rating": 4.0,
    "lat": 34.920951,
    "lon": 113.638928,
    "description": "地址: 黄河观光路与疏影路交叉口东北420米 | 类别: 风景名胜;公园广场;公园广场",
    "city": "郑州"
  },
  {
    "name": "牛砦清真寺",
    "category": "sightseeing",
    "duration_minutes": 120,
    "rating": 4.0,
    "lat": 34.766111,
    "lon": 113.61631,
    "description": "地址: 桐柏北路89号 | 类别: 风景名胜;风景名胜;回教寺",
    "city": "郑州"
  },
  {
    "name": "西流叠瀑",
    "category": "sightseeing",
    "duration_minutes": 120,
    "rating": 4.0,
    "lat": 34.779361,
    "lon": 113.586711,
    "description": "地址: 农业快速路入口与湖西路交叉口东南160米 | 类别: 风景名胜;风景名胜相关;旅游景点",
    "city": "郑州"
  },
  {
    "name": "绚秋林",
    "category": "outdoor",
    "duration_minutes": 120,
    "rating": 4.0,
    "lat": 34.716589,
    "lon": 113.651232,
    "description": "地址: 华中路与行云路交叉处 | 类别: 风景名胜;公园广场;公园广场",
    "city": "郑州"
  },
  {
    "name": "思念果岭悦温泉",
    "category": "sightseeing",
    "duration_minutes": 120,
    "rating": 4.0,
    "lat": 34.912865,
    "lon": 113.516283,
    "description": "电话: 0371-56090688;0371-63626663 | 地址: 黄河南岸86号思念果岭国际社区内 | 类别: 风景名胜;风景名胜相关;旅游景点",
    "city": "郑州"
  },
  {
    "name": "禹锡园",
    "category": "sightseeing",
    "duration_minutes": 120,
    "rating": 4.0,
    "lat": 34.77014,
    "lon": 113.415637,
    "description": "地址: 禹锡路液化气公司对面 | 类别: 风景名胜;风景名胜;风景名胜",
    "city": "郑州"
  },
  {
    "name": "人民公园·百年国槐",
    "category": "outdoor",
    "duration_minutes": 120,
    "rating": 4.0,
    "lat": 34.757928,
    "lon": 113.664244,
    "description": "地址: 人民公园南门内 | 类别: 风景名胜;风景名胜;风景名胜",
    "city": "郑州"
  },
  {
    "name": "丽景园",
    "category": "outdoor",
    "duration_minutes": 120,
    "rating": 4.0,
    "lat": 34.732313,
    "lon": 113.616352,
    "description": "地址: 汝河路与文化宫路交叉口 | 类别: 风景名胜;公园广场;公园",
    "city": "郑州"
  },
  {
    "name": "奥帕拉拉水公园(荥阳店)(暂停营业)",
    "category": "outdoor",
    "duration_minutes": 120,
    "rating": 4.0,
    "lat": 34.754541,
    "lon": 113.451606,
    "description": "电话: 0371-22052025;0371-88553333 | 地址: 中原西路与商隐路交叉口向北200米 | 类别: 体育休闲服务;休闲场所;水上活动中心",
    "city": "郑州"
  },
  {
    "name": "西流湖瀑布",
    "category": "outdoor",
    "duration_minutes": 120,
    "rating": 4.0,
    "lat": 34.765475,
    "lon": 113.578311,
    "description": "地址: 湖西路30-1号 | 类别: 风景名胜;风景名胜;风景名胜",
    "city": "郑州"
  },
  {
    "name": "园田路基督教堂",
    "category": "sightseeing",
    "duration_minutes": 120,
    "rating": 4.0,
    "lat": 34.80425,
    "lon": 113.652455,
    "description": "电话: 0371-63756107 | 地址: 园田路11号 | 类别: 风景名胜;风景名胜;教堂",
    "city": "郑州"
  },
  {
    "name": "序园",
    "category": "outdoor",
    "duration_minutes": 120,
    "rating": 4.0,
    "lat": 34.72989,
    "lon": 113.622638,
    "description": "地址: 淮河西路 | 类别: 风景名胜;公园广场;公园",
    "city": "郑州"
  },
  {
    "name": "黄门香皂博物馆",
    "category": "museum",
    "duration_minutes": 120,
    "rating": 4.0,
    "lat": 34.772125,
    "lon": 113.640825,
    "description": "地址: 郑州记忆油化厂创意园(沙口路地铁站D口步行300米) | 类别: 科教文化服务;博物馆;博物馆",
    "city": "郑州"
  },
  {
    "name": "安阳宫",
    "category": "history",
    "duration_minutes": 120,
    "rating": 4.0,
    "lat": 34.749679,
    "lon": 113.570396,
    "description": "地址: 中原西路(郑州西流湖公园) | 类别: 风景名胜;风景名胜;寺庙道观",
    "city": "郑州"
  },
  {
    "name": "郑州文博森林公园",
    "category": "outdoor",
    "duration_minutes": 120,
    "rating": 4.0,
    "lat": 34.665699,
    "lon": 113.567507,
    "description": "地址: 侯寨乡尖岗水库南侧,台郭小学附近,近316省道 | 类别: 风景名胜;公园广场;公园",
    "city": "郑州"
  },
  {
    "name": "郑淮游园",
    "category": "outdoor",
    "duration_minutes": 120,
    "rating": 4.0,
    "lat": 34.728525,
    "lon": 113.62373,
    "description": "地址: 淮河西路与郑密路交叉口东南60米 | 类别: 风景名胜;公园广场;城市广场",
    "city": "郑州"
  },
  {
    "name": "郑东新区双河公园",
    "category": "outdoor",
    "duration_minutes": 120,
    "rating": 4.0,
    "lat": 34.766813,
    "lon": 113.802172,
    "description": "地址: 博学路与文苑南路交叉口东南角 | 类别: 风景名胜;公园广场;公园",
    "city": "郑州"
  },
  {
    "name": "西流湖公园生态中心",
    "category": "outdoor",
    "duration_minutes": 120,
    "rating": 4.0,
    "lat": 34.765914,
    "lon": 113.577612,
    "description": "地址: 湖西路 | 类别: 风景名胜;公园广场;公园",
    "city": "郑州"
  },
  {
    "name": "郑州方特梦幻王国(暂停开放)",
    "category": "sightseeing",
    "duration_minutes": 120,
    "rating": 4.0,
    "lat": 34.767122,
    "lon": 113.925669,
    "description": "电话: 0371-56928200 | 地址: 郑开大道与人文路交叉口向南 | 类别: 风景名胜;风景名胜相关;旅游景点",
    "city": "郑州"
  },
  {
    "name": "郑州之林-银杏广场",
    "category": "outdoor",
    "duration_minutes": 120,
    "rating": 4.0,
    "lat": 34.774896,
    "lon": 113.717816,
    "description": "地址: 如意湖街道商务外环路郑州之林旁 | 类别: 风景名胜;公园广场;城市广场",
    "city": "郑州"
  },
  {
    "name": "植物迷宫",
    "category": "history",
    "duration_minutes": 120,
    "rating": 4.0,
    "lat": 34.732984,
    "lon": 113.535511,
    "description": "电话: 0371-67888933 | 地址: 陇海路与四环路交叉口东北角郑州植物园(西南角) | 类别: 风景名胜;风景名胜相关;旅游景点",
    "city": "郑州"
  },
  {
    "name": "黄河之巅",
    "category": "sightseeing",
    "duration_minutes": 120,
    "rating": 4.0,
    "lat": 34.93286,
    "lon": 113.520919,
    "description": "地址: 邙岭大道丰乐森林温泉康养度假区 | 类别: 风景名胜;风景名胜;风景名胜",
    "city": "郑州"
  }
]