[
  {
    "name": "莲花山公园",
    "category": "outdoor",
    "duration_minutes": 120,
    "rating": 4.0,
    "lat": 22.553594,
    "lon": 114.058673,
    "description": "电话: 0755-83067950 | 地址: 红荔路6030号 | 类别: 风景名胜;公园广场;公园",
    "city": "深圳"
  },
  {
    "name": "深圳博物馆新馆",
    "category": "museum",
    "duration_minutes": 120,
    "rating": 4.0,
    "lat": 22.543674,
    "lon": 114.061704,
    "description": "电话: 0755-88125550;0755-88125553 | 地址: 福中路市民中心A区(市民中心地铁站B口步行340米) | 类别: 科教文化服务;博物馆;博物馆",
    "city": "深圳"
  },
  {
    "name": "莲花山公园-邓小平雕像",
    "category": "outdoor",
    "duration_minutes": 120,
    "rating": 4.0,
    "lat": 22.553197,
    "lon": 114.05947,
    "description": "电话: 0755-83067950 | 地址: 红荔路6030号莲花山公园 | 类别: 风景名胜;风景名胜;风景名胜",
    "city": "深圳"
  },
  {
    "name": "笔架山公园",
    "category": "outdoor",
    "duration_minutes": 120,
    "rating": 4.0,
    "lat": 22.562893,
    "lon": 114.080876,
    "description": "电话: 0755-83220201 | 地址: 梅岗路 | 类别: 风景名胜;公园广场;公园",
    "city": "深圳"
  },
  {
    "name": "莲花山公园风筝广场",
    "category": "outdoor",
    "duration_minutes": 120,
    "rating": 4.0,
    "lat": 22.549422,
    "lon": 114.05991,
    "description": "电话: 0755-83067950 | 地址: 红荔路6030号莲花山公园内(南侧) | 类别: 风景名胜;公园广场;城市广场",
    "city": "深圳"
  },
  {
    "name": "笔架山体育公园",
    "category": "outdoor",
    "duration_minutes": 120,
    "rating": 4.0,
    "lat": 22.558467,
    "lon": 114.074651,
    "description": "地址: 笔架山公园内福田河以西 | 类别: 风景名胜;公园广场;公园",
    "city": "深圳"
  },
  {
    "name": "深圳博物馆金田路馆",
    "category": "museum",
    "duration_minutes": 120,
    "rating": 4.0,
    "lat": 22.543681,
    "lon": 114.062126,
    "description": "电话: 0755-88125550;0755-88125553 | 地址: 福中路市民中心A区(市民中心地铁站B口步行350米) | 类别: 科教文化服务;博物馆;博物馆",
    "city": "深圳"
  },
  {
    "name": "毓秀园",
    "category": "sightseeing",
    "duration_minutes": 120,
    "rating": 4.0,
    "lat": 22.552182,
    "lon": 114.053489,
    "description": "地址: 红荔路与民田路交叉口北460米 | 类别: 风景名胜;风景名胜相关;旅游景点",
    "city": "深圳"
  },
  {
    "name": "香蜜公园",
    "category": "outdoor",
    "duration_minutes": 120,
    "rating": 4.0,
    "lat": 22.54664,
    "lon": 114.022082,
    "description": "电话: 0755-83310537 | 地址: 香蜜湖街道农园路30号 | 类别: 风景名胜;公园广场;公园",
    "city": "深圳"
  },
  {
    "name": "海滨广场",
    "category": "outdoor",
    "duration_minutes": 120,
    "rating": 4.0,
    "lat": 22.526887,
    "lon": 114.066912,
    "description": "地址: 滨河大道与金田路交汇处东南侧(福民地铁站旁) | 类别: 商务住宅;住宅区;住宅小区",
    "city": "深圳"
  },
  {
    "name": "莲花山公园山顶广场",
    "category": "outdoor",
    "duration_minutes": 120,
    "rating": 4.0,
    "lat": 22.553186,
    "lon": 114.059469,
    "description": "电话: 0755-83067950 | 地址: 红荔路6030号 | 类别: 风景名胜;公园广场;公园广场",
    "city": "深圳"
  },
  {
    "name": "市民广场南广场",
    "category": "outdoor",
    "duration_minutes": 120,
    "rating": 4.0,
    "lat": 22.541479,
    "lon": 114.059855,
    "description": "地址: 福华一路3号(市民中心地铁站F口步行420米) | 类别: 风景名胜;公园广场;公园广场",
    "city": "深圳"
  },
  {
    "name": "a Park 一个公园",
    "category": "outdoor",
    "duration_minutes": 120,
    "rating": 4.0,
    "lat": 22.564508,
    "lon": 114.0401,
    "description": "地址: 下梅林梅丽路9号(下梅林地铁站A口步行90米) | 类别: 体育休闲服务;休闲场所;休闲场所",
    "city": "深圳"
  },
  {
    "name": "皇岗公园",
    "category": "outdoor",
    "duration_minutes": 120,
    "rating": 4.0,
    "lat": 22.517921,
    "lon": 114.058,
    "description": "电话: 0755-83491286 | 地址: 益田路2002号 | 类别: 风景名胜;公园广场;公园",
    "city": "深圳"
  },
  {
    "name": "荔枝公园",
    "category": "outdoor",
    "duration_minutes": 120,
    "rating": 4.0,
    "lat": 22.545539,
    "lon": 114.102313,
    "description": "电话: 0755-82095655 | 地址: 红岭中路1001号 | 类别: 风景名胜;公园广场;公园",
    "city": "深圳"
  },
  {
    "name": "水围文化广场",
    "category": "outdoor",
    "duration_minutes": 120,
    "rating": 4.0,
    "lat": 22.52162,
    "lon": 114.06393,
    "description": "地址: 金田路1029号 | 类别: 风景名胜;公园广场;城市广场",
    "city": "深圳"
  },
  {
    "name": "沙嘴牌坊",
    "category": "sightseeing",
    "duration_minutes": 120,
    "rating": 4.0,
    "lat": 22.519551,
    "lon": 114.035615,
    "description": "地址: 沙嘴路与福沙路交叉口东北100米 | 类别: 风景名胜;风景名胜;风景名胜",
    "city": "深圳"
  },
  {
    "name": "福田红树林生态公园",
    "category": "outdoor",
    "duration_minutes": 120,
    "rating": 4.0,
    "lat": 22.509273,
    "lon": 114.039644,
    "description": "电话: 0755-83622184;0755-83622185 | 地址: 新洲路与福荣路交叉口 | 类别: 风景名胜;公园广场;公园",
    "city": "深圳"
  },
  {
    "name": "深圳湾公园",
    "category": "outdoor",
    "duration_minutes": 120,
    "rating": 4.0,
    "lat": 22.518968,
    "lon": 113.972602,
    "description": "电话: 0755-83706489 | 地址: 滨海大道(近望海路) | 类别: 风景名胜;公园广场;公园",
    "city": "深圳"
  },
  {
    "name": "莲花湖",
    "category": "outdoor",
    "duration_minutes": 120,
    "rating": 4.0,
    "lat": 22.551452,
    "lon": 114.055559,
    "description": "电话: 0755-83067950 | 地址: 红荔路6030号莲花山公园内(儿童医院对面) | 类别: 风景名胜;风景名胜相关;旅游景点",
    "city": "深圳"
  },
  {
    "name": "深圳国际园林花卉博览园",
    "category": "outdoor",
    "duration_minutes": 120,
    "rating": 4.0,
    "lat": 22.537601,
    "lon": 114.003766,
    "description": "电话: 0755-82829036 | 地址: 深南大道8002号 | 类别: 风景名胜;公园广场;公园",
    "city": "深圳"
  },
  {
    "name": "向日葵公园",
    "category": "outdoor",
    "duration_minutes": 120,
    "rating": 4.0,
    "lat": 22.537448,
    "lon": 114.061363,
    "description": "地址: 福华一路3号市民广场南广场(东南角) | 类别: 风景名胜;风景名胜相关;旅游景点",
    "city": "深圳"
  },
  {
    "name": "莲花山公园-椰风林草坪",
    "category": "outdoor",
    "duration_minutes": 120,
    "rating": 4.0,
    "lat": 22.549213,
    "lon": 114.055015,
    "description": "电话: 0755-83067950 | 地址: 莲花街道红荔路6026号莲花山公园南2门附近 | 类别: 风景名胜;风景名胜相关;旅游景点",
    "city": "深圳"
  },
  {
    "name": "深圳平安金融中心云际观光层",
    "category": "sightseeing",
    "duration_minutes": 120,
    "rating": 4.0,
    "lat": 22.533744,
    "lon": 114.055174,
    "description": "电话: 0755-29163888 | 地址: 益田路5033号平安金融中心A座B1层 | 类别: 体育休闲服务;体育休闲服务场所;体育休闲服务场所|风景名胜;风景名胜相关;旅游景点",
    "city": "深圳"
  },
  {
    "name": "岗边伯公庙",
    "category": "history",
    "duration_minutes": 120,
    "rating": 4.0,
    "lat": 22.533808,
    "lon": 114.084804,
    "description": "地址: 滨河大道3030号(赤尾地铁站D口步行190米) | 类别: 风景名胜;风景名胜;寺庙道观",
    "city": "深圳"
  },
  {
    "name": "莲花山公园-山顶展厅",
    "category": "outdoor",
    "duration_minutes": 120,
    "rating": 4.0,
    "lat": 22.554665,
    "lon": 114.05971,
    "description": "电话: 0755-83067950 | 地址: 红荔路6030号莲花山公园内(儿童医院对面) | 类别: 风景名胜;风景名胜相关;旅游景点",
    "city": "深圳"
  },
  {
    "name": "深圳博物馆同心路馆(古代艺术)",
    "category": "museum",
    "duration_minutes": 120,
    "rating": 4.0,
    "lat": 22.542609,
    "lon": 114.101231,
    "description": "电话: 0755-88132247 | 地址: 同心路6号 | 类别: 科教文化服务;博物馆;博物馆",
    "city": "深圳"
  },
  {
    "name": "金地名津广场",
    "category": "sightseeing",
    "duration_minutes": 120,
    "rating": 4.0,
    "lat": 22.516129,
    "lon": 114.073606,
    "description": "电话: 0755-83338765 | 地址: 裕亨路(福田口岸地铁站A口步行370米) | 类别: 商务住宅;住宅区;住宅小区",
    "city": "深圳"
  },
  {
    "name": "华侨城创意文化园",
    "category": "sightseeing",
    "duration_minutes": 120,
    "rating": 4.0,
    "lat": 22.537349,
    "lon": 113.993477,
    "description": "地址: 锦绣北街8号 | 类别: 商务住宅;产业园区;产业园区",
    "city": "深圳"
  },
  {
    "name": "红树林海滨生态公园",
    "category": "outdoor",
    "duration_minutes": 120,
    "rating": 4.0,
    "lat": 22.522076,
    "lon": 113.998082,
    "description": "地址: 滨河大道(深圳湾公园地铁站D2口步行60米) | 类别: 风景名胜;公园广场;公园",
    "city": "深圳"
  },
  {
    "name": "下沙文化广场",
    "category": "outdoor",
    "duration_minutes": 120,
    "rating": 4.0,
    "lat": 22.525873,
    "lon": 114.025968,
    "description": "地址: 沙头街道下沙大围路(下沙地铁站B口步行480米) | 类别: 风景名胜;公园广场;城市广场",
    "city": "深圳"
  },
  {
    "name": "深圳世界之窗",
    "category": "sightseeing",
    "duration_minutes": 120,
    "rating": 4.0,
    "lat": 22.534662,
    "lon": 113.972981,
    "description": "电话: 0755-26608000;0755-26902840 | 地址: 深南大道9037号 | 类别: 风景名胜;风景名胜;国家级景点",
    "city": "深圳"
  },
  {
    "name": "洪湖公园",
    "category": "outdoor",
    "duration_minutes": 120,
    "rating": 4.0,
    "lat": 22.565811,
    "lon": 114.120393,
    "description": "电话: 0755-25772729 | 地址: 文锦北路2023号(洪湖地铁站A口步行330米) | 类别: 风景名胜;公园广场;公园",
    "city": "深圳"
  },
  {
    "name": "福田村祠堂坊",
    "category": "sightseeing",
    "duration_minutes": 120,
    "rating": 4.0,
    "lat": 22.5349,
    "lon": 114.078521,
    "description": "地址: 福安街39号 | 类别: 商务住宅;住宅区;住宅小区",
    "city": "深圳"
  },
  {
    "name": "华富社区公园",
    "category": "outdoor",
    "duration_minutes": 120,
    "rating": 4.0,
    "lat": 22.55583,
    "lon": 114.081187,
    "description": "地址: 梅岗路1南门华富北屋村 | 类别: 风景名胜;公园广场;公园",
    "city": "深圳"
  },
  {
    "name": "银湖山郊野公园",
    "category": "outdoor",
    "duration_minutes": 120,
    "rating": 4.0,
    "lat": 22.593584,
    "lon": 114.083277,
    "description": "电话: 0755-83260792 | 地址: 南坪快速 | 类别: 风景名胜;公园广场;公园",
    "city": "深圳"
  },
  {
    "name": "锦绣园",
    "category": "outdoor",
    "duration_minutes": 120,
    "rating": 4.0,
    "lat": 22.526555,
    "lon": 114.059476,
    "description": "地址: 三龙花园附近 | 类别: 风景名胜;公园广场;公园",
    "city": "深圳"
  },
  {
    "name": "塘朗山公园",
    "category": "outdoor",
    "duration_minutes": 120,
    "rating": 4.0,
    "lat": 22.571178,
    "lon": 113.993789,
    "description": "电话: 0755-26798753;0755-26789739 | 地址: 龙珠六路尽头处 | 类别: 风景名胜;公园广场;公园",
    "city": "深圳"
  },
  {
    "name": "白石龙音乐主题公园",
    "category": "outdoor",
    "duration_minutes": 120,
    "rating": 4.0,
    "lat": 22.597179,
    "lon": 114.038666,
    "description": "地址: 新区大道与金龙路交叉口西南200米 | 类别: 风景名胜;公园广场;公园",
    "city": "深圳"
  },
  {
    "name": "深圳中心公园A区",
    "category": "outdoor",
    "duration_minutes": 120,
    "rating": 4.0,
    "lat": 22.532232,
    "lon": 114.075356,
    "description": "地址: 深圳中心公园内(南侧) | 类别: 风景名胜;公园广场;公园",
    "city": "深圳"
  },
  {
    "name": "福田红树林自然保护区",
    "category": "sightseeing",
    "duration_minutes": 120,
    "rating": 4.0,
    "lat": 22.519196,
    "lon": 114.023921,
    "description": "电话: 0755-83707868 | 地址: 滨海大道华侨城路段 | 类别: 风景名胜;风景名胜;风景名胜",
    "city": "深圳"
  },
  {
    "name": "基督教深圳堂",
    "category": "sightseeing",
    "duration_minutes": 120,
    "rating": 4.0,
    "lat": 22.568339,
    "lon": 114.046983,
    "description": "电话: 0755-83118817 | 地址: 梅林路126号 | 类别: 风景名胜;风景名胜;教堂",
    "city": "深圳"
  },
  {
    "name": "漾日湖",
    "category": "outdoor",
    "duration_minutes": 120,
    "rating": 4.0,
    "lat": 22.550565,
    "lon": 114.066252,
    "description": "电话: 0755-83067950 | 地址: 红荔路6030号莲花山公园内(儿童医院对面) | 类别: 风景名胜;风景名胜相关;旅游景点",
    "city": "深圳"
  },
  {
    "name": "华侨城欢乐海岸",
    "category": "outdoor",
    "duration_minutes": 120,
    "rating": 4.0,
    "lat": 22.523405,
    "lon": 113.987914,
    "description": "电话: 0755-86122311 | 地址: 滨海大道2008号(深圳湾公园地铁E出口) | 类别: 体育休闲服务;休闲场所;游乐场|购物服务;商场;购物中心|风景名胜;风景名胜相关;旅游景点",
    "city": "深圳"
  },
  {
    "name": "深圳欢乐谷",
    "category": "sightseeing",
    "duration_minutes": 120,
    "rating": 4.0,
    "lat": 22.54159,
    "lon": 113.980295,
    "description": "电话: 0755-26949184;0755-26949247 | 地址: 侨城西街18号 | 类别: 体育休闲服务;休闲场所;游乐场",
    "city": "深圳"
  },
  {
    "name": "香蜜湖·四季花谷",
    "category": "outdoor",
    "duration_minutes": 120,
    "rating": 4.0,
    "lat": 22.543261,
    "lon": 114.025567,
    "description": "地址: 香蜜湖街道农园路30号香蜜公园(东南角) | 类别: 风景名胜;风景名胜;风景名胜",
    "city": "深圳"
  },
  {
    "name": "福田区文化广场",
    "category": "outdoor",
    "duration_minutes": 120,
    "rating": 4.0,
    "lat": 22.54528,
    "lon": 114.045416,
    "description": "地址: 景田路8号 | 类别: 风景名胜;公园广场;城市广场|科教文化服务;科教文化场所;科教文化场所",
    "city": "深圳"
  },
  {
    "name": "锦绣中华民俗村",
    "category": "sightseeing",
    "duration_minutes": 120,
    "rating": 4.0,
    "lat": 22.530907,
    "lon": 113.988741,
    "description": "电话: 0755-26600626;0755-26905222 | 地址: 深南大道9003号(华侨城地铁站D口步行100米) | 类别: 风景名胜;风景名胜;风景名胜",
    "city": "深圳"
  },
  {
    "name": "福田环庆文化广场",
    "category": "outdoor",
    "duration_minutes": 120,
    "rating": 4.0,
    "lat": 22.5345,
    "lon": 114.079659,
    "description": "电话: 0755-83338635 | 地址: 福华路福祥街 | 类别: 风景名胜;公园广场;城市广场",
    "city": "深圳"
  },
  {
    "name": "深圳市清真寺",
    "category": "sightseeing",
    "duration_minutes": 120,
    "rating": 4.0,
    "lat": 22.567936,
    "lon": 114.070036,
    "description": "电话: 0755-83106912 | 地址: 梅林路7号 | 类别: 风景名胜;风景名胜;回教寺",
    "city": "深圳"
  },
  {
    "name": "深圳中心公园D1区",
    "category": "outdoor",
    "duration_minutes": 120,
    "rating": 4.0,
    "lat": 22.546781,
    "lon": 114.075897,
    "description": "电话: 0755-83252115 | 地址: 华富街道皇岗路深圳中心公园(西北角) | 类别: 风景名胜;风景名胜相关;旅游景点",
    "city": "深圳"
  },
  {
    "name": "市民中心公园",
    "category": "outdoor",
    "duration_minutes": 120,
    "rating": 4.0,
    "lat": 22.541321,
    "lon": 114.059619,
    "description": "地址: 深南大道市民中心广场前(近市民中心) | 类别: 风景名胜;公园广场;公园",
    "city": "深圳"
  },
  {
    "name": "深圳中心公园C2区",
    "category": "outdoor",
    "duration_minutes": 120,
    "rating": 4.0,
    "lat": 22.542464,
    "lon": 114.079342,
    "description": "电话: 0755-83252115 | 地址: 振华西路1号深圳中心公园 | 类别: 风景名胜;风景名胜相关;旅游景点",
    "city": "深圳"
  },
  {
    "name": "上梅林文体公园",
    "category": "outdoor",
    "duration_minutes": 120,
    "rating": 4.0,
    "lat": 22.56751,
    "lon": 114.049759,
    "description": "电话: 13431843713 | 地址: 梅秀路与梅林路交界处(梅村地铁站A口步行230米) | 类别: 风景名胜;公园广场;公园",
    "city": "深圳"
  },
  {
    "name": "福田海滨生态体育公园",
    "category": "outdoor",
    "duration_minutes": 120,
    "rating": 4.0,
    "lat": 22.529292,
    "lon": 114.012473,
    "description": "电话: 13422890151 | 地址: 白石路5号 | 类别: 风景名胜;公园广场;公园",
    "city": "深圳"
  },
  {
    "name": "节日大道节日广场",
    "category": "outdoor",
    "duration_minutes": 120,
    "rating": 4.0,
    "lat": 22.535481,
    "lon": 114.065728,
    "description": "地址: 福华路346号(岗厦地铁站B口步行240米) | 类别: 风景名胜;公园广场;城市广场",
    "city": "深圳"
  },
  {
    "name": "皇岗牌坊",
    "category": "sightseeing",
    "duration_minutes": 120,
    "rating": 4.0,
    "lat": 22.524958,
    "lon": 114.063978,
    "description": "地址: 皇岗一街与金田路交叉口西40米 | 类别: 风景名胜;风景名胜;风景名胜",
    "city": "深圳"
  },
  {
    "name": "小平铜像广场",
    "category": "outdoor",
    "duration_minutes": 120,
    "rating": 4.0,
    "lat": 22.553232,
    "lon": 114.059531,
    "description": "地址: 红荔路6030号莲花山公园 | 类别: 风景名胜;公园广场;城市广场",
    "city": "深圳"
  },
  {
    "name": "般若禅寺",
    "category": "history",
    "duration_minutes": 120,
    "rating": 4.0,
    "lat": 22.602594,
    "lon": 114.06425,
    "description": "地址: 南坪快速附近 | 类别: 风景名胜;风景名胜;寺庙道观",
    "city": "深圳"
  },
  {
    "name": "深圳人才公园",
    "category": "outdoor",
    "duration_minutes": 120,
    "rating": 4.0,
    "lat": 22.511353,
    "lon": 113.946958,
    "description": "电话: 0755-86571987 | 地址: 粤海街道蔚蓝海岸社区科苑南路3329号 | 类别: 风景名胜;公园广场;公园",
    "city": "深圳"
  },
  {
    "name": "深圳仙湖植物园",
    "category": "outdoor",
    "duration_minutes": 120,
    "rating": 4.0,
    "lat": 22.576476,
    "lon": 114.174834,
    "description": "电话: 0755-25738430 | 地址: 仙湖路160号 | 类别: 风景名胜;公园广场;植物园",
    "city": "深圳"
  },
  {
    "name": "华强北博物馆",
    "category": "museum",
    "duration_minutes": 120,
    "rating": 4.0,
    "lat": 22.544243,
    "lon": 114.087311,
    "description": "电话: 0755-83202020 | 地址: 华强北路1058号广博现代之窗大厦5层 | 类别: 科教文化服务;博物馆;博物馆",
    "city": "深圳"
  },
  {
    "name": "深圳经济特区建立三十周年纪念园",
    "category": "history",
    "duration_minutes": 120,
    "rating": 4.0,
    "lat": 22.550899,
    "lon": 114.064112,
    "description": "地址: 红荔路6030号莲花山公园(东南角) | 类别: 风景名胜;风景名胜;纪念馆",
    "city": "深圳"
  },
  {
    "name": "文博宫",
    "category": "history",
    "duration_minutes": 120,
    "rating": 4.0,
    "lat": 22.604496,
    "lon": 114.103142,
    "description": "电话: 0755-89798888 | 地址: 布吉街道西环路88号 | 类别: 科教文化服务;展览馆;展览馆",
    "city": "深圳"
  },
  {
    "name": "景蜜公园",
    "category": "outdoor",
    "duration_minutes": 120,
    "rating": 4.0,
    "lat": 22.556901,
    "lon": 114.0387,
    "description": "地址: 景田北三街66号(梅景地铁站A2口步行280米) | 类别: 风景名胜;公园广场;公园",
    "city": "深圳"
  },
  {
    "name": "梅林水库",
    "category": "sightseeing",
    "duration_minutes": 120,
    "rating": 4.0,
    "lat": 22.570584,
    "lon": 114.035567,
    "description": "电话: 0755-83104910 | 地址: 梅林街道 | 类别: 风景名胜;风景名胜;风景名胜",
    "city": "深圳"
  },
  {
    "name": "莲花山公园A区",
    "category": "outdoor",
    "duration_minutes": 120,
    "rating": 4.0,
    "lat": 22.553325,
    "lon": 114.05852,
    "description": "电话: 0755-83067950 | 地址: 红荔路6030号莲花山公园内(儿童医院对面) | 类别: 风景名胜;风景名胜相关;旅游景点",
    "city": "深圳"
  },
  {
    "name": "梅林山公园",
    "category": "outdoor",
    "duration_minutes": 120,
    "rating": 4.0,
    "lat": 22.562528,
    "lon": 114.03439,
    "description": "电话: 0755-83507209 | 地址: 下梅林二街西200米颂德国际旁 | 类别: 风景名胜;公园广场;公园",
    "city": "深圳"
  },
  {
    "name": "东湖公园",
    "category": "outdoor",
    "duration_minutes": 120,
    "rating": 4.0,
    "lat": 22.562453,
    "lon": 114.152312,
    "description": "电话: 0755-25429205;0755-25410719 | 地址: 黄贝街道水库社区爱国路4006号 | 类别: 风景名胜;公园广场;公园",
    "city": "深圳"
  },
  {
    "name": "莲花山公园A区-观景台",
    "category": "outdoor",
    "duration_minutes": 120,
    "rating": 4.0,
    "lat": 22.553598,
    "lon": 114.056573,
    "description": "地址: 莲花山公园A区 | 类别: 风景名胜;风景名胜;观景点",
    "city": "深圳"
  },
  {
    "name": "梅拉尼亚小镇",
    "category": "sightseeing",
    "duration_minutes": 120,
    "rating": 4.0,
    "lat": 22.536391,
    "lon": 113.973041,
    "description": "地址: 深南大道9037-6号深圳世界之窗内(北侧) | 类别: 风景名胜;风景名胜;风景名胜",
    "city": "深圳"
  },
  {
    "name": "花圃基地",
    "category": "sightseeing",
    "duration_minutes": 120,
    "rating": 4.0,
    "lat": 22.55273,
    "lon": 114.053055,
    "description": "电话: 0755-83067950 | 地址: 红荔路6030号莲花山公园内(儿童医院对面) | 类别: 风景名胜;风景名胜相关;旅游景点",
    "city": "深圳"
  },
  {
    "name": "笔架山公园-深业上城连廊",
    "category": "outdoor",
    "duration_minutes": 120,
    "rating": 4.0,
    "lat": 22.557324,
    "lon": 114.073342,
    "description": "地址: 皇岗路5001号 | 类别: 风景名胜;风景名胜;风景名胜",
    "city": "深圳"
  },
  {
    "name": "笋岗村牌坊",
    "category": "sightseeing",
    "duration_minutes": 120,
    "rating": 4.0,
    "lat": 22.564977,
    "lon": 114.112919,
    "description": "地址: 宝岗路与梅园路交叉口北100米 | 类别: 风景名胜;风景名胜相关;旅游景点",
    "city": "深圳"
  },
  {
    "name": "广东梧桐山风景名胜区",
    "category": "outdoor",
    "duration_minutes": 120,
    "rating": 4.0,
    "lat": 22.577706,
    "lon": 114.214689,
    "description": "电话: 0755-25708918;0755-25355818 | 地址: 莲塘街道罗沙路2076号 | 类别: 风景名胜;风景名胜;国家级景点",
    "city": "深圳"
  },
  {
    "name": "笔冠峰",
    "category": "sightseeing",
    "duration_minutes": 120,
    "rating": 4.0,
    "lat": 22.564272,
    "lon": 114.085339,
    "description": "电话: 0755-83220201 | 地址: 笔架山公园内部 | 类别: 风景名胜;风景名胜相关;旅游景点",
    "city": "深圳"
  },
  {
    "name": "深圳中心公园D2区",
    "category": "outdoor",
    "duration_minutes": 120,
    "rating": 4.0,
    "lat": 22.546876,
    "lon": 114.079744,
    "description": "电话: 0755-83244645 | 地址: 福田河绿道深圳中心公园-D1区 | 类别: 风景名胜;公园广场;公园",
    "city": "深圳"
  },
  {
    "name": "南头古城",
    "category": "history",
    "duration_minutes": 120,
    "rating": 4.0,
    "lat": 22.543019,
    "lon": 113.921429,
    "description": "地址: 深南大道(南头古城地铁站C口步行147米) | 类别: 风景名胜;风景名胜;风景名胜",
    "city": "深圳"
  },
  {
    "name": "甘坑古镇",
    "category": "sightseeing",
    "duration_minutes": 120,
    "rating": 4.0,
    "lat": 22.656694,
    "lon": 114.103888,
    "description": "电话: 0755-28800089 | 地址: 吉华街道甘坑社区甘李路18号 | 类别: 风景名胜;风景名胜;风景名胜",
    "city": "深圳"
  },
  {
    "name": "深圳梅林山郊野径",
    "category": "outdoor",
    "duration_minutes": 120,
    "rating": 4.0,
    "lat": 22.575973,
    "lon": 114.043443,
    "description": "地址: 龙尾路(梅林公园-东北侧约210米) | 类别: 风景名胜;风景名胜相关;旅游景点",
    "city": "深圳"
  },
  {
    "name": "深圳中心公园E1区",
    "category": "outdoor",
    "duration_minutes": 120,
    "rating": 4.0,
    "lat": 22.551559,
    "lon": 114.07893,
    "description": "地址: 振华西路1号深圳中心公园内(北侧) | 类别: 风景名胜;公园广场;公园",
    "city": "深圳"
  },
  {
    "name": "梅林公园古荔区",
    "category": "outdoor",
    "duration_minutes": 120,
    "rating": 4.0,
    "lat": 22.572366,
    "lon": 114.040036,
    "description": "电话: 0755-83507391 | 地址: 梅亭路6号鸿浩阁附近 | 类别: 风景名胜;公园广场;公园",
    "city": "深圳"
  },
  {
    "name": "深圳市莲花山公园管理处",
    "category": "outdoor",
    "duration_minutes": 120,
    "rating": 4.0,
    "lat": 22.54994,
    "lon": 114.062606,
    "description": "地址: 红荔路(少年宫地铁站B口步行480米) | 类别: 政府机构及社会团体;社会团体;社会团体相关",
    "city": "深圳"
  },
  {
    "name": "赤尾村牌坊",
    "category": "sightseeing",
    "duration_minutes": 120,
    "rating": 4.0,
    "lat": 22.531313,
    "lon": 114.087001,
    "description": "地址: 赤尾一街与华强南路交叉口西20米 | 类别: 风景名胜;风景名胜;风景名胜",
    "city": "深圳"
  },
  {
    "name": "深圳野生动物园",
    "category": "outdoor",
    "duration_minutes": 120,
    "rating": 4.0,
    "lat": 22.596039,
    "lon": 113.972146,
    "description": "电话: 0755-26622888;0755-26628068 | 地址: 西丽街道西丽路4066号 | 类别: 风景名胜;公园广场;动物园|风景名胜;风景名胜;国家级景点",
    "city": "深圳"
  },
  {
    "name": "海上世界",
    "category": "outdoor",
    "duration_minutes": 120,
    "rating": 4.0,
    "lat": 22.482264,
    "lon": 113.917846,
    "description": "电话: 0755-26890000 | 地址: 望海路1128号 | 类别: 风景名胜;风景名胜;风景名胜",
    "city": "深圳"
  },
  {
    "name": "沙嘴文化广场",
    "category": "outdoor",
    "duration_minutes": 120,
    "rating": 4.0,
    "lat": 22.517872,
    "lon": 114.039687,
    "description": "电话: 0755-88300003 | 地址: 金地一路与西村二路交叉口南140米 | 类别: 风景名胜;公园广场;城市广场",
    "city": "深圳"
  },
  {
    "name": "新洲文化广场",
    "category": "outdoor",
    "duration_minutes": 120,
    "rating": 4.0,
    "lat": 22.521761,
    "lon": 114.045798,
    "description": "地址: 新洲祠堂村64栋(沙尾地铁站C口步行440米) | 类别: 风景名胜;公园广场;城市广场",
    "city": "深圳"
  },
  {
    "name": "大芬油画村",
    "category": "sightseeing",
    "duration_minutes": 120,
    "rating": 4.0,
    "lat": 22.609661,
    "lon": 114.136236,
    "description": "地址: 大芬地铁站A1口步行340米 | 类别: 商务住宅;住宅区;住宅小区",
    "city": "深圳"
  },
  {
    "name": "燕晗山郊野公园",
    "category": "outdoor",
    "duration_minutes": 120,
    "rating": 4.0,
    "lat": 22.540817,
    "lon": 113.986754,
    "description": "地址: 侨城东街6号 | 类别: 风景名胜;公园广场;公园",
    "city": "深圳"
  },
  {
    "name": "玉龙公园",
    "category": "outdoor",
    "duration_minutes": 120,
    "rating": 4.0,
    "lat": 22.598262,
    "lon": 114.033096,
    "description": "地址: 民治街道玉龙路东龙华外国语学校南侧 | 类别: 风景名胜;公园广场;公园",
    "city": "深圳"
  },
  {
    "name": "市民广场",
    "category": "outdoor",
    "duration_minutes": 120,
    "rating": 4.0,
    "lat": 22.541525,
    "lon": 114.05961,
    "description": "地址: 福中三路 | 类别: 风景名胜;公园广场;城市广场",
    "city": "深圳"
  },
  {
    "name": "深圳中心公园",
    "category": "outdoor",
    "duration_minutes": 120,
    "rating": 4.0,
    "lat": 22.542341,
    "lon": 114.079473,
    "description": "电话: 0755-83244645 | 地址: 振华西路1号 | 类别: 风景名胜;公园广场;公园",
    "city": "深圳"
  },
  {
    "name": "深圳华侨城旅游度假区",
    "category": "sightseeing",
    "duration_minutes": 120,
    "rating": 4.0,
    "lat": 22.531366,
    "lon": 113.988596,
    "description": "地址: 杜鹃山(华侨城地铁站A口步行390米) | 类别: 风景名胜;风景名胜;国家级景点",
    "city": "深圳"
  },
  {
    "name": "梅林公园",
    "category": "outdoor",
    "duration_minutes": 120,
    "rating": 4.0,
    "lat": 22.570769,
    "lon": 114.041233,
    "description": "电话: 0755-83507209 | 地址: 梅林街道梅亭路14号 | 类别: 风景名胜;公园广场;公园",
    "city": "深圳"
  },
  {
    "name": "北站中心公园",
    "category": "outdoor",
    "duration_minutes": 120,
    "rating": 4.0,
    "lat": 22.605688,
    "lon": 114.023895,
    "description": "地址: 民治致远中路深圳北站西广场西侧 | 类别: 风景名胜;公园广场;公园",
    "city": "深圳"
  },
  {
    "name": "人民公园",
    "category": "outdoor",
    "duration_minutes": 120,
    "rating": 4.0,
    "lat": 22.553189,
    "lon": 114.117161,
    "description": "地址: 人民北路3071号 | 类别: 风景名胜;公园广场;公园",
    "city": "深圳"
  },
  {
    "name": "彩田公园",
    "category": "outdoor",
    "duration_minutes": 120,
    "rating": 4.0,
    "lat": 22.562928,
    "lon": 114.064968,
    "description": "地址: 彩田村彩云路(冬瓜岭地铁站C口步行350米) | 类别: 风景名胜;公园广场;公园",
    "city": "深圳"
  },
  {
    "name": "深云文体公园",
    "category": "outdoor",
    "duration_minutes": 120,
    "rating": 4.0,
    "lat": 22.565069,
    "lon": 113.99365,
    "description": "电话: 0755-88977900 | 地址: 南坪快速路东100米 | 类别: 风景名胜;公园广场;公园",
    "city": "深圳"
  },
  {
    "name": "深圳革命烈士陵园",
    "category": "sightseeing",
    "duration_minutes": 120,
    "rating": 4.0,
    "lat": 22.56686,
    "lon": 114.069139,
    "description": "地址: 北环路216号(孖岭地铁站C口步行120米) | 类别: 生活服务;丧葬设施;陵园",
    "city": "深圳"
  },
  {
    "name": "欢乐港湾",
    "category": "sightseeing",
    "duration_minutes": 120,
    "rating": 4.0,
    "lat": 22.544558,
    "lon": 113.883731,
    "description": "电话: 4007622388 | 地址: 海天路与宝兴路交汇处 | 类别: 风景名胜;风景名胜;风景名胜",
    "city": "深圳"
  },
  {
    "name": "前海石公园",
    "category": "outdoor",
    "duration_minutes": 120,
    "rating": 4.0,
    "lat": 22.526982,
    "lon": 113.890178,
    "description": "地址: 南山街道前湾一路西150米 | 类别: 风景名胜;公园广场;公园",
    "city": "深圳"
  },
  {
    "name": "阳台山森林公园",
    "category": "outdoor",
    "duration_minutes": 120,
    "rating": 4.0,
    "lat": 22.651479,
    "lon": 113.965105,
    "description": "电话: 0755-27522408 | 地址: 石岩街道龙腾路龙眼山村南 | 类别: 风景名胜;公园广场;公园",
    "city": "深圳"
  },
  {
    "name": "深圳仙湖植物园-弘法寺",
    "category": "history",
    "duration_minutes": 120,
    "rating": 4.0,
    "lat": 22.577514,
    "lon": 114.182141,
    "description": "电话: 0755-25737095 | 地址: 莲塘仙湖路160号深圳仙湖植物园内(东侧) | 类别: 风景名胜;风景名胜;寺庙道观",
    "city": "深圳"
  },
  {
    "name": "A PARK深圳数字艺术公园",
    "category": "outdoor",
    "duration_minutes": 120,
    "rating": 4.0,
    "lat": 22.564714,
    "lon": 114.04034,
    "description": "地址: 下梅林梅丽路9号(下梅林地铁站A口步行80米) | 类别: 商务住宅;商务住宅相关;商务住宅相关",
    "city": "深圳"
  },
  {
    "name": "大沙河公园",
    "category": "outdoor",
    "duration_minutes": 120,
    "rating": 4.0,
    "lat": 22.556822,
    "lon": 113.961327,
    "description": "电话: 0755-86239119 | 地址: 北环大道8228号 | 类别: 风景名胜;公园广场;公园",
    "city": "深圳"
  },
  {
    "name": "深圳湾文化广场",
    "category": "sightseeing",
    "duration_minutes": 120,
    "rating": 4.0,
    "lat": 22.511935,
    "lon": 113.945026,
    "description": "地址: 科苑南路与创业路交汇处 | 类别: 科教文化服务;科教文化场所;科教文化场所",
    "city": "深圳"
  },
  {
    "name": "中山公园",
    "category": "outdoor",
    "duration_minutes": 120,
    "rating": 4.0,
    "lat": 22.547835,
    "lon": 113.918973,
    "description": "电话: 0755-26612335 | 地址: 南山大道3109号(近汇泉广场) | 类别: 风景名胜;公园广场;公园",
    "city": "深圳"
  },
  {
    "name": "招商蛇口邮轮母港",
    "category": "sightseeing",
    "duration_minutes": 120,
    "rating": 4.0,
    "lat": 22.468754,
    "lon": 113.913338,
    "description": "电话: 4008831872 | 地址: 海运路1号(太子湾地铁站A口步行380米) | 类别: 交通设施服务;港口码头;客运港",
    "city": "深圳"
  },
  {
    "name": "红岗公园",
    "category": "outdoor",
    "duration_minutes": 120,
    "rating": 4.0,
    "lat": 22.575559,
    "lon": 114.114578,
    "description": "地址: 泥岗东路(近深业车城) | 类别: 风景名胜;公园广场;公园",
    "city": "深圳"
  },
  {
    "name": "荔枝公园-小平画像广场",
    "category": "outdoor",
    "duration_minutes": 120,
    "rating": 4.0,
    "lat": 22.541304,
    "lon": 114.104157,
    "description": "电话: 0755-82095655 | 地址: 红岭中路1001号荔枝公园(东南角) | 类别: 风景名胜;公园广场;城市广场",
    "city": "深圳"
  },
  {
    "name": "景观湖",
    "category": "outdoor",
    "duration_minutes": 120,
    "rating": 4.0,
    "lat": 22.549878,
    "lon": 114.079496,
    "description": "电话: 0755-83244645 | 地址: 红荔路深圳中心公园内(北侧) | 类别: 风景名胜;风景名胜相关;旅游景点",
    "city": "深圳"
  },
  {
    "name": "深圳湾公园日出剧场",
    "category": "outdoor",
    "duration_minutes": 120,
    "rating": 4.0,
    "lat": 22.499063,
    "lon": 113.952314,
    "description": "地址: 望海路深圳湾公园c2区 | 类别: 风景名胜;公园广场;公园",
    "city": "深圳"
  },
  {
    "name": "下沙博物馆",
    "category": "museum",
    "duration_minutes": 120,
    "rating": 4.0,
    "lat": 22.5267,
    "lon": 114.025066,
    "description": "电话: 0755-83877898 | 地址: 大围路与1路交叉口(下沙地铁站B口步行370米) | 类别: 科教文化服务;博物馆;博物馆",
    "city": "深圳"
  },
  {
    "name": "石厦大榕树",
    "category": "sightseeing",
    "duration_minutes": 120,
    "rating": 4.0,
    "lat": 22.521332,
    "lon": 114.050806,
    "description": "地址: 福民路石厦东村236栋(石厦地铁站F口步行370米) | 类别: 风景名胜;风景名胜相关;旅游景点",
    "city": "深圳"
  },
  {
    "name": "深圳观澜湖旅游度假区",
    "category": "outdoor",
    "duration_minutes": 120,
    "rating": 4.0,
    "lat": 22.729689,
    "lon": 114.0739,
    "description": "地址: 观澜高尔夫大道1号 | 类别: 风景名胜;风景名胜;国家级景点",
    "city": "深圳"
  },
  {
    "name": "梅林水库绿道涂鸦墙",
    "category": "sightseeing",
    "duration_minutes": 120,
    "rating": 4.0,
    "lat": 22.580049,
    "lon": 114.015988,
    "description": "地址: 福龙立交桥 | 类别: 体育休闲服务;休闲场所;休闲场所",
    "city": "深圳"
  },
  {
    "name": "前海公园荷兰花卉小镇",
    "category": "outdoor",
    "duration_minutes": 120,
    "rating": 4.0,
    "lat": 22.544813,
    "lon": 113.911886,
    "description": "地址: 南头街道星海名城社区月亮湾大道3008号 | 类别: 购物服务;花鸟鱼虫市场;花卉市场",
    "city": "深圳"
  },
  {
    "name": "环西丽湖碧道",
    "category": "outdoor",
    "duration_minutes": 120,
    "rating": 4.0,
    "lat": 22.606699,
    "lon": 113.938054,
    "description": "地址: 沁园路4032号 | 类别: 风景名胜;风景名胜;风景名胜",
    "city": "深圳"
  },
  {
    "name": "前海公园",
    "category": "outdoor",
    "duration_minutes": 120,
    "rating": 4.0,
    "lat": 22.544872,
    "lon": 113.911868,
    "description": "地址: 南头街道前海路 | 类别: 风景名胜;公园广场;公园",
    "city": "深圳"
  },
  {
    "name": "前海公园",
    "category": "outdoor",
    "duration_minutes": 120,
    "rating": 4.0,
    "lat": 22.544872,
    "lon": 113.911868,
    "description": "地址: 南头街道前海路 | 类别: 风景名胜;公园广场;公园",
    "city": "深圳"
  },
  {
    "name": "麦麦博物馆",
    "category": "museum",
    "duration_minutes": 120,
    "rating": 4.0,
    "lat": 22.564636,
    "lon": 114.040328,
    "description": "地址: 梅丽路与梅林路交叉口南40米 | 类别: 科教文化服务;科教文化场所;科教文化场所",
    "city": "深圳"
  },
  {
    "name": "南山博物馆",
    "category": "museum",
    "duration_minutes": 120,
    "rating": 4.0,
    "lat": 22.535024,
    "lon": 113.923887,
    "description": "电话: 0755-86700071 | 地址: 南山大道2093号(南头古城地铁站D口步行430米) | 类别: 科教文化服务;展览馆;展览馆",
    "city": "深圳"
  },
  {
    "name": "深圳卓悦中心喷泉广场",
    "category": "outdoor",
    "duration_minutes": 120,
    "rating": 4.0,
    "lat": 22.536115,
    "lon": 114.065418,
    "description": "地址: 卓悦中心西区(岗厦北地铁站9号口步行290米) | 类别: 风景名胜;公园广场;城市广场",
    "city": "深圳"
  },
  {
    "name": "深圳南山青青世界",
    "category": "outdoor",
    "duration_minutes": 120,
    "rating": 4.0,
    "lat": 22.499324,
    "lon": 113.900515,
    "description": "电话: 0755-26646988 | 地址: 月亮湾青青路1号 | 类别: 风景名胜;风景名胜;风景名胜",
    "city": "深圳"
  },
  {
    "name": "深圳湾公园流花山公园",
    "category": "outdoor",
    "duration_minutes": 120,
    "rating": 4.0,
    "lat": 22.512274,
    "lon": 113.953692,
    "description": "电话: 0755-83706489 | 地址: 东滨沙河西立交桥 | 类别: 风景名胜;公园广场;公园",
    "city": "深圳"
  },
  {
    "name": "深圳市圣安多尼教堂",
    "category": "sightseeing",
    "duration_minutes": 120,
    "rating": 4.0,
    "lat": 22.544294,
    "lon": 114.014224,
    "description": "电话: 0755-83500887 | 地址: 农林路65号 | 类别: 风景名胜;风景名胜;教堂",
    "city": "深圳"
  },
  {
    "name": "清水河铁路公园",
    "category": "outdoor",
    "duration_minutes": 120,
    "rating": 4.0,
    "lat": 22.581933,
    "lon": 114.116117,
    "description": "地址: 草埔地铁站D3口东南50米 | 类别: 风景名胜;公园广场;公园",
    "city": "深圳"
  },
  {
    "name": "雅宝公园",
    "category": "outdoor",
    "duration_minutes": 120,
    "rating": 4.0,
    "lat": 22.600475,
    "lon": 114.062077,
    "description": "地址: S301(雅宝西一号桥) | 类别: 风景名胜;公园广场;公园",
    "city": "深圳"
  },
  {
    "name": "雪竹径公园",
    "category": "outdoor",
    "duration_minutes": 120,
    "rating": 4.0,
    "lat": 22.651749,
    "lon": 114.083532,
    "description": "地址: 雪岗南路90号 | 类别: 风景名胜;公园广场;公园",
    "city": "深圳"
  },
  {
    "name": "深圳证券交易所广场-西面广场",
    "category": "outdoor",
    "duration_minutes": 120,
    "rating": 4.0,
    "lat": 22.542277,
    "lon": 114.053291,
    "description": "地址: 深南大道2012号深圳证券交易所 | 类别: 风景名胜;公园广场;城市广场",
    "city": "深圳"
  },
  {
    "name": "南山公园",
    "category": "outdoor",
    "duration_minutes": 120,
    "rating": 4.0,
    "lat": 22.494093,
    "lon": 113.90546,
    "description": "电话: 0755-26827910;0755-26823740 | 地址: 蛇口招商街道别墅路8号 | 类别: 风景名胜;公园广场;公园",
    "city": "深圳"
  },
  {
    "name": "银湖山郊野公园文谷庄园",
    "category": "outdoor",
    "duration_minutes": 120,
    "rating": 4.0,
    "lat": 22.602653,
    "lon": 114.097115,
    "description": "地址: S29清平高速与S29清平高速出口交叉口西380米 | 类别: 商务住宅;住宅区;住宅区",
    "city": "深圳"
  },
  {
    "name": "邓小平画像",
    "category": "sightseeing",
    "duration_minutes": 120,
    "rating": 4.0,
    "lat": 22.541425,
    "lon": 114.103995,
    "description": "电话: 0755-82095655 | 地址: 红岭南地铁站A口步行210米 | 类别: 风景名胜;风景名胜相关;旅游景点",
    "city": "深圳"
  },
  {
    "name": "深圳湾公园海韵园",
    "category": "outdoor",
    "duration_minutes": 120,
    "rating": 4.0,
    "lat": 22.518918,
    "lon": 113.98248,
    "description": "电话: 0755-83706489 | 地址: 滨海大道与滨海深湾立交桥交汇处东南150米 | 类别: 风景名胜;公园广场;公园",
    "city": "深圳"
  },
  {
    "name": "求水山公园",
    "category": "outdoor",
    "duration_minutes": 120,
    "rating": 4.0,
    "lat": 22.597597,
    "lon": 114.145147,
    "description": "地址: 南湾街道 | 类别: 风景名胜;风景名胜;风景名胜",
    "city": "深圳"
  },
  {
    "name": "恩上湿地公园",
    "category": "outdoor",
    "duration_minutes": 120,
    "rating": 4.0,
    "lat": 22.568329,
    "lon": 114.239189,
    "description": "地址: 惠深沿海高速 | 类别: 风景名胜;公园广场;公园",
    "city": "深圳"
  },
  {
    "name": "龙华公园",
    "category": "outdoor",
    "duration_minutes": 120,
    "rating": 4.0,
    "lat": 22.65731,
    "lon": 114.017079,
    "description": "地址: 人民路4279号 | 类别: 风景名胜;公园广场;公园",
    "city": "深圳"
  },
  {
    "name": "莲花山公园-蔬林草地",
    "category": "outdoor",
    "duration_minutes": 120,
    "rating": 4.0,
    "lat": 22.556602,
    "lon": 114.064009,
    "description": "电话: 0755-83067950 | 地址: 红荔路6030号莲花山公园(东北角) | 类别: 风景名胜;风景名胜相关;旅游景点",
    "city": "深圳"
  },
  {
    "name": "儿童公园(装修中)",
    "category": "outdoor",
    "duration_minutes": 120,
    "rating": 4.0,
    "lat": 22.553991,
    "lon": 114.124266,
    "description": "地址: 童乐路12号 | 类别: 风景名胜;公园广场;公园",
    "city": "深圳"
  },
  {
    "name": "淘金山绿道",
    "category": "outdoor",
    "duration_minutes": 120,
    "rating": 4.0,
    "lat": 22.587464,
    "lon": 114.146443,
    "description": "地址: 东湖街道 | 类别: 风景名胜;风景名胜相关;旅游景点",
    "city": "深圳"
  },
  {
    "name": "观澜山水田园文化园",
    "category": "outdoor",
    "duration_minutes": 120,
    "rating": 4.0,
    "lat": 22.714038,
    "lon": 114.107285,
    "description": "电话: 0755-29679988;0755-29679999 | 地址: 观澜街道君子布社区山水田园160号1-1 | 类别: 风景名胜;风景名胜;国家级景点",
    "city": "深圳"
  },
  {
    "name": "景田北六街公园宠物主题园",
    "category": "outdoor",
    "duration_minutes": 120,
    "rating": 4.0,
    "lat": 22.558214,
    "lon": 114.035684,
    "description": "地址: 花景道(北六街与景田北八街交界处) | 类别: 风景名胜;公园广场;公园|体育休闲服务;体育休闲服务场所;体育休闲服务场所",
    "city": "深圳"
  },
  {
    "name": "深圳弘福寺",
    "category": "history",
    "duration_minutes": 120,
    "rating": 4.0,
    "lat": 22.539374,
    "lon": 114.004544,
    "description": "电话: 0755-83291599 | 地址: 深南大道8002号深圳国际园林花卉博览园(东北角) | 类别: 风景名胜;风景名胜;寺庙道观",
    "city": "深圳"
  },
  {
    "name": "深圳湾公园海风运动公园",
    "category": "outdoor",
    "duration_minutes": 120,
    "rating": 4.0,
    "lat": 22.486199,
    "lon": 113.94696,
    "description": "地址: 望海路 | 类别: 风景名胜;公园广场;公园",
    "city": "深圳"
  },
  {
    "name": "桂湾公园",
    "category": "outdoor",
    "duration_minutes": 120,
    "rating": 4.0,
    "lat": 22.524969,
    "lon": 113.898685,
    "description": "地址: 前海一路与听海大道路口 | 类别: 风景名胜;公园广场;公园",
    "city": "深圳"
  },
  {
    "name": "平湖广场",
    "category": "outdoor",
    "duration_minutes": 120,
    "rating": 4.0,
    "lat": 22.697177,
    "lon": 114.128659,
    "description": "地址: 平湖大街(平湖地铁站C口步行450米) | 类别: 风景名胜;公园广场;城市广场",
    "city": "深圳"
  },
  {
    "name": "观澜河湿地公园",
    "category": "outdoor",
    "duration_minutes": 120,
    "rating": 4.0,
    "lat": 22.682504,
    "lon": 114.044875,
    "description": "地址: 福城街道新和社区永顺街南端 | 类别: 风景名胜;公园广场;公园",
    "city": "深圳"
  },
  {
    "name": "观澜古墟",
    "category": "sightseeing",
    "duration_minutes": 120,
    "rating": 4.0,
    "lat": 22.719017,
    "lon": 114.053592,
    "description": "电话: 18145800252 | 地址: 观澜沿河路与布新路交叉口东南 | 类别: 风景名胜;风景名胜;风景名胜",
    "city": "深圳"
  },
  {
    "name": "翠湖文体公园",
    "category": "outdoor",
    "duration_minutes": 120,
    "rating": 4.0,
    "lat": 22.583317,
    "lon": 114.146728,
    "description": "地址: 翠荫路 | 类别: 风景名胜;公园广场;公园",
    "city": "深圳"
  },
  {
    "name": "金湖公园",
    "category": "outdoor",
    "duration_minutes": 120,
    "rating": 4.0,
    "lat": 22.569067,
    "lon": 114.096421,
    "description": "地址: 金碧路与泥金路交叉口北180米 | 类别: 风景名胜;公园广场;公园",
    "city": "深圳"
  },
  {
    "name": "椰林沙池",
    "category": "sightseeing",
    "duration_minutes": 120,
    "rating": 4.0,
    "lat": 22.521877,
    "lon": 114.001699,
    "description": "类别: 风景名胜;风景名胜;风景名胜",
    "city": "深圳"
  },
  {
    "name": "深圳珠宝博物馆",
    "category": "museum",
    "duration_minutes": 120,
    "rating": 4.0,
    "lat": 22.569332,
    "lon": 114.127868,
    "description": "电话: 0755-82235656 | 地址: 金展国际珠宝广场3-4层(田贝地铁站F口步行370米) | 类别: 科教文化服务;博物馆;博物馆",
    "city": "深圳"
  },
  {
    "name": "笔架山公-砚湖亭",
    "category": "outdoor",
    "duration_minutes": 120,
    "rating": 4.0,
    "lat": 22.560981,
    "lon": 114.077783,
    "description": "电话: 0755-83220201 | 地址: 笋岗西路笔架山公园(西南角) | 类别: 风景名胜;风景名胜相关;旅游景点",
    "city": "深圳"
  },
  {
    "name": "盐田高级中学观景台",
    "category": "sightseeing",
    "duration_minutes": 120,
    "rating": 4.0,
    "lat": 22.572323,
    "lon": 114.252006,
    "description": "地址: 东湾三路与东湾东路交叉口北400米 | 类别: 风景名胜;风景名胜;风景名胜",
    "city": "深圳"
  },
  {
    "name": "宝安公园",
    "category": "outdoor",
    "duration_minutes": 120,
    "rating": 4.0,
    "lat": 22.58621,
    "lon": 113.902671,
    "description": "电话: 0755-29189220 | 地址: 公园路 | 类别: 风景名胜;公园广场;公园",
    "city": "深圳"
  },
  {
    "name": "荔香公园",
    "category": "outdoor",
    "duration_minutes": 120,
    "rating": 4.0,
    "lat": 22.536629,
    "lon": 113.929473,
    "description": "地址: 南头街道深南大道南侧 | 类别: 风景名胜;公园广场;公园",
    "city": "深圳"
  },
  {
    "name": "新洲祠堂",
    "category": "sightseeing",
    "duration_minutes": 120,
    "rating": 4.0,
    "lat": 22.522259,
    "lon": 114.046072,
    "description": "地址: 祠堂村一街与新洲二街交叉口西60米 | 类别: 风景名胜;风景名胜;风景名胜",
    "city": "深圳"
  },
  {
    "name": "月亮湾公园",
    "category": "outdoor",
    "duration_minutes": 120,
    "rating": 4.0,
    "lat": 22.500306,
    "lon": 113.899343,
    "description": "电话: 0755-86031806 | 地址: 前海路0333号阳光玫瑰园对面 | 类别: 风景名胜;公园广场;公园",
    "city": "深圳"
  },
  {
    "name": "翠竹公园",
    "category": "outdoor",
    "duration_minutes": 120,
    "rating": 4.0,
    "lat": 22.563835,
    "lon": 114.134339,
    "description": "地址: 翠竹路1078号 | 类别: 风景名胜;公园广场;公园",
    "city": "深圳"
  },
  {
    "name": "布吉公园",
    "category": "outdoor",
    "duration_minutes": 120,
    "rating": 4.0,
    "lat": 22.604331,
    "lon": 114.118412,
    "description": "地址: 布吉街道吉华路10号 | 类别: 风景名胜;风景名胜;风景名胜",
    "city": "深圳"
  },
  {
    "name": "海洋奇梦馆",
    "category": "outdoor",
    "duration_minutes": 120,
    "rating": 4.0,
    "lat": 22.525698,
    "lon": 113.988663,
    "description": "电话: 0755-86122338;0755-88821234;0755-86122132 | 地址: 白石路东8号欢乐海岸购物中心2层西侧 | 类别: 风景名胜;公园广场;水族馆",
    "city": "深圳"
  },
  {
    "name": "湾区之光摩天轮",
    "category": "sightseeing",
    "duration_minutes": 120,
    "rating": 4.0,
    "lat": 22.541133,
    "lon": 113.887927,
    "description": "电话: 4007622388 | 地址: 新安街道滨海文化公园(临海地铁站出入口步行240米) | 类别: 体育休闲服务;休闲场所;游乐场",
    "city": "深圳"
  },
  {
    "name": "深圳中心公园B区",
    "category": "outdoor",
    "duration_minutes": 120,
    "rating": 4.0,
    "lat": 22.537487,
    "lon": 114.075239,
    "description": "地址: 振华西路1号深圳中心公园(西南角) | 类别: 风景名胜;公园广场;公园",
    "city": "深圳"
  },
  {
    "name": "广东深圳华侨城国家湿地公园",
    "category": "outdoor",
    "duration_minutes": 120,
    "rating": 4.0,
    "lat": 22.526312,
    "lon": 113.981088,
    "description": "电话: 0755-86122899 | 地址: 白石路9号 | 类别: 风景名胜;公园广场;公园",
    "city": "深圳"
  },
  {
    "name": "深圳湾公园北湾鹭港",
    "category": "outdoor",
    "duration_minutes": 120,
    "rating": 4.0,
    "lat": 22.518986,
    "lon": 113.963039,
    "description": "电话: 0755-83706489 | 地址: 滨海大道辅路与滨海沙河东立交桥交叉口东南80米 | 类别: 风景名胜;公园广场;公园",
    "city": "深圳"
  },
  {
    "name": "荔林公园",
    "category": "outdoor",
    "duration_minutes": 120,
    "rating": 4.0,
    "lat": 22.50764,
    "lon": 113.910403,
    "description": "地址: 东滨路357号-359号(荔林地铁站A口步行450米) | 类别: 风景名胜;公园广场;公园",
    "city": "深圳"
  },
  {
    "name": "三联郊野公园",
    "category": "outdoor",
    "duration_minutes": 120,
    "rating": 4.0,
    "lat": 22.634297,
    "lon": 114.117608,
    "description": "地址: 水官高速记子坑 | 类别: 风景名胜;公园广场;公园",
    "city": "深圳"
  },
  {
    "name": "罗湖人才公园",
    "category": "outdoor",
    "duration_minutes": 120,
    "rating": 4.0,
    "lat": 22.579423,
    "lon": 114.081906,
    "description": "地址: 环湖三路银湖山郊野公园内(南侧) | 类别: 风景名胜;公园广场;公园广场",
    "city": "深圳"
  },
  {
    "name": "龙华文化广场",
    "category": "outdoor",
    "duration_minutes": 120,
    "rating": 4.0,
    "lat": 22.654989,
    "lon": 114.039173,
    "description": "地址: 东环二路和龙嫦路交叉口 | 类别: 风景名胜;公园广场;城市广场",
    "city": "深圳"
  },
  {
    "name": "九围湿地公园",
    "category": "outdoor",
    "duration_minutes": 120,
    "rating": 4.0,
    "lat": 22.64146,
    "lon": 113.866972,
    "description": "地址: 彩绘路与洲石路交叉口东220米 | 类别: 风景名胜;公园广场;公园",
    "city": "深圳"
  },
  {
    "name": "广东内伶仃福田国家级自然保护区",
    "category": "sightseeing",
    "duration_minutes": 120,
    "rating": 4.0,
    "lat": 22.526722,
    "lon": 114.00714,
    "description": "电话: 0755-82562842 | 地址: 滨海大道辅路与红树林路交叉口西200米 | 类别: 风景名胜;风景名胜;风景名胜",
    "city": "深圳"
  },
  {
    "name": "海边公园",
    "category": "outdoor",
    "duration_minutes": 120,
    "rating": 4.0,
    "lat": 22.5334,
    "lon": 113.892163,
    "description": "地址: 南头街道桂湾四路 | 类别: 风景名胜;公园广场;公园",
    "city": "深圳"
  },
  {
    "name": "深圳中心公园-大草坪",
    "category": "outdoor",
    "duration_minutes": 120,
    "rating": 4.0,
    "lat": 22.542926,
    "lon": 114.079889,
    "description": "电话: 0755-83252115 | 地址: 深圳中心公园C2区 | 类别: 风景名胜;风景名胜相关;旅游景点",
    "city": "深圳"
  },
  {
    "name": "写意三河",
    "category": "sightseeing",
    "duration_minutes": 120,
    "rating": 4.0,
    "lat": 22.624649,
    "lon": 113.96329,
    "description": "地址: 沁园路4032号环西丽湖碧道 | 类别: 风景名胜;风景名胜相关;旅游景点",
    "city": "深圳"
  },
  {
    "name": "滨河水务广场",
    "category": "outdoor",
    "duration_minutes": 120,
    "rating": 4.0,
    "lat": 22.534113,
    "lon": 114.104123,
    "description": "地址: 滨河大道2001号(鹿丹村地铁站A1口步行440米) | 类别: 风景名胜;公园广场;城市广场",
    "city": "深圳"
  },
  {
    "name": "半山广场",
    "category": "outdoor",
    "duration_minutes": 120,
    "rating": 4.0,
    "lat": 22.590124,
    "lon": 114.104986,
    "description": "地址: 凤仪山隧道旁半山道1号 | 类别: 风景名胜;公园广场;城市广场",
    "city": "深圳"
  },
  {
    "name": "西丽生态公园",
    "category": "outdoor",
    "duration_minutes": 120,
    "rating": 4.0,
    "lat": 22.57369,
    "lon": 113.932621,
    "description": "地址: 同乐路与打石一路交汇处东南角 | 类别: 风景名胜;公园广场;公园",
    "city": "深圳"
  },
  {
    "name": "华强北甘泉路近零碳社区公园",
    "category": "outdoor",
    "duration_minutes": 120,
    "rating": 4.0,
    "lat": 22.545239,
    "lon": 114.094177,
    "description": "地址: 甘泉路5号(燕南地铁站B口步行120米) | 类别: 风景名胜;公园广场;公园",
    "city": "深圳"
  },
  {
    "name": "福田河绿道",
    "category": "sightseeing",
    "duration_minutes": 120,
    "rating": 4.0,
    "lat": 22.556987,
    "lon": 114.076686,
    "description": "电话: 0755-83244645 | 地址: 笋岗西路与公园路交叉口西北200米 | 类别: 风景名胜;风景名胜相关;旅游景点|体育休闲服务;体育休闲服务场所;体育休闲服务场所",
    "city": "深圳"
  },
  {
    "name": "塘朗山郊野公园塘朗村登山口",
    "category": "outdoor",
    "duration_minutes": 120,
    "rating": 4.0,
    "lat": 22.584791,
    "lon": 113.988079,
    "description": "地址: 留仙大道107-108号 | 类别: 风景名胜;风景名胜;风景名胜",
    "city": "深圳"
  },
  {
    "name": "深圳华侨城旅游度假区-生态广场",
    "category": "outdoor",
    "duration_minutes": 120,
    "rating": 4.0,
    "lat": 22.538168,
    "lon": 113.984546,
    "description": "地址: 侨城侨城西街 | 类别: 风景名胜;公园广场;城市广场",
    "city": "深圳"
  },
  {
    "name": "深圳国际园林花卉博览园-东区",
    "category": "sightseeing",
    "duration_minutes": 120,
    "rating": 4.0,
    "lat": 22.539767,
    "lon": 114.005332,
    "description": "电话: 0755-82829036 | 地址: 香蜜湖街道竹林社区深南大道竹子林段8002号深圳国际园林花卉博览园(东北角) | 类别: 风景名胜;风景名胜相关;旅游景点",
    "city": "深圳"
  },
  {
    "name": "深圳人才公园2期",
    "category": "outdoor",
    "duration_minutes": 120,
    "rating": 4.0,
    "lat": 22.505775,
    "lon": 113.944625,
    "description": "地址: 粤海街道蔚蓝海岸社区科苑南路3329号深圳人才公园(西南角) | 类别: 风景名胜;公园广场;公园",
    "city": "深圳"
  },
  {
    "name": "中康公园",
    "category": "outdoor",
    "duration_minutes": 120,
    "rating": 4.0,
    "lat": 22.568891,
    "lon": 114.05654,
    "description": "电话: 0755-83107902 | 地址: 上梅林(梅村地铁站C1口步行280米) | 类别: 风景名胜;公园广场;公园",
    "city": "深圳"
  },
  {
    "name": "铁仔山公园",
    "category": "outdoor",
    "duration_minutes": 120,
    "rating": 4.0,
    "lat": 22.592327,
    "lon": 113.863621,
    "description": "地址: 西乡大道和广深公路交叉口 | 类别: 风景名胜;公园广场;公园",
    "city": "深圳"
  },
  {
    "name": "上步绿廊公园",
    "category": "outdoor",
    "duration_minutes": 120,
    "rating": 4.0,
    "lat": 22.549716,
    "lon": 114.096621,
    "description": "地址: 上步路与红荔路十字路口(通新岭地铁站C口步行50米) | 类别: 风景名胜;公园广场;公园",
    "city": "深圳"
  },
  {
    "name": "平湖生态园",
    "category": "outdoor",
    "duration_minutes": 120,
    "rating": 4.0,
    "lat": 22.674107,
    "lon": 114.110644,
    "description": "地址: 平湖街道华南大道1号华南城西门对面 | 类别: 风景名胜;公园广场;公园",
    "city": "深圳"
  },
  {
    "name": "四海公园",
    "category": "outdoor",
    "duration_minutes": 120,
    "rating": 4.0,
    "lat": 22.496265,
    "lon": 113.92704,
    "description": "地址: 公园路82-2号 | 类别: 风景名胜;公园广场;公园",
    "city": "深圳"
  },
  {
    "name": "莲花放彩水景",
    "category": "sightseeing",
    "duration_minutes": 120,
    "rating": 4.0,
    "lat": 22.549218,
    "lon": 114.067162,
    "description": "地址: 红荔路6030号莲花山公园(莲花村地铁站D口旁) | 类别: 风景名胜;风景名胜相关;旅游景点",
    "city": "深圳"
  },
  {
    "name": "福田口岸街心公园",
    "category": "outdoor",
    "duration_minutes": 120,
    "rating": 4.0,
    "lat": 22.514836,
    "lon": 114.069208,
    "description": "地址: 裕亨路与渔农村二通道交叉口南160米 | 类别: 风景名胜;公园广场;公园",
    "city": "深圳"
  },
  {
    "name": "大南山公园荔林登山口",
    "category": "outdoor",
    "duration_minutes": 120,
    "rating": 4.0,
    "lat": 22.506615,
    "lon": 113.905629,
    "description": "地址: 东滨路357号-359号荔林公园内(西侧) | 类别: 风景名胜;风景名胜;风景名胜",
    "city": "深圳"
  },
  {
    "name": "石芽岭公园",
    "category": "outdoor",
    "duration_minutes": 120,
    "rating": 4.0,
    "lat": 22.618263,
    "lon": 114.130935,
    "description": "地址: 布吉街道东西干道 | 类别: 风景名胜;公园广场;公园",
    "city": "深圳"
  },
  {
    "name": "下李朗公园",
    "category": "outdoor",
    "duration_minutes": 120,
    "rating": 4.0,
    "lat": 22.638694,
    "lon": 114.134498,
    "description": "地址: 下李北路与大围路交叉口南100米 | 类别: 风景名胜;公园广场;公园",
    "city": "深圳"
  },
  {
    "name": "大梅沙海滨公园",
    "category": "outdoor",
    "duration_minutes": 120,
    "rating": 4.0,
    "lat": 22.592429,
    "lon": 114.307954,
    "description": "电话: 0755-25209678 | 地址: 盐梅路105号 | 类别: 风景名胜;公园广场;公园",
    "city": "深圳"
  },
  {
    "name": "西丽湖牌坊",
    "category": "outdoor",
    "duration_minutes": 120,
    "rating": 4.0,
    "lat": 22.597481,
    "lon": 113.965608,
    "description": "地址: 西丽湖路4001号 | 类别: 风景名胜;风景名胜;风景名胜",
    "city": "深圳"
  },
  {
    "name": "海滨生态公园-海边观光",
    "category": "outdoor",
    "duration_minutes": 120,
    "rating": 4.0,
    "lat": 22.522031,
    "lon": 114.002459,
    "description": "地址: 滨海大道海滨生态公园内 | 类别: 风景名胜;风景名胜相关;旅游景点",
    "city": "深圳"
  },
  {
    "name": "石岩湿地公园",
    "category": "outdoor",
    "duration_minutes": 120,
    "rating": 4.0,
    "lat": 22.690597,
    "lon": 113.910897,
    "description": "地址: 石岩街道松白路旁 | 类别: 风景名胜;公园广场;公园",
    "city": "深圳"
  },
  {
    "name": "宝安西湾红树林公园",
    "category": "outdoor",
    "duration_minutes": 120,
    "rating": 4.0,
    "lat": 22.593516,
    "lon": 113.833999,
    "description": "电话: 0755-29662276 | 地址: 金湾大道与西海堤交汇处 | 类别: 风景名胜;公园广场;公园",
    "city": "深圳"
  },
  {
    "name": "莲花山公园-桃花林",
    "category": "outdoor",
    "duration_minutes": 120,
    "rating": 4.0,
    "lat": 22.557027,
    "lon": 114.05302,
    "description": "电话: 0755-83067950 | 地址: 莲花路与雨田路交叉口西南300米 | 类别: 风景名胜;风景名胜;风景名胜",
    "city": "深圳"
  },
  {
    "name": "安畅园",
    "category": "outdoor",
    "duration_minutes": 120,
    "rating": 4.0,
    "lat": 22.556691,
    "lon": 113.989426,
    "description": "地址: 北环大道辅路与北环大道出口交叉口北20米 | 类别: 风景名胜;公园广场;公园广场",
    "city": "深圳"
  },
  {
    "name": "新安公园",
    "category": "outdoor",
    "duration_minutes": 120,
    "rating": 4.0,
    "lat": 22.563413,
    "lon": 113.911801,
    "description": "地址: 前进一路 | 类别: 风景名胜;公园广场;公园",
    "city": "深圳"
  },
  {
    "name": "太子湾滨海岸线公园",
    "category": "outdoor",
    "duration_minutes": 120,
    "rating": 4.0,
    "lat": 22.475115,
    "lon": 113.915695,
    "description": "地址: 居海路与汇海路交叉口东240米 | 类别: 风景名胜;公园广场;公园",
    "city": "深圳"
  },
  {
    "name": "海上世界明华轮",
    "category": "outdoor",
    "duration_minutes": 120,
    "rating": 4.0,
    "lat": 22.483471,
    "lon": 113.916898,
    "description": "电话: 0755-26866906 | 地址: 太子路32号海上世界广场 | 类别: 风景名胜;风景名胜相关;旅游景点",
    "city": "深圳"
  },
  {
    "name": "罗湖创意文化广场",
    "category": "outdoor",
    "duration_minutes": 120,
    "rating": 4.0,
    "lat": 22.543183,
    "lon": 114.127673,
    "description": "电话: 0755-82299822 | 地址: 南极路6号(广深宾馆)(湖贝地铁站A口步行170米) | 类别: 风景名胜;公园广场;城市广场",
    "city": "深圳"
  },
  {
    "name": "大梧桐山顶鹏城第一峰",
    "category": "outdoor",
    "duration_minutes": 120,
    "rating": 4.0,
    "lat": 22.57947,
    "lon": 114.219372,
    "description": "地址: 罗沙路2078号梧桐山风景区内 | 类别: 风景名胜;风景名胜;风景名胜|体育休闲服务;体育休闲服务场所;体育休闲服务场所",
    "city": "深圳"
  },
  {
    "name": "万科活力社区运动公园",
    "category": "outdoor",
    "duration_minutes": 120,
    "rating": 4.0,
    "lat": 22.559751,
    "lon": 114.06931,
    "description": "地址: 彩田路辅路与莲花支路交叉口东100米 | 类别: 风景名胜;公园广场;公园",
    "city": "深圳"
  },
  {
    "name": "靖轩广场",
    "category": "sightseeing",
    "duration_minutes": 120,
    "rating": 4.0,
    "lat": 22.547885,
    "lon": 114.139325,
    "description": "地址: 黄贝岭三路黄贝岭深业东岭(新发茶餐厅后侧) | 类别: 购物服务;购物相关场所;购物相关场所",
    "city": "深圳"
  },
  {
    "name": "园山风景区",
    "category": "outdoor",
    "duration_minutes": 120,
    "rating": 4.0,
    "lat": 22.634143,
    "lon": 114.248813,
    "description": "电话: 0755-28675668;0755-28676999 | 地址: 园山街道大康社区园山路101号 | 类别: 风景名胜;风景名胜;省级景点",
    "city": "深圳"
  },
  {
    "name": "平安金融中心西广场",
    "category": "outdoor",
    "duration_minutes": 120,
    "rating": 4.0,
    "lat": 22.533498,
    "lon": 114.055196,
    "description": "地址: 益田路5033号PA MALL平安金融中心 | 类别: 风景名胜;公园广场;城市广场",
    "city": "深圳"
  },
  {
    "name": "盐田区海滨栈道健身广场",
    "category": "outdoor",
    "duration_minutes": 120,
    "rating": 4.0,
    "lat": 22.551848,
    "lon": 114.241312,
    "description": "地址: 海景路11号附近 | 类别: 风景名胜;公园广场;城市广场",
    "city": "深圳"
  },
  {
    "name": "北帝古庙",
    "category": "history",
    "duration_minutes": 120,
    "rating": 4.0,
    "lat": 22.575582,
    "lon": 113.879294,
    "description": "地址: 河西路91-2号西乡商业步行街 | 类别: 风景名胜;风景名胜;寺庙道观",
    "city": "深圳"
  },
  {
    "name": "笔架山公园-主峰",
    "category": "outdoor",
    "duration_minutes": 120,
    "rating": 4.0,
    "lat": 22.564807,
    "lon": 114.086005,
    "description": "电话: 0755-83220201 | 地址: 环山北路(福田区笔架山公园内) | 类别: 风景名胜;风景名胜;风景名胜",
    "city": "深圳"
  },
  {
    "name": "松坪山公园",
    "category": "outdoor",
    "duration_minutes": 120,
    "rating": 4.0,
    "lat": 22.558571,
    "lon": 113.947283,
    "description": "地址: 乌石头路9号 | 类别: 风景名胜;公园广场;公园",
    "city": "深圳"
  },
  {
    "name": "灰色博物馆",
    "category": "museum",
    "duration_minutes": 120,
    "rating": 4.0,
    "lat": 22.541323,
    "lon": 114.116441,
    "description": "电话: 13692063747 | 地址: 南湖街道深南东路3085号兆鑫汇金广场B232号 | 类别: 科教文化服务;博物馆;博物馆",
    "city": "深圳"
  },
  {
    "name": "莲花山公园-雨林溪谷",
    "category": "outdoor",
    "duration_minutes": 120,
    "rating": 4.0,
    "lat": 22.552395,
    "lon": 114.063656,
    "description": "电话: 0755-83067950 | 地址: 莲花街道莲花山公园清风路 | 类别: 风景名胜;风景名胜相关;旅游景点",
    "city": "深圳"
  },
  {
    "name": "红树林观鸟",
    "category": "sightseeing",
    "duration_minutes": 120,
    "rating": 4.0,
    "lat": 22.522443,
    "lon": 114.003457,
    "description": "电话: 0755-83707868 | 地址: 滨海大道深圳湾公园海滨生态公园内 | 类别: 风景名胜;风景名胜相关;旅游景点",
    "city": "深圳"
  },
  {
    "name": "尖岗山公园",
    "category": "outdoor",
    "duration_minutes": 120,
    "rating": 4.0,
    "lat": 22.590397,
    "lon": 113.914738,
    "description": "地址: 宝石路附近 | 类别: 风景名胜;公园广场;公园",
    "city": "深圳"
  },
  {
    "name": "万佛禅寺",
    "category": "history",
    "duration_minutes": 120,
    "rating": 4.0,
    "lat": 22.555957,
    "lon": 114.147786,
    "description": "电话: 0755-25408818 | 地址: 罗沙路 | 类别: 风景名胜;风景名胜;寺庙道观",
    "city": "深圳"
  },
  {
    "name": "海滨广场",
    "category": "outdoor",
    "duration_minutes": 120,
    "rating": 4.0,
    "lat": 22.551575,
    "lon": 113.883624,
    "description": "地址: 宝兴路与海秀路交叉口东北(宝华地铁站C口步行260米) | 类别: 风景名胜;公园广场;公园广场",
    "city": "深圳"
  }
]