[
  {
    "name": "辽宁省博物馆",
    "category": "museum",
    "duration_minutes": 120,
    "rating": 4.0,
    "lat": 41.678023,
    "lon": 123.460464,
    "description": "电话: 024-22741193 | 地址: 智慧三街157号 | 类别: 科教文化服务;博物馆;博物馆",
    "city": "沈阳"
  },
  {
    "name": "莫子山公园",
    "category": "outdoor",
    "duration_minutes": 120,
    "rating": 4.0,
    "lat": 41.670704,
    "lon": 123.484796,
    "description": "地址: 环山路 | 类别: 风景名胜;公园广场;公园",
    "city": "沈阳"
  },
  {
    "name": "中央公园音乐喷泉",
    "category": "outdoor",
    "duration_minutes": 120,
    "rating": 4.0,
    "lat": 41.668943,
    "lon": 123.455937,
    "description": "地址: 智慧二街浑南新城中央公园(南侧) | 类别: 风景名胜;风景名胜;风景名胜",
    "city": "沈阳"
  },
  {
    "name": "浑南之夏夜市",
    "category": "sightseeing",
    "duration_minutes": 120,
    "rating": 4.0,
    "lat": 41.672459,
    "lon": 123.455996,
    "description": "地址: 全运五路中央公园内(南侧) | 类别: 购物服务;特色商业街;特色商业街",
    "city": "沈阳"
  },
  {
    "name": "白塔公园",
    "category": "outdoor",
    "duration_minutes": 120,
    "rating": 4.0,
    "lat": 41.693927,
    "lon": 123.425321,
    "description": "地址: 浑南新区白塔堡 | 类别: 风景名胜;公园广场;公园",
    "city": "沈阳"
  },
  {
    "name": "沈阳故宫博物院",
    "category": "history",
    "duration_minutes": 120,
    "rating": 4.0,
    "lat": 41.798387,
    "lon": 123.455677,
    "description": "电话: 024-24843809 | 地址: 沈阳路171号 | 类别: 风景名胜;风景名胜;国家级景点",
    "city": "沈阳"
  },
  {
    "name": "弥陀寺",
    "category": "history",
    "duration_minutes": 120,
    "rating": 4.0,
    "lat": 41.691514,
    "lon": 123.42556,
    "description": "地址: 浑南新区白塔堡白塔公园内(南侧) | 类别: 风景名胜;风景名胜;寺庙道观",
    "city": "沈阳"
  },
  {
    "name": "张学良旧居陈列馆",
    "category": "sightseeing",
    "duration_minutes": 120,
    "rating": 4.0,
    "lat": 41.794058,
    "lon": 123.457791,
    "description": "电话: 024-24842454;024-24850576 | 地址: 朝阳街少帅府巷46号 | 类别: 风景名胜;风景名胜;国家级景点",
    "city": "沈阳"
  },
  {
    "name": "沈阳中街步行街",
    "category": "sightseeing",
    "duration_minutes": 120,
    "rating": 4.0,
    "lat": 41.800326,
    "lon": 123.456381,
    "description": "地址: 中街路212-214号(中街地铁站B1口步行290米) | 类别: 购物服务;特色商业街;步行街",
    "city": "沈阳"
  },
  {
    "name": "太原街步行街",
    "category": "sightseeing",
    "duration_minutes": 120,
    "rating": 4.0,
    "lat": 41.793696,
    "lon": 123.401679,
    "description": "地址: 太原北街110号附近 | 类别: 购物服务;特色商业街;步行街",
    "city": "沈阳"
  },
  {
    "name": "浑南市民公园",
    "category": "outdoor",
    "duration_minutes": 120,
    "rating": 4.0,
    "lat": 41.742602,
    "lon": 123.439289,
    "description": "地址: 南堤西路2号 | 类别: 风景名胜;公园广场;公园",
    "city": "沈阳"
  },
  {
    "name": "沈阳科学宫",
    "category": "history",
    "duration_minutes": 120,
    "rating": 4.0,
    "lat": 41.761323,
    "lon": 123.436297,
    "description": "电话: 024-23978049 | 地址: 青年大街201号 | 类别: 风景名胜;风景名胜;国家级景点",
    "city": "沈阳"
  },
  {
    "name": "南湖公园",
    "category": "outdoor",
    "duration_minutes": 120,
    "rating": 4.0,
    "lat": 41.771134,
    "lon": 123.412767,
    "description": "电话: 024-23844578;024-23886446;024-23891531 | 地址: 文化路1号 | 类别: 风景名胜;公园广场;公园",
    "city": "沈阳"
  },
  {
    "name": "铁西广场",
    "category": "outdoor",
    "duration_minutes": 120,
    "rating": 4.0,
    "lat": 41.793315,
    "lon": 123.371026,
    "description": "地址: 兴华南街与建设东路交汇处 | 类别: 风景名胜;公园广场;公园广场",
    "city": "沈阳"
  },
  {
    "name": "沈水湾公园",
    "category": "outdoor",
    "duration_minutes": 120,
    "rating": 4.0,
    "lat": 41.751388,
    "lon": 123.419541,
    "description": "地址: 沈水路589号 | 类别: 风景名胜;公园广场;公园",
    "city": "沈阳"
  },
  {
    "name": "五里河公园",
    "category": "outdoor",
    "duration_minutes": 120,
    "rating": 4.0,
    "lat": 41.758702,
    "lon": 123.46811,
    "description": "地址: 沈水路(近富民街) | 类别: 风景名胜;公园广场;公园",
    "city": "沈阳"
  },
  {
    "name": "氏族聚落",
    "category": "sightseeing",
    "duration_minutes": 120,
    "rating": 4.0,
    "lat": 41.678039,
    "lon": 123.460772,
    "description": "地址: 智慧三街157号 | 类别: 风景名胜;风景名胜相关;旅游景点",
    "city": "沈阳"
  },
  {
    "name": "老北市",
    "category": "sightseeing",
    "duration_minutes": 120,
    "rating": 4.0,
    "lat": 41.80673,
    "lon": 123.42565,
    "description": "地址: 皇寺路99号 | 类别: 风景名胜;风景名胜;风景名胜|购物服务;购物相关场所;购物相关场所",
    "city": "沈阳"
  },
  {
    "name": "北陵公园",
    "category": "outdoor",
    "duration_minutes": 120,
    "rating": 4.0,
    "lat": 41.851637,
    "lon": 123.428469,
    "description": "电话: 024-86901330;024-86896294 | 地址: 泰山路12号 | 类别: 风景名胜;风景名胜;国家级景点",
    "city": "沈阳"
  },
  {
    "name": "太清宫",
    "category": "history",
    "duration_minutes": 120,
    "rating": 4.0,
    "lat": 41.804425,
    "lon": 123.447802,
    "description": "地址: 西顺城街16号 | 类别: 风景名胜;风景名胜;风景名胜",
    "city": "沈阳"
  },
  {
    "name": "张氏帅府博物馆",
    "category": "museum",
    "duration_minutes": 120,
    "rating": 4.0,
    "lat": 41.794078,
    "lon": 123.459848,
    "description": "地址: 南顺城路 | 类别: 科教文化服务;博物馆;博物馆",
    "city": "沈阳"
  },
  {
    "name": "红梅文创园",
    "category": "sightseeing",
    "duration_minutes": 120,
    "rating": 4.0,
    "lat": 41.811247,
    "lon": 123.350507,
    "description": "地址: 卫工北街44号 | 类别: 商务住宅;产业园区;产业园区",
    "city": "沈阳"
  },
  {
    "name": "桃仙网红墙",
    "category": "sightseeing",
    "duration_minutes": 120,
    "rating": 4.0,
    "lat": 41.654297,
    "lon": 123.511821,
    "description": "电话: 13904050648 | 地址: 辽宁百汇租车(沈阳机场店)东侧100米 | 类别: 风景名胜;风景名胜;风景名胜",
    "city": "沈阳"
  },
  {
    "name": "铁西1905文化创意园",
    "category": "sightseeing",
    "duration_minutes": 120,
    "rating": 4.0,
    "lat": 41.812451,
    "lon": 123.382444,
    "description": "电话: 024-62781520;4000241905 | 地址: 兴华北街8号(重型文化广场南侧) | 类别: 风景名胜;风景名胜相关;旅游景点",
    "city": "沈阳"
  },
  {
    "name": "慈恩寺",
    "category": "history",
    "duration_minutes": 120,
    "rating": 4.0,
    "lat": 41.783483,
    "lon": 123.460535,
    "description": "电话: 024-67859666 | 地址: 大南街慈恩寺巷12号 | 类别: 风景名胜;风景名胜;寺庙道观",
    "city": "沈阳"
  },
  {
    "name": "青年公园",
    "category": "outdoor",
    "duration_minutes": 120,
    "rating": 4.0,
    "lat": 41.780985,
    "lon": 123.43805,
    "description": "电话: 024-23892220 | 地址: 风雨坛街道青年大街111号(近文艺路) | 类别: 风景名胜;公园广场;公园",
    "city": "沈阳"
  },
  {
    "name": "怀远门",
    "category": "sightseeing",
    "duration_minutes": 120,
    "rating": 4.0,
    "lat": 41.797754,
    "lon": 123.448799,
    "description": "地址: 沈阳路2号(怀远门地铁站B口步行100米) | 类别: 风景名胜;风景名胜相关;旅游景点",
    "city": "沈阳"
  },
  {
    "name": "中山公园(和平南大街)",
    "category": "outdoor",
    "duration_minutes": 120,
    "rating": 4.0,
    "lat": 41.785505,
    "lon": 123.40618,
    "description": "地址: 南京南街7号(太原街地铁站C口步行260米) | 类别: 风景名胜;公园广场;公园",
    "city": "沈阳"
  },
  {
    "name": "西塔民族文化街",
    "category": "history",
    "duration_minutes": 120,
    "rating": 4.0,
    "lat": 41.805656,
    "lon": 123.411197,
    "description": "地址: 西塔街汉庭酒店(沈阳西塔店) | 类别: 购物服务;特色商业街;特色商业街",
    "city": "沈阳"
  },
  {
    "name": "沈阳博物馆",
    "category": "museum",
    "duration_minutes": 120,
    "rating": 4.0,
    "lat": 41.803329,
    "lon": 123.436523,
    "description": "电话: 024-23914199 | 地址: 市府大路363号(人民广场地铁站C2口步行110米) | 类别: 科教文化服务;博物馆;博物馆",
    "city": "沈阳"
  },
  {
    "name": "老北市室内民国老街",
    "category": "sightseeing",
    "duration_minutes": 120,
    "rating": 4.0,
    "lat": 41.806546,
    "lon": 123.425653,
    "description": "地址: 北市场街道皇寺路99-1号 | 类别: 风景名胜;风景名胜相关;旅游景点",
    "city": "沈阳"
  },
  {
    "name": "万泉公园",
    "category": "outdoor",
    "duration_minutes": 120,
    "rating": 4.0,
    "lat": 41.789984,
    "lon": 123.474879,
    "description": "地址: 万泉街1号 | 类别: 风景名胜;公园广场;公园",
    "city": "沈阳"
  },
  {
    "name": "中山广场",
    "category": "outdoor",
    "duration_minutes": 120,
    "rating": 4.0,
    "lat": 41.796968,
    "lon": 123.410563,
    "description": "地址: 中山广场与北四马路交叉口西50米 | 类别: 风景名胜;公园广场;城市广场",
    "city": "沈阳"
  },
  {
    "name": "中国工业博物馆",
    "category": "museum",
    "duration_minutes": 120,
    "rating": 4.0,
    "lat": 41.82148,
    "lon": 123.355206,
    "description": "电话: 024-25702088;024-25719599 | 地址: 重工街道卫工北街14号(近北一路) | 类别: 科教文化服务;博物馆;博物馆",
    "city": "沈阳"
  },
  {
    "name": "八卦街",
    "category": "sightseeing",
    "duration_minutes": 120,
    "rating": 4.0,
    "lat": 41.787428,
    "lon": 123.419856,
    "description": "地址: 云集西巷云集社区(南市场地铁站A口步行310米) | 类别: 购物服务;特色商业街;特色商业街",
    "city": "沈阳"
  },
  {
    "name": "劳动公园",
    "category": "outdoor",
    "duration_minutes": 120,
    "rating": 4.0,
    "lat": 41.669937,
    "lon": 123.348361,
    "description": "电话: 024-89814247 | 地址: 雪柳街与青松路交叉口东北 | 类别: 风景名胜;公园广场;公园",
    "city": "沈阳"
  },
  {
    "name": "皇姑北塔公园",
    "category": "outdoor",
    "duration_minutes": 120,
    "rating": 4.0,
    "lat": 41.828352,
    "lon": 123.451047,
    "description": "地址: 崇山东路21-20 | 类别: 风景名胜;公园广场;公园",
    "city": "沈阳"
  },
  {
    "name": "浪里个浪丛林水秀",
    "category": "sightseeing",
    "duration_minutes": 120,
    "rating": 4.0,
    "lat": 41.74465,
    "lon": 123.337472,
    "description": "电话: 024-22538666 | 地址: 南阳湖街168号 | 类别: 体育休闲服务;休闲场所;休闲场所",
    "city": "沈阳"
  },
  {
    "name": "沈阳市人民广场",
    "category": "outdoor",
    "duration_minutes": 120,
    "rating": 4.0,
    "lat": 41.804654,
    "lon": 123.434043,
    "description": "地址: 青年大街1号(人民广场地铁站D口步行80米) | 类别: 风景名胜;公园广场;城市广场",
    "city": "沈阳"
  },
  {
    "name": "万柳塘公园",
    "category": "outdoor",
    "duration_minutes": 120,
    "rating": 4.0,
    "lat": 41.780738,
    "lon": 123.465053,
    "description": "电话: 024-24144259 | 地址: 先农坛路17巷 | 类别: 风景名胜;公园广场;公园",
    "city": "沈阳"
  },
  {
    "name": "八一公园",
    "category": "outdoor",
    "duration_minutes": 120,
    "rating": 4.0,
    "lat": 41.802352,
    "lon": 123.424566,
    "description": "电话: 024-22829632 | 地址: 三纬路18号 | 类别: 风景名胜;公园广场;公园",
    "city": "沈阳"
  },
  {
    "name": "沈阳市东陵公园",
    "category": "outdoor",
    "duration_minutes": 120,
    "rating": 4.0,
    "lat": 41.839119,
    "lon": 123.592798,
    "description": "电话: 024-88031478;12301 | 地址: 古井路与G1501沈阳绕城高速交叉口东陵路210号(东陵路) | 类别: 风景名胜;风景名胜;国家级景点",
    "city": "沈阳"
  },
  {
    "name": "清昭陵",
    "category": "sightseeing",
    "duration_minutes": 120,
    "rating": 4.0,
    "lat": 41.851292,
    "lon": 123.42758,
    "description": "电话: 024-86896294 | 地址: 北塔街道泰山路12号北陵公园内 | 类别: 风景名胜;风景名胜;世界遗产",
    "city": "沈阳"
  },
  {
    "name": "方型广场",
    "category": "outdoor",
    "duration_minutes": 120,
    "rating": 4.0,
    "lat": 41.774811,
    "lon": 123.416212,
    "description": "电话: 13042425591 | 地址: 南五马路 | 类别: 风景名胜;公园广场;城市广场",
    "city": "沈阳"
  },
  {
    "name": "沈阳金融博物馆",
    "category": "museum",
    "duration_minutes": 120,
    "rating": 4.0,
    "lat": 41.794085,
    "lon": 123.459802,
    "description": "电话: 024-24867711;024-24842454 | 地址: 皇城街道少帅府巷8号 | 类别: 科教文化服务;博物馆;博物馆",
    "city": "沈阳"
  },
  {
    "name": "沈阳鸟岛",
    "category": "sightseeing",
    "duration_minutes": 120,
    "rating": 4.0,
    "lat": 41.826236,
    "lon": 123.606705,
    "description": "电话: 024-88033929;024-88033900 | 地址: 东陵路195号(近东陵公园) | 类别: 风景名胜;风景名胜;省级景点",
    "city": "沈阳"
  },
  {
    "name": "碧霞宫",
    "category": "history",
    "duration_minutes": 120,
    "rating": 4.0,
    "lat": 41.665139,
    "lon": 123.421425,
    "description": "电话: 024-24687799 | 地址: 白塔街道沈营大街799号 | 类别: 风景名胜;风景名胜;寺庙道观",
    "city": "沈阳"
  },
  {
    "name": "百鸟公园",
    "category": "outdoor",
    "duration_minutes": 120,
    "rating": 4.0,
    "lat": 41.829651,
    "lon": 123.402344,
    "description": "地址: 崇山中路66号辽宁大学对面(近宁山路)百鸟园附近 | 类别: 风景名胜;公园广场;公园",
    "city": "沈阳"
  },
  {
    "name": "荷花池",
    "category": "sightseeing",
    "duration_minutes": 120,
    "rating": 4.0,
    "lat": 41.660091,
    "lon": 123.457087,
    "description": "地址: 智慧二街276号附近 | 类别: 风景名胜;风景名胜;风景名胜",
    "city": "沈阳"
  },
  {
    "name": "护国法轮寺",
    "category": "history",
    "duration_minutes": 120,
    "rating": 4.0,
    "lat": 41.83027,
    "lon": 123.451361,
    "description": "电话: 024-86625665 | 地址: 北塔街27号 | 类别: 风景名胜;风景名胜;寺庙道观",
    "city": "沈阳"
  },
  {
    "name": "浑河西峡谷生态公园",
    "category": "outdoor",
    "duration_minutes": 120,
    "rating": 4.0,
    "lat": 41.68839,
    "lon": 123.231329,
    "description": "类别: 风景名胜;公园广场;公园",
    "city": "沈阳"
  },
  {
    "name": "沈阳理工大学兵器博物馆",
    "category": "museum",
    "duration_minutes": 120,
    "rating": 4.0,
    "lat": 41.726883,
    "lon": 123.491791,
    "description": "电话: 024-24681918 | 地址: 南屏中路6号沈阳理工大学内 | 类别: 科教文化服务;博物馆;博物馆",
    "city": "沈阳"
  },
  {
    "name": "北塔",
    "category": "history",
    "duration_minutes": 120,
    "rating": 4.0,
    "lat": 41.830529,
    "lon": 123.451862,
    "description": "地址: 北塔街27号 | 类别: 风景名胜;风景名胜;风景名胜",
    "city": "沈阳"
  },
  {
    "name": "和平广场",
    "category": "outdoor",
    "duration_minutes": 120,
    "rating": 4.0,
    "lat": 41.778447,
    "lon": 123.404306,
    "description": "地址: 新兴街11号 | 类别: 风景名胜;公园广场;城市广场",
    "city": "沈阳"
  },
  {
    "name": "新华广场",
    "category": "outdoor",
    "duration_minutes": 120,
    "rating": 4.0,
    "lat": 41.776405,
    "lon": 123.394242,
    "description": "地址: 南京南街150号 | 类别: 风景名胜;公园广场;城市广场",
    "city": "沈阳"
  },
  {
    "name": "瀋阳蓬瀛宫道院",
    "category": "history",
    "duration_minutes": 120,
    "rating": 4.0,
    "lat": 41.765773,
    "lon": 123.451908,
    "description": "电话: 024-24513455 | 地址: 南塔街97号蓬瀛宫 | 类别: 风景名胜;风景名胜;寺庙道观",
    "city": "沈阳"
  },
  {
    "name": "宋雨桂艺术馆",
    "category": "sightseeing",
    "duration_minutes": 120,
    "rating": 4.0,
    "lat": 41.734881,
    "lon": 123.407563,
    "description": "电话: 024-83769000 | 地址: 仙岛南路360号 | 类别: 科教文化服务;展览馆;展览馆",
    "city": "沈阳"
  },
  {
    "name": "兴华公园",
    "category": "outdoor",
    "duration_minutes": 120,
    "rating": 4.0,
    "lat": 41.787896,
    "lon": 123.364044,
    "description": "地址: 兴华南街(兴华公园地铁站D1口步行330米) | 类别: 风景名胜;公园广场;公园",
    "city": "沈阳"
  },
  {
    "name": "浑南新城中央公园-水秀湖广场",
    "category": "outdoor",
    "duration_minutes": 120,
    "rating": 4.0,
    "lat": 41.695921,
    "lon": 123.456169,
    "description": "地址: 白塔河二路 | 类别: 风景名胜;公园广场;城市广场",
    "city": "沈阳"
  },
  {
    "name": "沈飞航空博览园",
    "category": "sightseeing",
    "duration_minutes": 120,
    "rating": 4.0,
    "lat": 41.86431,
    "lon": 123.433597,
    "description": "电话: 024-86599602;024-86599616 | 地址: 陵北街1号 | 类别: 科教文化服务;展览馆;展览馆",
    "city": "沈阳"
  },
  {
    "name": "科普公园",
    "category": "outdoor",
    "duration_minutes": 120,
    "rating": 4.0,
    "lat": 41.761821,
    "lon": 123.439919,
    "description": "地址: 五里河街道五爱街52号(近文体东路) | 类别: 风景名胜;公园广场;公园",
    "city": "沈阳"
  },
  {
    "name": "五里河小黄鸭亲子乐园",
    "category": "sightseeing",
    "duration_minutes": 120,
    "rating": 4.0,
    "lat": 41.756775,
    "lon": 123.464725,
    "description": "电话: 13555810282 | 地址: 南塔街道沈阳浑河船运内河船员培训学校(东门)五里河公园内(西南角) | 类别: 体育休闲服务;休闲场所;游乐场",
    "city": "沈阳"
  },
  {
    "name": "黎明广场",
    "category": "outdoor",
    "duration_minutes": 120,
    "rating": 4.0,
    "lat": 41.808387,
    "lon": 123.503485,
    "description": "地址: 和睦路53-1号(黎明广场地铁站B口旁) | 类别: 风景名胜;公园广场;城市广场",
    "city": "沈阳"
  },
  {
    "name": "南塔公园",
    "category": "outdoor",
    "duration_minutes": 120,
    "rating": 4.0,
    "lat": 41.76583,
    "lon": 123.45331,
    "description": "地址: 文萃路(近文萃苑) | 类别: 风景名胜;公园广场;公园",
    "city": "沈阳"
  },
  {
    "name": "沈阳植物园(沈阳世博园)",
    "category": "sightseeing",
    "duration_minutes": 120,
    "rating": 4.0,
    "lat": 41.86233,
    "lon": 123.649192,
    "description": "电话: 024-88038035;024-88062427 | 地址: 双园路301号 | 类别: 风景名胜;风景名胜;国家级景点",
    "city": "沈阳"
  },
  {
    "name": "马耳山风景区",
    "category": "outdoor",
    "duration_minutes": 120,
    "rating": 4.0,
    "lat": 41.511459,
    "lon": 123.583142,
    "description": "地址: 姚千街道马耳山生态旅游区 | 类别: 风景名胜;风景名胜;风景名胜",
    "city": "沈阳"
  },
  {
    "name": "抗美援朝烈士陵园",
    "category": "sightseeing",
    "duration_minutes": 120,
    "rating": 4.0,
    "lat": 41.855638,
    "lon": 123.452076,
    "description": "地址: 金山路50号 | 类别: 生活服务;丧葬设施;陵园",
    "city": "沈阳"
  },
  {
    "name": "主角儿古风演艺城",
    "category": "sightseeing",
    "duration_minutes": 120,
    "rating": 4.0,
    "lat": 41.806984,
    "lon": 123.485833,
    "description": "电话: 4001050456 | 地址: 龙之梦购物中心7-8层红中厅 | 类别: 体育休闲服务;休闲场所;游乐场",
    "city": "沈阳"
  },
  {
    "name": "恒大文化旅游城",
    "category": "sightseeing",
    "duration_minutes": 120,
    "rating": 4.0,
    "lat": 41.618046,
    "lon": 123.546083,
    "description": "地址: 梧桐大街 | 类别: 商务住宅;住宅区;住宅区",
    "city": "沈阳"
  },
  {
    "name": "塔北城市公园",
    "category": "outdoor",
    "duration_minutes": 120,
    "rating": 4.0,
    "lat": 41.703597,
    "lon": 123.428269,
    "description": "地址: 沈营大街71-1号 | 类别: 风景名胜;公园广场;公园",
    "city": "沈阳"
  },
  {
    "name": "皇寺",
    "category": "history",
    "duration_minutes": 120,
    "rating": 4.0,
    "lat": 41.807182,
    "lon": 123.427846,
    "description": "地址: 皇寺路206号 | 类别: 风景名胜;风景名胜;寺庙道观",
    "city": "沈阳"
  },
  {
    "name": "浑河堡教堂",
    "category": "sightseeing",
    "duration_minutes": 120,
    "rating": 4.0,
    "lat": 41.722231,
    "lon": 123.441204,
    "description": "电话: 15840470343 | 地址: 金帆西路8号 | 类别: 风景名胜;风景名胜;教堂",
    "city": "沈阳"
  },
  {
    "name": "仙女湖公园",
    "category": "outdoor",
    "duration_minutes": 120,
    "rating": 4.0,
    "lat": 41.777497,
    "lon": 123.33674,
    "description": "地址: 沈辽西路17号 | 类别: 风景名胜;公园广场;公园",
    "city": "沈阳"
  },
  {
    "name": "水生岛",
    "category": "sightseeing",
    "duration_minutes": 120,
    "rating": 4.0,
    "lat": 41.658609,
    "lon": 123.455847,
    "description": "地址: 智慧二街与创新路交叉口东北240米 | 类别: 风景名胜;风景名胜;风景名胜",
    "city": "沈阳"
  },
  {
    "name": "浑河晚渡公园",
    "category": "outdoor",
    "duration_minutes": 120,
    "rating": 4.0,
    "lat": 41.746867,
    "lon": 123.355262,
    "description": "地址: 城东湖街道阳光路20号 | 类别: 风景名胜;公园广场;公园",
    "city": "沈阳"
  },
  {
    "name": "周恩来同志少年读书旧址",
    "category": "sightseeing",
    "duration_minutes": 120,
    "rating": 4.0,
    "lat": 41.794961,
    "lon": 123.466047,
    "description": "地址: 大东路育才巷10号 | 类别: 风景名胜;风景名胜;红色景区|风景名胜;风景名胜;省级景点",
    "city": "沈阳"
  },
  {
    "name": "英国汇丰银行奉天支行旧址",
    "category": "sightseeing",
    "duration_minutes": 120,
    "rating": 4.0,
    "lat": 41.790428,
    "lon": 123.423199,
    "description": "地址: 十一纬路102号(南市场地铁站B口步行250米) | 类别: 风景名胜;风景名胜相关;旅游景点",
    "city": "沈阳"
  },
  {
    "name": "鲁迅公园",
    "category": "outdoor",
    "duration_minutes": 120,
    "rating": 4.0,
    "lat": 41.779172,
    "lon": 123.421485,
    "description": "地址: 西滨河路6号 | 类别: 风景名胜;公园广场;公园",
    "city": "沈阳"
  },
  {
    "name": "沈阳新乐遗址博物馆",
    "category": "museum",
    "duration_minutes": 120,
    "rating": 4.0,
    "lat": 41.847474,
    "lon": 123.415393,
    "description": "电话: 024-86130755 | 地址: 龙山路1号 | 类别: 科教文化服务;博物馆;博物馆",
    "city": "沈阳"
  },
  {
    "name": "罗士圈生态公园",
    "category": "outdoor",
    "duration_minutes": 120,
    "rating": 4.0,
    "lat": 41.757471,
    "lon": 123.387567,
    "description": "地址: 浑河湾街道沈水湾街道玉屏二路钓鱼台七号南门对面 | 类别: 风景名胜;公园广场;公园",
    "city": "沈阳"
  },
  {
    "name": "协和广场",
    "category": "sightseeing",
    "duration_minutes": 120,
    "rating": 4.0,
    "lat": 41.79475,
    "lon": 123.402191,
    "description": "地址: 太原北街80号兴隆一百2层 | 类别: 商务住宅;楼宇;商务写字楼|商务住宅;住宅区;住宅小区",
    "city": "沈阳"
  },
  {
    "name": "喜园婚礼文化主题公园",
    "category": "outdoor",
    "duration_minutes": 120,
    "rating": 4.0,
    "lat": 41.848798,
    "lon": 123.494003,
    "description": "电话: 024-88316988 | 地址: 观泉路112-1w号 | 类别: 风景名胜;公园广场;公园|生活服务;生活服务场所;生活服务场所",
    "city": "沈阳"
  },
  {
    "name": "沈阳十一号院艺术区",
    "category": "sightseeing",
    "duration_minutes": 120,
    "rating": 4.0,
    "lat": 41.790167,
    "lon": 123.426009,
    "description": "电话: 13166665310 | 地址: 十一纬路111号十一号院艺术区c座一楼 | 类别: 商务住宅;产业园区;产业园区",
    "city": "沈阳"
  },
  {
    "name": "沈阳故宫文化博物馆",
    "category": "museum",
    "duration_minutes": 120,
    "rating": 4.0,
    "lat": 41.795676,
    "lon": 123.460483,
    "description": "地址: 皇城街道朝阳街131号 | 类别: 科教文化服务;博物馆;博物馆",
    "city": "沈阳"
  },
  {
    "name": "奥林匹克生态公园",
    "category": "outdoor",
    "duration_minutes": 120,
    "rating": 4.0,
    "lat": 41.751333,
    "lon": 123.483792,
    "description": "地址: 五三街道南堤中路与天赐街交叉口 | 类别: 风景名胜;公园广场;公园|体育休闲服务;运动场馆;运动场所",
    "city": "沈阳"
  },
  {
    "name": "克俭公园",
    "category": "outdoor",
    "duration_minutes": 120,
    "rating": 4.0,
    "lat": 41.809798,
    "lon": 123.404955,
    "description": "地址: 阿里山路8号 | 类别: 风景名胜;公园广场;公园",
    "city": "沈阳"
  },
  {
    "name": "富民园",
    "category": "outdoor",
    "duration_minutes": 120,
    "rating": 4.0,
    "lat": 41.772139,
    "lon": 123.46908,
    "description": "地址: 富民街15号 | 类别: 风景名胜;公园广场;城市广场",
    "city": "沈阳"
  },
  {
    "name": "浑南新城中央公园",
    "category": "outdoor",
    "duration_minutes": 120,
    "rating": 4.0,
    "lat": 41.677606,
    "lon": 123.455984,
    "description": "地址: 全运四路附近 | 类别: 风景名胜;公园广场;公园",
    "city": "沈阳"
  },
  {
    "name": "西塔",
    "category": "history",
    "duration_minutes": 120,
    "rating": 4.0,
    "lat": 41.805107,
    "lon": 123.408655,
    "description": "地址: 北市场街道市府大路25号 | 类别: 风景名胜;风景名胜;风景名胜",
    "city": "沈阳"
  },
  {
    "name": "小南教堂广场(暂停开放)",
    "category": "sightseeing",
    "duration_minutes": 120,
    "rating": 4.0,
    "lat": 41.789837,
    "lon": 123.452652,
    "description": "地址: 小南街59号 | 类别: 风景名胜;风景名胜;风景名胜",
    "city": "沈阳"
  },
  {
    "name": "长白岛森林公园",
    "category": "outdoor",
    "duration_minutes": 120,
    "rating": 4.0,
    "lat": 41.751536,
    "lon": 123.387594,
    "description": "地址: 南堤西路附近 | 类别: 风景名胜;公园广场;公园",
    "city": "沈阳"
  },
  {
    "name": "九·一八历史博物馆",
    "category": "museum",
    "duration_minutes": 120,
    "rating": 4.0,
    "lat": 41.836397,
    "lon": 123.467533,
    "description": "电话: 024-88338981 | 地址: 望花南街46号 | 类别: 科教文化服务;博物馆;博物馆",
    "city": "沈阳"
  },
  {
    "name": "沈阳市铁西区劳动公园",
    "category": "outdoor",
    "duration_minutes": 120,
    "rating": 4.0,
    "lat": 41.786106,
    "lon": 123.338026,
    "description": "地址: 肇工街南12号 | 类别: 风景名胜;公园广场;公园",
    "city": "沈阳"
  },
  {
    "name": "天主教辽宁总教区沈阳南关主教座堂天主堂(暂停开放)",
    "category": "sightseeing",
    "duration_minutes": 120,
    "rating": 4.0,
    "lat": 41.790631,
    "lon": 123.452889,
    "description": "电话: 024-24153411 | 地址: 小南街南乐郊路40号 | 类别: 风景名胜;风景名胜;教堂",
    "city": "沈阳"
  },
  {
    "name": "东塔园-护国永光寺",
    "category": "history",
    "duration_minutes": 120,
    "rating": 4.0,
    "lat": 41.79663,
    "lon": 123.507014,
    "description": "电话: 024-81309092 | 地址: 东塔街2号 | 类别: 风景名胜;风景名胜;寺庙道观",
    "city": "沈阳"
  },
  {
    "name": "丁香湖公园",
    "category": "outdoor",
    "duration_minutes": 120,
    "rating": 4.0,
    "lat": 41.848672,
    "lon": 123.330932,
    "description": "地址: 造化街道白山路 | 类别: 风景名胜;公园广场;公园",
    "city": "沈阳"
  },
  {
    "name": "惠工广场",
    "category": "outdoor",
    "duration_minutes": 120,
    "rating": 4.0,
    "lat": 41.813644,
    "lon": 123.440064,
    "description": "地址: 惠工街167号甲4(金融中心地铁站B口步行110米) | 类别: 风景名胜;公园广场;城市广场",
    "city": "沈阳"
  },
  {
    "name": "东三省总督府(暂停开放)",
    "category": "sightseeing",
    "duration_minutes": 120,
    "rating": 4.0,
    "lat": 41.796813,
    "lon": 123.457622,
    "description": "电话: 024-81588278 | 地址: 皇城街道皇城街道盛京路28号 | 类别: 风景名胜;风景名胜;风景名胜",
    "city": "沈阳"
  },
  {
    "name": "碧塘公园",
    "category": "outdoor",
    "duration_minutes": 120,
    "rating": 4.0,
    "lat": 41.820416,
    "lon": 123.415552,
    "description": "地址: 长江街15号 | 类别: 风景名胜;公园广场;公园",
    "city": "沈阳"
  },
  {
    "name": "长安寺",
    "category": "history",
    "duration_minutes": 120,
    "rating": 4.0,
    "lat": 41.803264,
    "lon": 123.461637,
    "description": "地址: 皇城街道中街路268号益田假日世界 | 类别: 风景名胜;风景名胜;寺庙道观",
    "city": "沈阳"
  },
  {
    "name": "舍利塔滩地公园",
    "category": "outdoor",
    "duration_minutes": 120,
    "rating": 4.0,
    "lat": 41.834023,
    "lon": 123.380011,
    "description": "地址: 塔湾街 | 类别: 风景名胜;公园广场;公园",
    "city": "沈阳"
  },
  {
    "name": "时代公园",
    "category": "outdoor",
    "duration_minutes": 120,
    "rating": 4.0,
    "lat": 41.818644,
    "lon": 123.504354,
    "description": "地址: 东贸路20号 | 类别: 风景名胜;公园广场;公园",
    "city": "沈阳"
  },
  {
    "name": "白清寨滑雪场",
    "category": "sightseeing",
    "duration_minutes": 120,
    "rating": 4.0,
    "lat": 41.57562,
    "lon": 123.720571,
    "description": "电话: 024-31891166 | 地址: 白清寨广福路69-1号 | 类别: 体育休闲服务;运动场馆;滑雪场|风景名胜;风景名胜相关;旅游景点",
    "city": "沈阳"
  },
  {
    "name": "意大利风情小镇",
    "category": "sightseeing",
    "duration_minutes": 120,
    "rating": 4.0,
    "lat": 41.837206,
    "lon": 123.322421,
    "description": "地址: 广业西路24号 | 类别: 商务住宅;住宅区;住宅小区",
    "city": "沈阳"
  },
  {
    "name": "张学良旧居陈列馆-张学良将军",
    "category": "sightseeing",
    "duration_minutes": 120,
    "rating": 4.0,
    "lat": 41.793498,
    "lon": 123.457994,
    "description": "电话: 024-24842113 | 地址: 朝阳街少帅府东巷与朝阳街少帅府巷交叉口西80米 | 类别: 风景名胜;风景名胜;风景名胜",
    "city": "沈阳"
  },
  {
    "name": "龙潭荷花湖度假公园-天柱排青公园",
    "category": "outdoor",
    "duration_minutes": 120,
    "rating": 4.0,
    "lat": 41.826794,
    "lon": 123.593193,
    "description": "地址: 东陵路天柱排青公园(东陵公园对面) | 类别: 风景名胜;风景名胜;风景名胜",
    "city": "沈阳"
  },
  {
    "name": "北大营营房旧址",
    "category": "sightseeing",
    "duration_minutes": 120,
    "rating": 4.0,
    "lat": 41.843108,
    "lon": 123.488878,
    "description": "电话: 024-81736188 | 地址: 柳林街2号 | 类别: 科教文化服务;展览馆;展览馆|风景名胜;风景名胜;风景名胜",
    "city": "沈阳"
  },
  {
    "name": "大法寺",
    "category": "history",
    "duration_minutes": 120,
    "rating": 4.0,
    "lat": 41.817681,
    "lon": 123.461677,
    "description": "电话: 024-88573009;024-81748923 | 地址: 八王寺街120号(近沈阳大学南门) | 类别: 风景名胜;风景名胜;寺庙道观",
    "city": "沈阳"
  },
  {
    "name": "铁西森林公园",
    "category": "outdoor",
    "duration_minutes": 120,
    "rating": 4.0,
    "lat": 41.807708,
    "lon": 123.321174,
    "description": "地址: 建设西路附近 | 类别: 风景名胜;公园广场;公园",
    "city": "沈阳"
  },
  {
    "name": "奉天工场文化创意园",
    "category": "sightseeing",
    "duration_minutes": 120,
    "rating": 4.0,
    "lat": 41.820867,
    "lon": 123.349049,
    "description": "地址: 肇工北街11巷 | 类别: 商务住宅;产业园区;产业园区",
    "city": "沈阳"
  },
  {
    "name": "泉园广场",
    "category": "outdoor",
    "duration_minutes": 120,
    "rating": 4.0,
    "lat": 41.77202,
    "lon": 123.468783,
    "description": "地址: 富民街15号富民园内(西侧) | 类别: 风景名胜;公园广场;城市广场",
    "city": "沈阳"
  },
  {
    "name": "沈阳市园林植物标本公园",
    "category": "outdoor",
    "duration_minutes": 120,
    "rating": 4.0,
    "lat": 41.759861,
    "lon": 123.443865,
    "description": "地址: 南塔街道南塔西街与科普路交叉口西北150米 | 类别: 风景名胜;公园广场;植物园",
    "city": "沈阳"
  },
  {
    "name": "沈阳南塔",
    "category": "history",
    "duration_minutes": 120,
    "rating": 4.0,
    "lat": 41.766427,
    "lon": 123.451769,
    "description": "电话: 024-24513455 | 地址: 南塔街71号 | 类别: 风景名胜;风景名胜;风景名胜",
    "city": "沈阳"
  },
  {
    "name": "清真南寺",
    "category": "sightseeing",
    "duration_minutes": 120,
    "rating": 4.0,
    "lat": 41.802508,
    "lon": 123.439382,
    "description": "电话: 024-22726760 | 地址: 南清真路23号 | 类别: 风景名胜;风景名胜;回教寺",
    "city": "沈阳"
  },
  {
    "name": "护国延寿寺",
    "category": "history",
    "duration_minutes": 120,
    "rating": 4.0,
    "lat": 41.805104,
    "lon": 123.408653,
    "description": "地址: 北市场街道敦化一路55-2号西南80米 | 类别: 风景名胜;风景名胜;寺庙道观",
    "city": "沈阳"
  },
  {
    "name": "中共满洲省委旧址纪念馆",
    "category": "museum",
    "duration_minutes": 120,
    "rating": 4.0,
    "lat": 41.807734,
    "lon": 123.424536,
    "description": "电话: 024-22724485 | 地址: 北市场街道皇寺路福安巷3号 | 类别: 风景名胜;风景名胜;红色景区",
    "city": "沈阳"
  },
  {
    "name": "马耳山",
    "category": "outdoor",
    "duration_minutes": 120,
    "rating": 4.0,
    "lat": 41.524192,
    "lon": 123.589866,
    "description": "地址: 马耳山风景区(东北角) | 类别: 风景名胜;风景名胜相关;旅游景点",
    "city": "沈阳"
  },
  {
    "name": "海蓝星梦幻城",
    "category": "outdoor",
    "duration_minutes": 120,
    "rating": 4.0,
    "lat": 41.910691,
    "lon": 123.427404,
    "description": "电话: 024-89336633 | 地址: 七星大街96号 | 类别: 风景名胜;风景名胜相关;旅游景点",
    "city": "沈阳"
  },
  {
    "name": "快乐专加(沈阳铁西店)",
    "category": "sightseeing",
    "duration_minutes": 120,
    "rating": 4.0,
    "lat": 41.805584,
    "lon": 123.370005,
    "description": "电话: 024-67917777 | 地址: 景星北街星摩尔南行300米(Z广场文化产业园) | 类别: 体育休闲服务;休闲场所;游乐场",
    "city": "沈阳"
  },
  {
    "name": "华润置地创新公园",
    "category": "outdoor",
    "duration_minutes": 120,
    "rating": 4.0,
    "lat": 41.676419,
    "lon": 123.506903,
    "description": "地址: 创新路与沈本二街交叉口东南80米 | 类别: 风景名胜;公园广场;公园",
    "city": "沈阳"
  },
  {
    "name": "沈阳郎朗钢琴广场",
    "category": "sightseeing",
    "duration_minutes": 120,
    "rating": 4.0,
    "lat": 41.742123,
    "lon": 123.421824,
    "description": "地址: 南堤西路 | 类别: 风景名胜;风景名胜相关;旅游景点",
    "city": "沈阳"
  },
  {
    "name": "和平体育公园",
    "category": "outdoor",
    "duration_minutes": 120,
    "rating": 4.0,
    "lat": 41.757159,
    "lon": 123.40524,
    "description": "地址: 南堤西路501号 | 类别: 风景名胜;公园广场;公园",
    "city": "沈阳"
  },
  {
    "name": "重型文化广场",
    "category": "outdoor",
    "duration_minutes": 120,
    "rating": 4.0,
    "lat": 41.812914,
    "lon": 123.383135,
    "description": "地址: 兴华北街8号(重型文化广场地铁站B口步行180米) | 类别: 风景名胜;公园广场;城市广场",
    "city": "沈阳"
  },
  {
    "name": "圣火广场",
    "category": "outdoor",
    "duration_minutes": 120,
    "rating": 4.0,
    "lat": 41.740239,
    "lon": 123.473579,
    "description": "地址: 五三街道五三街道朗云街 | 类别: 风景名胜;公园广场;城市广场",
    "city": "沈阳"
  },
  {
    "name": "朝阳山生态文化景区",
    "category": "outdoor",
    "duration_minutes": 120,
    "rating": 4.0,
    "lat": 41.725134,
    "lon": 123.668287,
    "description": "地址: 沙河子村 | 类别: 风景名胜;风景名胜;省级景点",
    "city": "沈阳"
  },
  {
    "name": "天后宫",
    "category": "history",
    "duration_minutes": 120,
    "rating": 4.0,
    "lat": 41.81131,
    "lon": 123.456255,
    "description": "地址: 取意街4号 | 类别: 风景名胜;风景名胜;寺庙道观",
    "city": "沈阳"
  },
  {
    "name": "万科·浑南新都心公园",
    "category": "outdoor",
    "duration_minutes": 120,
    "rating": 4.0,
    "lat": 41.702435,
    "lon": 123.502974,
    "description": "地址: 桑林街与明德路交叉口西160米 | 类别: 风景名胜;公园广场;公园",
    "city": "沈阳"
  },
  {
    "name": "沈阳方城文化旅游区",
    "category": "sightseeing",
    "duration_minutes": 120,
    "rating": 4.0,
    "lat": 41.799017,
    "lon": 123.456448,
    "description": "地址: 皇城街道中街路钟楼南巷与钟楼南巷交叉口西南220米 | 类别: 风景名胜;风景名胜;风景名胜",
    "city": "沈阳"
  },
  {
    "name": "喜马大陆·儿童沉浸式短旅中心",
    "category": "sightseeing",
    "duration_minutes": 120,
    "rating": 4.0,
    "lat": 41.811116,
    "lon": 123.328303,
    "description": "电话: 15566223699;18602482455 | 地址: 重工街道重工北街66-1号铁西体育场东门 | 类别: 体育休闲服务;休闲场所;游乐场",
    "city": "沈阳"
  },
  {
    "name": "盛京堂子巷",
    "category": "sightseeing",
    "duration_minutes": 120,
    "rating": 4.0,
    "lat": 41.796798,
    "lon": 123.474293,
    "description": "地址: 堂子街堂子庙巷14-3号 | 类别: 风景名胜;风景名胜;风景名胜",
    "city": "沈阳"
  },
  {
    "name": "抚近门",
    "category": "sightseeing",
    "duration_minutes": 120,
    "rating": 4.0,
    "lat": 41.797381,
    "lon": 123.463726,
    "description": "地址: 东顺城街82号 | 类别: 风景名胜;风景名胜;风景名胜",
    "city": "沈阳"
  },
  {
    "name": "辽宁省博物馆旧址",
    "category": "museum",
    "duration_minutes": 120,
    "rating": 4.0,
    "lat": 41.79179,
    "lon": 123.421643,
    "description": "地址: 十纬路与北五经街交叉口东北100米 | 类别: 风景名胜;风景名胜;风景名胜",
    "city": "沈阳"
  },
  {
    "name": "沈阳警察博物馆",
    "category": "museum",
    "duration_minutes": 120,
    "rating": 4.0,
    "lat": 41.768579,
    "lon": 123.500126,
    "description": "电话: 024-84122110;16640560578 | 地址: 方南路19巷4号 | 类别: 科教文化服务;博物馆;博物馆",
    "city": "沈阳"
  },
  {
    "name": "辽宁古生物博物馆",
    "category": "museum",
    "duration_minutes": 120,
    "rating": 4.0,
    "lat": 41.908143,
    "lon": 123.410336,
    "description": "电话: 024-86593017 | 地址: 黄河北大街253号 | 类别: 科教文化服务;博物馆;博物馆",
    "city": "沈阳"
  },
  {
    "name": "老龙口旅游景区",
    "category": "sightseeing",
    "duration_minutes": 120,
    "rating": 4.0,
    "lat": 41.806462,
    "lon": 123.480274,
    "description": "电话: 024-88766575 | 地址: 珠林路 | 类别: 风景名胜;风景名胜;风景名胜",
    "city": "沈阳"
  },
  {
    "name": "沈阳二战盟军战俘营遗址陈列馆",
    "category": "history",
    "duration_minutes": 120,
    "rating": 4.0,
    "lat": 41.809107,
    "lon": 123.491754,
    "description": "电话: 024-88765807 | 地址: 地坛街30-3号 | 类别: 科教文化服务;展览馆;展览馆",
    "city": "沈阳"
  },
  {
    "name": "丁香东湖公园",
    "category": "outdoor",
    "duration_minutes": 120,
    "rating": 4.0,
    "lat": 41.844585,
    "lon": 123.355812,
    "description": "地址: 造化街道白山路丁香湖公园 | 类别: 风景名胜;公园广场;公园",
    "city": "沈阳"
  },
  {
    "name": "丁香湖小镇滑雪场",
    "category": "outdoor",
    "duration_minutes": 120,
    "rating": 4.0,
    "lat": 41.858058,
    "lon": 123.347013,
    "description": "电话: 024-28719688;024-81196288 | 地址: 陵西街道环湖路丁香小镇西150米 | 类别: 体育休闲服务;休闲场所;游乐场",
    "city": "沈阳"
  },
  {
    "name": "中国沈阳审判日本战犯法庭旧址陈列馆",
    "category": "sightseeing",
    "duration_minutes": 120,
    "rating": 4.0,
    "lat": 41.829262,
    "lon": 123.435817,
    "description": "电话: 024-86841108 | 地址: 黑龙江街77号原北陵电影院 | 类别: 风景名胜;风景名胜;风景名胜",
    "city": "沈阳"
  },
  {
    "name": "沈阳抗美援朝烈士陵园烈士纪念馆",
    "category": "history",
    "duration_minutes": 120,
    "rating": 4.0,
    "lat": 41.855312,
    "lon": 123.449618,
    "description": "地址: 金山路50号抗美援朝烈士陵园内 | 类别: 风景名胜;风景名胜;纪念馆",
    "city": "沈阳"
  },
  {
    "name": "沈阳抗美援朝烈士陵园烈士纪念馆",
    "category": "history",
    "duration_minutes": 120,
    "rating": 4.0,
    "lat": 41.855312,
    "lon": 123.449618,
    "description": "地址: 金山路50号抗美援朝烈士陵园内 | 类别: 风景名胜;风景名胜;纪念馆",
    "city": "沈阳"
  },
  {
    "name": "东塔园",
    "category": "outdoor",
    "duration_minutes": 120,
    "rating": 4.0,
    "lat": 41.797019,
    "lon": 123.50731,
    "description": "地址: 东塔街道东塔街2号 | 类别: 风景名胜;公园广场;公园",
    "city": "沈阳"
  },
  {
    "name": "望鸢台",
    "category": "sightseeing",
    "duration_minutes": 120,
    "rating": 4.0,
    "lat": 41.653771,
    "lon": 123.50655,
    "description": "地址: 苏赵线南侧 | 类别: 风景名胜;风景名胜;风景名胜",
    "city": "沈阳"
  },
  {
    "name": "沈阳体育公园",
    "category": "outdoor",
    "duration_minutes": 120,
    "rating": 4.0,
    "lat": 41.78336,
    "lon": 123.402765,
    "description": "地址: 南三马路61号(南五马路地铁站D1口步行300米) | 类别: 风景名胜;公园广场;公园",
    "city": "沈阳"
  },
  {
    "name": "浑河滨水慢道",
    "category": "sightseeing",
    "duration_minutes": 120,
    "rating": 4.0,
    "lat": 41.752133,
    "lon": 123.44421,
    "description": "地址: 五里河街道五爱立交与九龙街交叉口东80米 | 类别: 风景名胜;风景名胜相关;旅游景点",
    "city": "沈阳"
  },
  {
    "name": "沈阳建筑大学建筑博物馆",
    "category": "museum",
    "duration_minutes": 120,
    "rating": 4.0,
    "lat": 41.743856,
    "lon": 123.515151,
    "description": "地址: 浑南东路9号沈阳建筑大学内 | 类别: 科教文化服务;科教文化场所;科教文化场所",
    "city": "沈阳"
  },
  {
    "name": "沈阳龙之梦动物科普乐园",
    "category": "sightseeing",
    "duration_minutes": 120,
    "rating": 4.0,
    "lat": 41.805355,
    "lon": 123.484038,
    "description": "电话: 024-24330777 | 地址: 京东Mall北门7层 | 类别: 风景名胜;风景名胜相关;旅游景点",
    "city": "沈阳"
  },
  {
    "name": "皇姑屯事件博物馆(装修中)",
    "category": "museum",
    "duration_minutes": 120,
    "rating": 4.0,
    "lat": 41.8165,
    "lon": 123.38924,
    "description": "电话: 024-31137790 | 地址: 天山路207号 | 类别: 科教文化服务;博物馆;博物馆",
    "city": "沈阳"
  },
  {
    "name": "建设公园",
    "category": "outdoor",
    "duration_minutes": 120,
    "rating": 4.0,
    "lat": 41.806181,
    "lon": 123.337569,
    "description": "地址: 建设西路 | 类别: 风景名胜;公园广场;公园",
    "city": "沈阳"
  },
  {
    "name": "长白岛森林公园-长白岛动物园",
    "category": "outdoor",
    "duration_minutes": 120,
    "rating": 4.0,
    "lat": 41.7514,
    "lon": 123.387414,
    "description": "地址: 南堤西路 | 类别: 风景名胜;公园广场;动物园",
    "city": "沈阳"
  },
  {
    "name": "九岛湖",
    "category": "outdoor",
    "duration_minutes": 120,
    "rating": 4.0,
    "lat": 41.65789,
    "lon": 123.455597,
    "description": "地址: 创新路与智慧二街交叉口东北160米 | 类别: 风景名胜;风景名胜相关;旅游景点",
    "city": "沈阳"
  },
  {
    "name": "沈阳年轮艺术品博物馆",
    "category": "museum",
    "duration_minutes": 120,
    "rating": 4.0,
    "lat": 41.70393,
    "lon": 123.461871,
    "description": "电话: 024-23995999;15140095479 | 地址: 安纳西月子会所旗舰店南门西南50米 | 类别: 科教文化服务;博物馆;博物馆",
    "city": "沈阳"
  },
  {
    "name": "花间道运动公园",
    "category": "outdoor",
    "duration_minutes": 120,
    "rating": 4.0,
    "lat": 41.833816,
    "lon": 123.620093,
    "description": "地址: 东陵路 | 类别: 风景名胜;公园广场;公园",
    "city": "沈阳"
  },
  {
    "name": "老龙口酒博物馆",
    "category": "museum",
    "duration_minutes": 120,
    "rating": 4.0,
    "lat": 41.806516,
    "lon": 123.479634,
    "description": "地址: 珠林路1号 | 类别: 科教文化服务;博物馆;博物馆",
    "city": "沈阳"
  },
  {
    "name": "沈河体育公园",
    "category": "outdoor",
    "duration_minutes": 120,
    "rating": 4.0,
    "lat": 41.767202,
    "lon": 123.510621,
    "description": "地址: 沈水东路99号 | 类别: 风景名胜;公园广场;公园",
    "city": "沈阳"
  },
  {
    "name": "中心庙",
    "category": "history",
    "duration_minutes": 120,
    "rating": 4.0,
    "lat": 41.799537,
    "lon": 123.456456,
    "description": "地址: 中街地铁站B2口步行460米 | 类别: 风景名胜;风景名胜;寺庙道观",
    "city": "沈阳"
  },
  {
    "name": "地藏寺",
    "category": "history",
    "duration_minutes": 120,
    "rating": 4.0,
    "lat": 41.480357,
    "lon": 123.453366,
    "description": "电话: 024-89512881 | 地址: 大沟乡(三块石) | 类别: 风景名胜;风景名胜;寺庙道观",
    "city": "沈阳"
  },
  {
    "name": "长青公园",
    "category": "outdoor",
    "duration_minutes": 120,
    "rating": 4.0,
    "lat": 41.772306,
    "lon": 123.479084,
    "description": "地址: 泉园二路85号 | 类别: 风景名胜;公园广场;公园",
    "city": "沈阳"
  },
  {
    "name": "沈阳棋盘山国际风景旅游开发区",
    "category": "outdoor",
    "duration_minutes": 120,
    "rating": 4.0,
    "lat": 41.933826,
    "lon": 123.663085,
    "description": "电话: 024-88050627 | 地址: 满堂街道 | 类别: 风景名胜;风景名胜;国家级景点",
    "city": "沈阳"
  },
  {
    "name": "砂山基督教",
    "category": "outdoor",
    "duration_minutes": 120,
    "rating": 4.0,
    "lat": 41.763093,
    "lon": 123.381807,
    "description": "地址: 砂山街69号 | 类别: 风景名胜;风景名胜;教堂",
    "city": "沈阳"
  },
  {
    "name": "莫子山公园游乐场",
    "category": "outdoor",
    "duration_minutes": 120,
    "rating": 4.0,
    "lat": 41.672694,
    "lon": 123.483316,
    "description": "地址: 全运五路91号莫子山公园西门云中食街1号 | 类别: 风景名胜;风景名胜相关;旅游景点",
    "city": "沈阳"
  },
  {
    "name": "沈阳方特欢乐世界(暂停营业)",
    "category": "sightseeing",
    "duration_minutes": 120,
    "rating": 4.0,
    "lat": 41.963758,
    "lon": 123.418956,
    "description": "电话: 4001660006;024-24606666;024-62839279 | 地址: 盛京大街55号 | 类别: 体育休闲服务;休闲场所;游乐场",
    "city": "沈阳"
  },
  {
    "name": "回龙寺",
    "category": "history",
    "duration_minutes": 120,
    "rating": 4.0,
    "lat": 41.834845,
    "lon": 123.379443,
    "description": "电话: 024-86720333 | 地址: 舍利塔滩地公园内(西北角) | 类别: 风景名胜;风景名胜;寺庙道观",
    "city": "沈阳"
  },
  {
    "name": "细河U谷",
    "category": "outdoor",
    "duration_minutes": 120,
    "rating": 4.0,
    "lat": 41.699713,
    "lon": 123.219995,
    "description": "地址: 细河悠谷与四环路辅路交叉口东140米 | 类别: 风景名胜;公园广场;公园|风景名胜;风景名胜;风景名胜",
    "city": "沈阳"
  },
  {
    "name": "山门寺",
    "category": "history",
    "duration_minutes": 120,
    "rating": 4.0,
    "lat": 41.762314,
    "lon": 123.40071,
    "description": "地址: 和平南大街130号(沈水湾公园内) | 类别: 风景名胜;风景名胜;寺庙道观",
    "city": "沈阳"
  },
  {
    "name": "和谐广场",
    "category": "outdoor",
    "duration_minutes": 120,
    "rating": 4.0,
    "lat": 41.792854,
    "lon": 123.291138,
    "description": "地址: 黄海路60号 | 类别: 风景名胜;公园广场;城市广场",
    "city": "沈阳"
  },
  {
    "name": "阿提图美好世界",
    "category": "sightseeing",
    "duration_minutes": 120,
    "rating": 4.0,
    "lat": 41.845246,
    "lon": 123.356584,
    "description": "地址: 丁香东湖公园附近 | 类别: 体育休闲服务;休闲场所;游乐场",
    "city": "沈阳"
  },
  {
    "name": "万泉公园-赵尔巽公馆旧址",
    "category": "history",
    "duration_minutes": 120,
    "rating": 4.0,
    "lat": 41.790043,
    "lon": 123.470258,
    "description": "地址: 万莲街道万泉街1号万泉公园内(西侧) | 类别: 风景名胜;风景名胜;纪念馆",
    "city": "沈阳"
  },
  {
    "name": "汗王宫遗址",
    "category": "history",
    "duration_minutes": 120,
    "rating": 4.0,
    "lat": 41.8042,
    "lon": 123.455589,
    "description": "地址: 北中街路116号中街·盛京龙城西区 | 类别: 风景名胜;风景名胜相关;旅游景点",
    "city": "沈阳"
  },
  {
    "name": "王滨红枫林",
    "category": "sightseeing",
    "duration_minutes": 120,
    "rating": 4.0,
    "lat": 41.706342,
    "lon": 123.750813,
    "description": "地址: 红枫里西侧110米 | 类别: 风景名胜;风景名胜;风景名胜",
    "city": "沈阳"
  },
  {
    "name": "清福陵",
    "category": "sightseeing",
    "duration_minutes": 120,
    "rating": 4.0,
    "lat": 41.83451,
    "lon": 123.589376,
    "description": "电话: 024-88031478 | 地址: 东陵路210号沈阳东陵公园 | 类别: 风景名胜;风景名胜;国家级景点",
    "city": "沈阳"
  },
  {
    "name": "开心童年",
    "category": "sightseeing",
    "duration_minutes": 120,
    "rating": 4.0,
    "lat": 41.805541,
    "lon": 123.370122,
    "description": "地址: 景星北街38号 | 类别: 体育休闲服务;休闲场所;游乐场",
    "city": "沈阳"
  },
  {
    "name": "基督教堂",
    "category": "sightseeing",
    "duration_minutes": 120,
    "rating": 4.0,
    "lat": 41.749239,
    "lon": 123.512297,
    "description": "地址: 学城路11号 | 类别: 风景名胜;风景名胜;教堂",
    "city": "沈阳"
  },
  {
    "name": "沈阳国际泵道公园",
    "category": "outdoor",
    "duration_minutes": 120,
    "rating": 4.0,
    "lat": 41.69657,
    "lon": 123.219736,
    "description": "地址: 中德(沈阳)高端装备制造产业园细河悠谷公园内 | 类别: 风景名胜;公园广场;公园",
    "city": "沈阳"
  },
  {
    "name": "报恩寺",
    "category": "history",
    "duration_minutes": 120,
    "rating": 4.0,
    "lat": 41.836462,
    "lon": 123.59433,
    "description": "电话: 024-66666632;13898863835 | 地址: 古井路与G1501沈阳绕城高速交叉口东陵路210号沈阳市东陵公园 | 类别: 风景名胜;风景名胜;寺庙道观",
    "city": "沈阳"
  },
  {
    "name": "于济川公馆",
    "category": "sightseeing",
    "duration_minutes": 120,
    "rating": 4.0,
    "lat": 41.800645,
    "lon": 123.429,
    "description": "地址: 中山路(欧风街店) | 类别: 风景名胜;风景名胜;风景名胜",
    "city": "沈阳"
  },
  {
    "name": "沈阳天主教堂爱国会",
    "category": "sightseeing",
    "duration_minutes": 120,
    "rating": 4.0,
    "lat": 41.790631,
    "lon": 123.452889,
    "description": "地址: 小南街南乐郊路40号 | 类别: 风景名胜;风景名胜;教堂|政府机构及社会团体;社会团体;教会",
    "city": "沈阳"
  },
  {
    "name": "水秀湖广场",
    "category": "outdoor",
    "duration_minutes": 120,
    "rating": 4.0,
    "lat": 41.669321,
    "lon": 123.455777,
    "description": "地址: 智慧二街莫子山路中央公园 | 类别: 风景名胜;公园广场;城市广场",
    "city": "沈阳"
  },
  {
    "name": "喜虫天将昆虫博物馆(太原街店)",
    "category": "museum",
    "duration_minutes": 120,
    "rating": 4.0,
    "lat": 41.792791,
    "lon": 123.402221,
    "description": "电话: 15184114379 | 地址: 玖伍文化城4层 | 类别: 科教文化服务;博物馆;博物馆",
    "city": "沈阳"
  },
  {
    "name": "陨石山森林公园",
    "category": "outdoor",
    "duration_minutes": 120,
    "rating": 4.0,
    "lat": 41.61138,
    "lon": 123.664844,
    "description": "地址: 李相街道滑石台村 | 类别: 风景名胜;风景名胜;风景名胜",
    "city": "沈阳"
  },
  {
    "name": "虎石台公园",
    "category": "outdoor",
    "duration_minutes": 120,
    "rating": 4.0,
    "lat": 41.942174,
    "lon": 123.515028,
    "description": "地址: 建设路与兴明街交叉口西南240米 | 类别: 风景名胜;公园广场;公园",
    "city": "沈阳"
  },
  {
    "name": "龙之梦冰雪世界",
    "category": "sightseeing",
    "duration_minutes": 120,
    "rating": 4.0,
    "lat": 41.808075,
    "lon": 123.484025,
    "description": "地址: 滂江街24号龙之梦Super时尚奥莱7楼(地铁1号线/10号线滂江街站) | 类别: 体育休闲服务;体育休闲服务场所;体育休闲服务场所",
    "city": "沈阳"
  },
  {
    "name": "大佛寺",
    "category": "history",
    "duration_minutes": 120,
    "rating": 4.0,
    "lat": 41.784544,
    "lon": 123.459713,
    "description": "电话: 024-24804423 | 地址: 大南街三段慈恩寺巷14号 | 类别: 风景名胜;风景名胜;寺庙道观",
    "city": "沈阳"
  },
  {
    "name": "鲁迅儿童公园",
    "category": "outdoor",
    "duration_minutes": 120,
    "rating": 4.0,
    "lat": 41.776498,
    "lon": 123.423449,
    "description": "电话: 024-23892744 | 地址: 文艺路2号方形广场(近东北设计院) | 类别: 风景名胜;公园广场;公园",
    "city": "沈阳"
  },
  {
    "name": "大东广场",
    "category": "outdoor",
    "duration_minutes": 120,
    "rating": 4.0,
    "lat": 41.818709,
    "lon": 123.463848,
    "description": "地址: 大北关街36-1号 | 类别: 风景名胜;公园广场;城市广场",
    "city": "沈阳"
  },
  {
    "name": "辽宁雪豹军事主题乐园(暂停开放)",
    "category": "sightseeing",
    "duration_minutes": 120,
    "rating": 4.0,
    "lat": 41.603933,
    "lon": 123.505144,
    "description": "地址: 鲍佟线 | 类别: 风景名胜;风景名胜相关;旅游景点",
    "city": "沈阳"
  },
  {
    "name": "大羊安基督教堂",
    "category": "sightseeing",
    "duration_minutes": 120,
    "rating": 4.0,
    "lat": 41.650062,
    "lon": 123.398029,
    "description": "地址: 白塔镇大羊安村 | 类别: 风景名胜;风景名胜;教堂",
    "city": "沈阳"
  },
  {
    "name": "辽宁总站(不对外开放)",
    "category": "sightseeing",
    "duration_minutes": 120,
    "rating": 4.0,
    "lat": 41.810899,
    "lon": 123.426776,
    "description": "地址: 总站路100号 | 类别: 风景名胜;风景名胜;省级景点",
    "city": "沈阳"
  },
  {
    "name": "国王湖",
    "category": "outdoor",
    "duration_minutes": 120,
    "rating": 4.0,
    "lat": 41.868101,
    "lon": 123.662973,
    "description": "电话: 024-85859999 | 地址: 棋盘山世博园东墙外 | 类别: 商务住宅;住宅区;别墅",
    "city": "沈阳"
  },
  {
    "name": "沈阳海洋探索中心",
    "category": "outdoor",
    "duration_minutes": 120,
    "rating": 4.0,
    "lat": 41.749841,
    "lon": 123.437417,
    "description": "电话: 024-31954000 | 地址: 博览路2甲1号沈阳K11 Select购物艺术中心L3层 | 类别: 体育休闲服务;休闲场所;休闲场所",
    "city": "沈阳"
  },
  {
    "name": "东陵-郊野公园",
    "category": "outdoor",
    "duration_minutes": 120,
    "rating": 4.0,
    "lat": 41.829957,
    "lon": 123.593075,
    "description": "地址: 东陵路沈阳东陵公园(东陵公园地铁站A口步行220米) | 类别: 风景名胜;公园广场;公园",
    "city": "沈阳"
  },
  {
    "name": "皇姑屯事件发生地",
    "category": "sightseeing",
    "duration_minutes": 120,
    "rating": 4.0,
    "lat": 41.811749,
    "lon": 123.409556,
    "description": "地址: 东西快速干道辅路 | 类别: 风景名胜;风景名胜;风景名胜",
    "city": "沈阳"
  },
  {
    "name": "沈阳森林动物园",
    "category": "outdoor",
    "duration_minutes": 120,
    "rating": 4.0,
    "lat": 41.928501,
    "lon": 123.68408,
    "description": "电话: 024-88050366 | 地址: 棋盘山国际风景旅游区内 | 类别: 风景名胜;公园广场;动物园",
    "city": "沈阳"
  },
  {
    "name": "喜羊羊亲子乐园(暂停营业)",
    "category": "sightseeing",
    "duration_minutes": 120,
    "rating": 4.0,
    "lat": 41.855304,
    "lon": 123.495155,
    "description": "电话: 13314005376 | 地址: 榆林南路31号 | 类别: 体育休闲服务;休闲场所;游乐场",
    "city": "沈阳"
  },
  {
    "name": "沈阳故宫广场",
    "category": "outdoor",
    "duration_minutes": 120,
    "rating": 4.0,
    "lat": 41.796939,
    "lon": 123.456834,
    "description": "地址: 沈阳路171号 | 类别: 风景名胜;公园广场;公园广场",
    "city": "沈阳"
  },
  {
    "name": "海洋之约",
    "category": "outdoor",
    "duration_minutes": 120,
    "rating": 4.0,
    "lat": 41.754027,
    "lon": 123.501283,
    "description": "地址: 长青街77号 | 类别: 风景名胜;公园广场;公园",
    "city": "沈阳"
  },
  {
    "name": "集酷探险岛(长白岛店)(暂停营业)",
    "category": "sightseeing",
    "duration_minutes": 120,
    "rating": 4.0,
    "lat": 41.755974,
    "lon": 123.394849,
    "description": "电话: 18240357733 | 地址: 南京南街214号 | 类别: 体育休闲服务;休闲场所;游乐场",
    "city": "沈阳"
  },
  {
    "name": "领事馆绿地",
    "category": "outdoor",
    "duration_minutes": 120,
    "rating": 4.0,
    "lat": 41.78486,
    "lon": 123.425481,
    "description": "地址: 十三纬路与荣生街交叉口东南80米 | 类别: 风景名胜;公园广场;公园",
    "city": "沈阳"
  },
  {
    "name": "中山广场-毛泽东雕像",
    "category": "outdoor",
    "duration_minutes": 120,
    "rating": 4.0,
    "lat": 41.796952,
    "lon": 123.410682,
    "description": "地址: 太原街街道太原街街道开封街3号巷中山广场 | 类别: 风景名胜;风景名胜相关;旅游景点",
    "city": "沈阳"
  },
  {
    "name": "砂山公园",
    "category": "outdoor",
    "duration_minutes": 120,
    "rating": 4.0,
    "lat": 41.770501,
    "lon": 123.389266,
    "description": "电话: 024-23371426 | 地址: 南京南街182号(隆轩御宫) | 类别: 风景名胜;公园广场;公园",
    "city": "沈阳"
  },
  {
    "name": "欢腾王国",
    "category": "sightseeing",
    "duration_minutes": 120,
    "rating": 4.0,
    "lat": 41.805888,
    "lon": 123.370348,
    "description": "电话: 024-23450001 | 地址: 景星北街38号 | 类别: 体育休闲服务;休闲场所;游乐场",
    "city": "沈阳"
  },
  {
    "name": "于洪怒江公园",
    "category": "outdoor",
    "duration_minutes": 120,
    "rating": 4.0,
    "lat": 41.840406,
    "lon": 123.392064,
    "description": "地址: 陵西街近河巷9-1号(怒江公园地铁站D口步行220米) | 类别: 风景名胜;公园广场;公园",
    "city": "沈阳"
  },
  {
    "name": "沈阳故宫-武功坊",
    "category": "history",
    "duration_minutes": 120,
    "rating": 4.0,
    "lat": 41.797641,
    "lon": 123.455186,
    "description": "电话: 024-24843001 | 地址: 皇城街道沈阳路171号沈阳故宫内(西南角) | 类别: 风景名胜;风景名胜相关;旅游景点",
    "city": "沈阳"
  },
  {
    "name": "怡静园",
    "category": "outdoor",
    "duration_minutes": 120,
    "rating": 4.0,
    "lat": 41.774671,
    "lon": 123.46039,
    "description": "地址: 文艺路97号 | 类别: 风景名胜;公园广场;公园",
    "city": "沈阳"
  },
  {
    "name": "水秀湖广场-中央公园",
    "category": "outdoor",
    "duration_minutes": 120,
    "rating": 4.0,
    "lat": 41.670492,
    "lon": 123.455984,
    "description": "地址: 水秀湖广场内(北侧) | 类别: 风景名胜;公园广场;公园",
    "city": "沈阳"
  },
  {
    "name": "红枫岛",
    "category": "sightseeing",
    "duration_minutes": 120,
    "rating": 4.0,
    "lat": 41.66034,
    "lon": 123.457866,
    "description": "地址: 智慧三街与创新路交叉口北380米 | 类别: 风景名胜;风景名胜;风景名胜",
    "city": "沈阳"
  },
  {
    "name": "清河半岛温泉",
    "category": "sightseeing",
    "duration_minutes": 120,
    "rating": 4.0,
    "lat": 41.936661,
    "lon": 123.432656,
    "description": "电话: 024-31853777;024-31853999 | 地址: 蒲南路20号 | 类别: 生活服务;洗浴推拿场所;洗浴推拿场所",
    "city": "沈阳"
  },
  {
    "name": "五里河公园-秦开广场",
    "category": "outdoor",
    "duration_minutes": 120,
    "rating": 4.0,
    "lat": 41.758362,
    "lon": 123.455343,
    "description": "地址: 沈水路 | 类别: 风景名胜;公园广场;公园广场",
    "city": "沈阳"
  },
  {
    "name": "护国广慈寺",
    "category": "history",
    "duration_minutes": 120,
    "rating": 4.0,
    "lat": 41.766462,
    "lon": 123.451627,
    "description": "电话: 024-24513455 | 地址: 南塔街71号 | 类别: 风景名胜;风景名胜;寺庙道观",
    "city": "沈阳"
  },
  {
    "name": "GIGGLE顽笑潮流运动工厂",
    "category": "sightseeing",
    "duration_minutes": 120,
    "rating": 4.0,
    "lat": 41.912117,
    "lon": 123.427904,
    "description": "电话: 024-89221122 | 地址: 七星大街6-1号 | 类别: 体育休闲服务;体育休闲服务场所;体育休闲服务场所",
    "city": "沈阳"
  },
  {
    "name": "胡古泉",
    "category": "sightseeing",
    "duration_minutes": 120,
    "rating": 4.0,
    "lat": 41.529612,
    "lon": 123.452315,
    "description": "地址: 绿柏街 | 类别: 风景名胜;风景名胜;风景名胜",
    "city": "沈阳"
  },
  {
    "name": "沈阳劳动模范纪念馆",
    "category": "history",
    "duration_minutes": 120,
    "rating": 4.0,
    "lat": 41.804877,
    "lon": 123.442184,
    "description": "电话: 024-22565883 | 地址: 市府大路沈阳职工之家大楼内 | 类别: 风景名胜;风景名胜;纪念馆",
    "city": "沈阳"
  },
  {
    "name": "大东公园",
    "category": "outdoor",
    "duration_minutes": 120,
    "rating": 4.0,
    "lat": 41.795624,
    "lon": 123.496295,
    "description": "电话: 024-24830930 | 地址: 长安路85号 | 类别: 风景名胜;公园广场;公园",
    "city": "沈阳"
  },
  {
    "name": "碧岚公园",
    "category": "outdoor",
    "duration_minutes": 120,
    "rating": 4.0,
    "lat": 41.830295,
    "lon": 123.53003,
    "description": "地址: 高官台路与高官台街辅路交叉口北300米 | 类别: 风景名胜;公园广场;公园",
    "city": "沈阳"
  },
  {
    "name": "沈阳故宫观景台(暂停开放)",
    "category": "history",
    "duration_minutes": 120,
    "rating": 4.0,
    "lat": 41.799836,
    "lon": 123.4549,
    "description": "地址: 盛京大家庭4层 | 类别: 风景名胜;风景名胜;风景名胜",
    "city": "沈阳"
  },
  {
    "name": "中兴文化广场",
    "category": "outdoor",
    "duration_minutes": 120,
    "rating": 4.0,
    "lat": 41.682482,
    "lon": 123.376759,
    "description": "地址: 蕙兰五街 | 类别: 风景名胜;公园广场;城市广场",
    "city": "沈阳"
  },
  {
    "name": "沈阳灰色博物馆",
    "category": "museum",
    "duration_minutes": 120,
    "rating": 4.0,
    "lat": 41.802222,
    "lon": 123.465341,
    "description": "电话: 13614004981 | 地址: 小东路1号中街新玛特商场7层 | 类别: 科教文化服务;科教文化场所;科教文化场所",
    "city": "沈阳"
  },
  {
    "name": "星寓广场",
    "category": "sightseeing",
    "duration_minutes": 120,
    "rating": 4.0,
    "lat": 41.703116,
    "lon": 123.471435,
    "description": "地址: 沈本大街与双深路交叉口南120米 | 类别: 商务住宅;商务住宅相关;商务住宅相关",
    "city": "沈阳"
  },
  {
    "name": "蒸汽机车博物馆",
    "category": "museum",
    "duration_minutes": 120,
    "rating": 4.0,
    "lat": 41.682626,
    "lon": 123.362666,
    "description": "地址: 山丹街8号 | 类别: 科教文化服务;科教文化场所;科教文化场所",
    "city": "沈阳"
  },
  {
    "name": "沈阳·中兴恐龙博物馆",
    "category": "museum",
    "duration_minutes": 120,
    "rating": 4.0,
    "lat": 41.792835,
    "lon": 123.40062,
    "description": "地址: 太原北街86号中兴-沈阳商业大厦F7层 | 类别: 科教文化服务;科教文化场所;科教文化场所",
    "city": "沈阳"
  }
]