[
  {
    "name": "成都金融城双子塔",
    "category": "history",
    "duration_minutes": 120,
    "rating": 4.0,
    "lat": 30.582588,
    "lon": 104.064759,
    "description": "地址: 交子北一路与交子大道交叉口60米 | 类别: 商务住宅;楼宇;商务写字楼",
    "city": "成都"
  },
  {
    "name": "锦城公园",
    "category": "outdoor",
    "duration_minutes": 120,
    "rating": 4.0,
    "lat": 30.570449,
    "lon": 104.052308,
    "description": "地址: 益州大道北段1666号 | 类别: 风景名胜;公园广场;公园",
    "city": "成都"
  },
  {
    "name": "桂溪生态公园",
    "category": "outdoor",
    "duration_minutes": 120,
    "rating": 4.0,
    "lat": 30.563054,
    "lon": 104.067314,
    "description": "地址: 天府一街附近 | 类别: 风景名胜;公园广场;公园",
    "city": "成都"
  },
  {
    "name": "生机之塔",
    "category": "history",
    "duration_minutes": 120,
    "rating": 4.0,
    "lat": 30.566902,
    "lon": 104.070337,
    "description": "地址: G4202成都绕城高速与濯锦立交桥交叉口北120米 | 类别: 风景名胜;风景名胜;风景名胜",
    "city": "成都"
  },
  {
    "name": "交子公园",
    "category": "outdoor",
    "duration_minutes": 120,
    "rating": 4.0,
    "lat": 30.582568,
    "lon": 104.072828,
    "description": "地址: 天府大道北段 | 类别: 风景名胜;公园广场;公园",
    "city": "成都"
  },
  {
    "name": "铁像寺水街",
    "category": "sightseeing",
    "duration_minutes": 120,
    "rating": 4.0,
    "lat": 30.5575,
    "lon": 104.049709,
    "description": "电话: 028-65292065 | 地址: 铁像寺路88号 | 类别: 风景名胜;风景名胜;国家级景点",
    "city": "成都"
  },
  {
    "name": "双子塔夜景打卡点",
    "category": "history",
    "duration_minutes": 120,
    "rating": 4.0,
    "lat": 30.582369,
    "lon": 104.060512,
    "description": "地址: 交子大道与益州大道北段交叉口东40米 | 类别: 风景名胜;风景名胜;风景名胜",
    "city": "成都"
  },
  {
    "name": "天府绿道",
    "category": "sightseeing",
    "duration_minutes": 120,
    "rating": 4.0,
    "lat": 30.56275,
    "lon": 104.076812,
    "description": "地址: 益州大道中段694号 | 类别: 风景名胜;风景名胜;风景名胜",
    "city": "成都"
  },
  {
    "name": "大源中央公园",
    "category": "outdoor",
    "duration_minutes": 120,
    "rating": 4.0,
    "lat": 30.549059,
    "lon": 104.049182,
    "description": "电话: 13281029115 | 地址: 成都高新区天府二街777号(大源地铁站D口旁) | 类别: 风景名胜;公园广场;公园",
    "city": "成都"
  },
  {
    "name": "桂溪生态公园西区",
    "category": "outdoor",
    "duration_minutes": 120,
    "rating": 4.0,
    "lat": 30.562903,
    "lon": 104.062735,
    "description": "地址: 天府一街桂溪生态公园(西侧) | 类别: 风景名胜;公园广场;公园",
    "city": "成都"
  },
  {
    "name": "中和湿地公园",
    "category": "outdoor",
    "duration_minutes": 120,
    "rating": 4.0,
    "lat": 30.565879,
    "lon": 104.095422,
    "description": "地址: 朝阳横街北50米 | 类别: 风景名胜;公园广场;公园",
    "city": "成都"
  },
  {
    "name": "铁像寺",
    "category": "history",
    "duration_minutes": 120,
    "rating": 4.0,
    "lat": 30.557092,
    "lon": 104.049006,
    "description": "电话: 028-85323576;028-86036140 | 地址: 铁像寺路66号 | 类别: 风景名胜;风景名胜;寺庙道观",
    "city": "成都"
  },
  {
    "name": "成都江滩公园",
    "category": "outdoor",
    "duration_minutes": 120,
    "rating": 4.0,
    "lat": 30.555514,
    "lon": 104.080905,
    "description": "地址: 世纪城路 | 类别: 风景名胜;公园广场;公园",
    "city": "成都"
  },
  {
    "name": "春熙路",
    "category": "sightseeing",
    "duration_minutes": 120,
    "rating": 4.0,
    "lat": 30.655544,
    "lon": 104.077774,
    "description": "地址: 春熙路街道 | 类别: 购物服务;特色商业街;特色商业街",
    "city": "成都"
  },
  {
    "name": "UPARK公园",
    "category": "outdoor",
    "duration_minutes": 120,
    "rating": 4.0,
    "lat": 30.554564,
    "lon": 104.039721,
    "description": "电话: 028-83235307;028-87675877 | 地址: 富华北路666号 | 类别: 购物服务;购物相关场所;购物相关场所",
    "city": "成都"
  },
  {
    "name": "桂溪生态公园东区",
    "category": "outdoor",
    "duration_minutes": 120,
    "rating": 4.0,
    "lat": 30.563249,
    "lon": 104.073417,
    "description": "地址: 世纪城东路9号(四川电视台对面) | 类别: 风景名胜;风景名胜相关;旅游景点",
    "city": "成都"
  },
  {
    "name": "环球中心海洋乐园",
    "category": "outdoor",
    "duration_minutes": 120,
    "rating": 4.0,
    "lat": 30.569822,
    "lon": 104.062862,
    "description": "电话: 028-62732012;028-62732999 | 地址: 天府大道北段1700号新世纪环球中心1层 | 类别: 体育休闲服务;休闲场所;水上活动中心",
    "city": "成都"
  },
  {
    "name": "东湖公园",
    "category": "outdoor",
    "duration_minutes": 120,
    "rating": 4.0,
    "lat": 30.616051,
    "lon": 104.087899,
    "description": "电话: 028-85568847 | 地址: 二环路东五段301号(东湖公园地铁站A口旁) | 类别: 风景名胜;公园广场;公园",
    "city": "成都"
  },
  {
    "name": "交子之环",
    "category": "sightseeing",
    "duration_minutes": 120,
    "rating": 4.0,
    "lat": 30.581982,
    "lon": 104.059498,
    "description": "地址: 交子大道177号中海国际中心 | 类别: 风景名胜;风景名胜;风景名胜",
    "city": "成都"
  },
  {
    "name": "白鹭湾湿地公园",
    "category": "outdoor",
    "duration_minutes": 120,
    "rating": 4.0,
    "lat": 30.568151,
    "lon": 104.136926,
    "description": "地址: 湿地路 | 类别: 风景名胜;公园广场;公园",
    "city": "成都"
  },
  {
    "name": "环球中心东广场",
    "category": "sightseeing",
    "duration_minutes": 120,
    "rating": 4.0,
    "lat": 30.569188,
    "lon": 104.065771,
    "description": "地址: 锦悦西路与天府大道北段辅路交叉口西南380米 | 类别: 风景名胜;风景名胜;风景名胜",
    "city": "成都"
  },
  {
    "name": "三圣花乡旅游区",
    "category": "sightseeing",
    "duration_minutes": 120,
    "rating": 4.0,
    "lat": 30.571996,
    "lon": 104.13371,
    "description": "电话: 028-84676767;028-84678221 | 类别: 风景名胜;风景名胜;国家级景点",
    "city": "成都"
  },
  {
    "name": "望江楼公园",
    "category": "outdoor",
    "duration_minutes": 120,
    "rating": 4.0,
    "lat": 30.629277,
    "lon": 104.092217,
    "description": "电话: 028-85223389 | 地址: 望江路30号 | 类别: 风景名胜;公园广场;公园",
    "city": "成都"
  },
  {
    "name": "成都武侯祠博物馆",
    "category": "museum",
    "duration_minutes": 120,
    "rating": 4.0,
    "lat": 30.646168,
    "lon": 104.047992,
    "description": "电话: 028-85535951 | 地址: 武侯祠大街231号 | 类别: 科教文化服务;博物馆;博物馆",
    "city": "成都"
  },
  {
    "name": "成都SKP中央大台阶",
    "category": "sightseeing",
    "duration_minutes": 120,
    "rating": 4.0,
    "lat": 30.568953,
    "lon": 104.069616,
    "description": "地址: 天府大道1600号(锦城广场东地铁站A口步行80米) | 类别: 风景名胜;风景名胜相关;旅游景点",
    "city": "成都"
  },
  {
    "name": "锦城湖4号公园",
    "category": "outdoor",
    "duration_minutes": 120,
    "rating": 4.0,
    "lat": 30.565324,
    "lon": 104.051545,
    "description": "地址: 锦城湖立交附近 | 类别: 风景名胜;公园广场;公园",
    "city": "成都"
  },
  {
    "name": "交子金融博物馆",
    "category": "museum",
    "duration_minutes": 120,
    "rating": 4.0,
    "lat": 30.582839,
    "lon": 104.076625,
    "description": "电话: 028-60106006 | 地址: 桂溪街道锦云东二巷 | 类别: 科教文化服务;博物馆;博物馆",
    "city": "成都"
  },
  {
    "name": "宽窄巷子景区",
    "category": "sightseeing",
    "duration_minutes": 120,
    "rating": 4.0,
    "lat": 30.663869,
    "lon": 104.053307,
    "description": "电话: 028-86259233;15228966399;+861056320612,16151776 | 地址: 栅子街捷隆公寓(宽窄巷子地铁站B口步行60米) | 类别: 购物服务;特色商业街;特色商业街|风景名胜;风景名胜相关;旅游景点",
    "city": "成都"
  },
  {
    "name": "人民公园",
    "category": "outdoor",
    "duration_minutes": 120,
    "rating": 4.0,
    "lat": 30.65699,
    "lon": 104.057641,
    "description": "电话: 028-86132021 | 地址: 小南街8号(人民公园地铁站B口步行250米) | 类别: 风景名胜;风景名胜;国家级景点",
    "city": "成都"
  },
  {
    "name": "锦城湖2号湖区",
    "category": "outdoor",
    "duration_minutes": 120,
    "rating": 4.0,
    "lat": 30.574282,
    "lon": 104.043112,
    "description": "地址: 锦城大道1333号锦城湖内(东侧) | 类别: 风景名胜;公园广场;公园",
    "city": "成都"
  },
  {
    "name": "近慈寺",
    "category": "history",
    "duration_minutes": 120,
    "rating": 4.0,
    "lat": 30.574105,
    "lon": 104.047054,
    "description": "地址: 剑南大道北段899号 | 类别: 风景名胜;风景名胜;寺庙道观",
    "city": "成都"
  },
  {
    "name": "东郊记忆",
    "category": "sightseeing",
    "duration_minutes": 120,
    "rating": 4.0,
    "lat": 30.668697,
    "lon": 104.122906,
    "description": "电话: 028-84121347 | 地址: 跳蹬河街道建设南支路1号 | 类别: 风景名胜;风景名胜;国家级景点",
    "city": "成都"
  },
  {
    "name": "天府广场",
    "category": "outdoor",
    "duration_minutes": 120,
    "rating": 4.0,
    "lat": 30.657401,
    "lon": 104.065861,
    "description": "地址: 人民南路一段86号(天府广场地铁站出入口步行50米) | 类别: 风景名胜;公园广场;城市广场",
    "city": "成都"
  },
  {
    "name": "锦江公园",
    "category": "outdoor",
    "duration_minutes": 120,
    "rating": 4.0,
    "lat": 30.588508,
    "lon": 104.079753,
    "description": "地址: 锦江大道与科华南路辅路交叉口东140米 | 类别: 风景名胜;公园广场;公园",
    "city": "成都"
  },
  {
    "name": "成都桂溪公园骑行起点",
    "category": "outdoor",
    "duration_minutes": 120,
    "rating": 4.0,
    "lat": 30.564468,
    "lon": 104.066354,
    "description": "地址: 桂溪生态公园附近 | 类别: 风景名胜;风景名胜相关;旅游景点",
    "city": "成都"
  },
  {
    "name": "江家艺苑",
    "category": "outdoor",
    "duration_minutes": 120,
    "rating": 4.0,
    "lat": 30.575931,
    "lon": 104.124284,
    "description": "电话: 028-84093509;15181268001 | 地址: 幸福路163号 | 类别: 风景名胜;风景名胜;风景名胜|体育休闲服务;体育休闲服务场所;体育休闲服务场所",
    "city": "成都"
  },
  {
    "name": "南湖公园",
    "category": "outdoor",
    "duration_minutes": 120,
    "rating": 4.0,
    "lat": 30.499433,
    "lon": 104.047924,
    "description": "电话: 17628020618 | 地址: 华阳街道南湖北路与南湖东路交叉路口东北角 | 类别: 风景名胜;公园广场;公园",
    "city": "成都"
  },
  {
    "name": "三和老爷车博物馆",
    "category": "museum",
    "duration_minutes": 120,
    "rating": 4.0,
    "lat": 30.597103,
    "lon": 104.04128,
    "description": "电话: 028-86051188;18628018878 | 地址: 机场路新加坡工业园区新园南一路2号 | 类别: 科教文化服务;博物馆;博物馆",
    "city": "成都"
  },
  {
    "name": "文殊院",
    "category": "history",
    "duration_minutes": 120,
    "rating": 4.0,
    "lat": 30.675418,
    "lon": 104.072527,
    "description": "电话: 028-86930623;028-86932375 | 地址: 文殊院街66号(文殊院地铁站K口步行400米) | 类别: 风景名胜;风景名胜;寺庙道观",
    "city": "成都"
  },
  {
    "name": "成都博物馆",
    "category": "museum",
    "duration_minutes": 120,
    "rating": 4.0,
    "lat": 30.657297,
    "lon": 104.063749,
    "description": "电话: 028-68277011 | 地址: 小河街1号 | 类别: 科教文化服务;博物馆;博物馆",
    "city": "成都"
  },
  {
    "name": "基督教光音堂",
    "category": "sightseeing",
    "duration_minutes": 120,
    "rating": 4.0,
    "lat": 30.56084,
    "lon": 104.049037,
    "description": "电话: 028-85179217 | 地址: 天府一街888号 | 类别: 风景名胜;风景名胜;教堂",
    "city": "成都"
  },
  {
    "name": "天府芙蓉园",
    "category": "sightseeing",
    "duration_minutes": 120,
    "rating": 4.0,
    "lat": 30.591603,
    "lon": 103.985809,
    "description": "电话: 028-60196216 | 地址: 簇马路一段69号 | 类别: 风景名胜;风景名胜;风景名胜",
    "city": "成都"
  },
  {
    "name": "西蜀廊桥古镇",
    "category": "history",
    "duration_minutes": 120,
    "rating": 4.0,
    "lat": 30.558344,
    "lon": 104.072992,
    "description": "地址: 桂溪街道成都市高新区世纪城路166号附280号 | 类别: 风景名胜;风景名胜;风景名胜|餐饮服务;中餐厅;中餐厅",
    "city": "成都"
  },
  {
    "name": "美洲四季滑雪场",
    "category": "sightseeing",
    "duration_minutes": 120,
    "rating": 4.0,
    "lat": 30.577959,
    "lon": 104.031617,
    "description": "电话: 028-65565977 | 地址: 高新区锦城大道1999号 | 类别: 体育休闲服务;运动场馆;滑雪场",
    "city": "成都"
  },
  {
    "name": "海合安成都极地海洋公园",
    "category": "outdoor",
    "duration_minutes": 120,
    "rating": 4.0,
    "lat": 30.49487,
    "lon": 104.073287,
    "description": "电话: 028-66588888 | 地址: 天府新区海洋路68号 | 类别: 风景名胜;公园广场;水族馆",
    "city": "成都"
  },
  {
    "name": "塔子山公园",
    "category": "outdoor",
    "duration_minutes": 120,
    "rating": 4.0,
    "lat": 30.6344,
    "lon": 104.124023,
    "description": "地址: 迎晖路222号(塔子山公园地铁站D口步行293米) | 类别: 风景名胜;公园广场;公园",
    "city": "成都"
  },
  {
    "name": "立巢航空博物馆",
    "category": "museum",
    "duration_minutes": 120,
    "rating": 4.0,
    "lat": 30.569163,
    "lon": 104.060695,
    "description": "电话: 4009950315 | 地址: 天府大道1700号环球中心D馆 | 类别: 科教文化服务;博物馆;博物馆",
    "city": "成都"
  },
  {
    "name": "幸福梅林",
    "category": "sightseeing",
    "duration_minutes": 120,
    "rating": 4.0,
    "lat": 30.58435,
    "lon": 104.136296,
    "description": "电话: 028-84676767;13540635983 | 地址: 锦江大道 | 类别: 风景名胜;风景名胜;国家级景点",
    "city": "成都"
  },
  {
    "name": "锦城广场",
    "category": "outdoor",
    "duration_minutes": 120,
    "rating": 4.0,
    "lat": 30.56891,
    "lon": 104.068,
    "description": "地址: 天府大道北段1656号 | 类别: 风景名胜;公园广场;城市广场",
    "city": "成都"
  },
  {
    "name": "锦江体育公园",
    "category": "outdoor",
    "duration_minutes": 120,
    "rating": 4.0,
    "lat": 30.59777,
    "lon": 104.112881,
    "description": "地址: 委党校斜对面 | 类别: 风景名胜;公园广场;公园",
    "city": "成都"
  },
  {
    "name": "和平社区广场",
    "category": "outdoor",
    "duration_minutes": 120,
    "rating": 4.0,
    "lat": 30.603539,
    "lon": 104.073147,
    "description": "地址: 天仁北一街与天和路交汇处西北50米 | 类别: 风景名胜;公园广场;城市广场",
    "city": "成都"
  },
  {
    "name": "新川之心公园",
    "category": "outdoor",
    "duration_minutes": 120,
    "rating": 4.0,
    "lat": 30.512549,
    "lon": 104.091046,
    "description": "地址: 高新区新川之心公园内侧园中园 | 类别: 风景名胜;公园广场;公园",
    "city": "成都"
  },
  {
    "name": "桂龙公园",
    "category": "outdoor",
    "duration_minutes": 120,
    "rating": 4.0,
    "lat": 30.54433,
    "lon": 104.074301,
    "description": "地址: 复城国际T2 | 类别: 风景名胜;公园广场;公园",
    "city": "成都"
  },
  {
    "name": "成都大熊猫繁育研究基地",
    "category": "sightseeing",
    "duration_minutes": 120,
    "rating": 4.0,
    "lat": 30.740573,
    "lon": 104.138176,
    "description": "电话: 028-83510033 | 地址: 熊猫大道1375号 | 类别: 风景名胜;风景名胜;国家级景点",
    "city": "成都"
  },
  {
    "name": "大慈寺",
    "category": "history",
    "duration_minutes": 120,
    "rating": 4.0,
    "lat": 30.654243,
    "lon": 104.083791,
    "description": "电话: 028-86658341 | 地址: 大慈寺路21-23号(春熙路地铁站C口步行360米) | 类别: 风景名胜;风景名胜;寺庙道观",
    "city": "成都"
  },
  {
    "name": "月牙湖",
    "category": "outdoor",
    "duration_minutes": 120,
    "rating": 4.0,
    "lat": 30.557341,
    "lon": 104.059049,
    "description": "地址: 桂溪街道吉庆一路与吉瑞一路交汇处东南角 | 类别: 风景名胜;公园广场;公园",
    "city": "成都"
  },
  {
    "name": "梵木Flying国际文创公园",
    "category": "outdoor",
    "duration_minutes": 120,
    "rating": 4.0,
    "lat": 30.606688,
    "lon": 104.02561,
    "description": "电话: 15680863982;19180639927 | 地址: 太平寺西路3号 | 类别: 商务住宅;产业园区;产业园区",
    "city": "成都"
  },
  {
    "name": "成都杜甫草堂博物馆",
    "category": "museum",
    "duration_minutes": 120,
    "rating": 4.0,
    "lat": 30.660153,
    "lon": 104.028514,
    "description": "电话: 028-68921800;028-87345202;028-87327392 | 地址: 青华路37号 | 类别: 科教文化服务;博物馆;博物馆",
    "city": "成都"
  },
  {
    "name": "新川之心公园东区",
    "category": "outdoor",
    "duration_minutes": 120,
    "rating": 4.0,
    "lat": 30.512035,
    "lon": 104.094231,
    "description": "地址: 高新区锦和路与新裕路交汇处 | 类别: 风景名胜;风景名胜相关;旅游景点",
    "city": "成都"
  },
  {
    "name": "浓园国际艺术村",
    "category": "sightseeing",
    "duration_minutes": 120,
    "rating": 4.0,
    "lat": 30.586479,
    "lon": 103.987174,
    "description": "电话: 028-85023618;028-85013668;13183834367 | 地址: 簇桥武侯大道新苗村5组 | 类别: 风景名胜;风景名胜;风景名胜|体育休闲服务;休闲场所;休闲场所|商务住宅;产业园区;产业园区",
    "city": "成都"
  },
  {
    "name": "哥谭广场",
    "category": "sightseeing",
    "duration_minutes": 120,
    "rating": 4.0,
    "lat": 30.557769,
    "lon": 104.056296,
    "description": "电话: 13458659728 | 地址: 盛安街与益州大道中段交叉口西南40米 | 类别: 商务住宅;商务住宅相关;商务住宅相关",
    "city": "成都"
  },
  {
    "name": "成都动物园",
    "category": "outdoor",
    "duration_minutes": 120,
    "rating": 4.0,
    "lat": 30.710131,
    "lon": 104.106009,
    "description": "电话: 028-83516651 | 地址: 昭觉寺南路234号(动物园地铁站A口步行460米) | 类别: 风景名胜;公园广场;动物园",
    "city": "成都"
  },
  {
    "name": "4号湖入口广场",
    "category": "outdoor",
    "duration_minutes": 120,
    "rating": 4.0,
    "lat": 30.56636,
    "lon": 104.050021,
    "description": "地址: 蒙彼利埃小学 | 类别: 风景名胜;公园广场;城市广场",
    "city": "成都"
  },
  {
    "name": "青羊宫",
    "category": "history",
    "duration_minutes": 120,
    "rating": 4.0,
    "lat": 30.661542,
    "lon": 104.042609,
    "description": "电话: 028-87766584 | 地址: 一环路西二段9号(青羊宫地铁站C口向后步行90米) | 类别: 风景名胜;风景名胜;寺庙道观",
    "city": "成都"
  },
  {
    "name": "浣花溪公园",
    "category": "outdoor",
    "duration_minutes": 120,
    "rating": 4.0,
    "lat": 30.657467,
    "lon": 104.029022,
    "description": "电话: 028-87384099 | 地址: 草堂街道青华路9号(近杜甫草堂) | 类别: 风景名胜;公园广场;公园",
    "city": "成都"
  },
  {
    "name": "四川博物院",
    "category": "museum",
    "duration_minutes": 120,
    "rating": 4.0,
    "lat": 30.660792,
    "lon": 104.034127,
    "description": "电话: 028-65521888;028-65521581 | 地址: 青华路5号 | 类别: 科教文化服务;博物馆;博物馆",
    "city": "成都"
  },
  {
    "name": "南站公园",
    "category": "outdoor",
    "duration_minutes": 120,
    "rating": 4.0,
    "lat": 30.605697,
    "lon": 104.055389,
    "description": "地址: 桐梓林壹号4栋2单元603室 | 类别: 风景名胜;公园广场;公园",
    "city": "成都"
  },
  {
    "name": "东安湖体育公园",
    "category": "outdoor",
    "duration_minutes": 120,
    "rating": 4.0,
    "lat": 30.598399,
    "lon": 104.248359,
    "description": "电话: 028-88424008;028-88462726 | 地址: 东安街道体育公园路16号、18号、20号、22号 | 类别: 体育休闲服务;运动场馆;综合体育馆",
    "city": "成都"
  },
  {
    "name": "桂溪公园东区儿童滑梯",
    "category": "outdoor",
    "duration_minutes": 120,
    "rating": 4.0,
    "lat": 30.562526,
    "lon": 104.071645,
    "description": "地址: 世纪城东路9号桂溪生态公园东区 | 类别: 风景名胜;风景名胜相关;旅游景点",
    "city": "成都"
  },
  {
    "name": "百花潭公园",
    "category": "outdoor",
    "duration_minutes": 120,
    "rating": 4.0,
    "lat": 30.656117,
    "lon": 104.043653,
    "description": "电话: 028-87035890 | 地址: 芳邻路5号 | 类别: 风景名胜;公园广场;公园",
    "city": "成都"
  },
  {
    "name": "青龙湖湿地公园",
    "category": "outdoor",
    "duration_minutes": 120,
    "rating": 4.0,
    "lat": 30.646345,
    "lon": 104.183631,
    "description": "地址: 十陵风景区内 | 类别: 风景名胜;公园广场;公园",
    "city": "成都"
  },
  {
    "name": "南湖梦幻岛",
    "category": "outdoor",
    "duration_minutes": 120,
    "rating": 4.0,
    "lat": 30.499033,
    "lon": 104.053915,
    "description": "电话: 028-61906688 | 地址: 南湖大道588号 | 类别: 体育休闲服务;休闲场所;游乐场",
    "city": "成都"
  },
  {
    "name": "麓湖水城景区",
    "category": "outdoor",
    "duration_minutes": 120,
    "rating": 4.0,
    "lat": 30.458829,
    "lon": 104.064974,
    "description": "电话: 028-60616886 | 地址: 天府新区麓湖中路西段988号 | 类别: 风景名胜;风景名胜;风景名胜",
    "city": "成都"
  },
  {
    "name": "四川大学博物馆",
    "category": "museum",
    "duration_minutes": 120,
    "rating": 4.0,
    "lat": 30.636303,
    "lon": 104.090711,
    "description": "电话: 028-85412313 | 地址: 望江路19号 | 类别: 科教文化服务;博物馆;博物馆",
    "city": "成都"
  },
  {
    "name": "夜游锦江(东门码头)",
    "category": "outdoor",
    "duration_minutes": 120,
    "rating": 4.0,
    "lat": 30.649944,
    "lon": 104.086761,
    "description": "电话: 028-84542250 | 地址: 天仙桥滨河路东门码头夜游锦江售票处 | 类别: 风景名胜;风景名胜相关;旅游景点",
    "city": "成都"
  },
  {
    "name": "沙河东篱翠湖公园",
    "category": "outdoor",
    "duration_minutes": 120,
    "rating": 4.0,
    "lat": 30.608022,
    "lon": 104.091331,
    "description": "电话: 028-85954999 | 地址: 柳翠路213号 | 类别: 风景名胜;公园广场;公园",
    "city": "成都"
  },
  {
    "name": "东安湖国际旅游度假区",
    "category": "outdoor",
    "duration_minutes": 120,
    "rating": 4.0,
    "lat": 30.590282,
    "lon": 104.246291,
    "description": "电话: 028-83476860 | 地址: 湖岸北路与文运街交叉口东南420米 | 类别: 风景名胜;风景名胜相关;旅游景点",
    "city": "成都"
  },
  {
    "name": "玉林四巷爱转角文创街区",
    "category": "sightseeing",
    "duration_minutes": 120,
    "rating": 4.0,
    "lat": 30.628406,
    "lon": 104.062104,
    "description": "地址: 玉林街6号附4号 | 类别: 风景名胜;风景名胜;风景名胜",
    "city": "成都"
  },
  {
    "name": "簇锦公园",
    "category": "outdoor",
    "duration_minutes": 120,
    "rating": 4.0,
    "lat": 30.609288,
    "lon": 103.997279,
    "description": "地址: 福锦路二段268号 | 类别: 风景名胜;公园广场;公园",
    "city": "成都"
  },
  {
    "name": "成都欢乐谷",
    "category": "sightseeing",
    "duration_minutes": 120,
    "rating": 4.0,
    "lat": 30.719292,
    "lon": 104.032415,
    "description": "电话: 028-61898118 | 地址: 西华街道西华大道16号 | 类别: 体育休闲服务;休闲场所;游乐场",
    "city": "成都"
  },
  {
    "name": "天府艺术公园",
    "category": "outdoor",
    "duration_minutes": 120,
    "rating": 4.0,
    "lat": 30.711411,
    "lon": 104.022692,
    "description": "地址: 金泉街道金牛大道金牛坝路388号 | 类别: 风景名胜;公园广场;公园",
    "city": "成都"
  },
  {
    "name": "麓客岛",
    "category": "sightseeing",
    "duration_minutes": 120,
    "rating": 4.0,
    "lat": 30.458846,
    "lon": 104.063457,
    "description": "电话: 028-69000118 | 地址: 麓湖中路998号 | 类别: 风景名胜;风景名胜;风景名胜",
    "city": "成都"
  },
  {
    "name": "新华公园",
    "category": "outdoor",
    "duration_minutes": 120,
    "rating": 4.0,
    "lat": 30.656332,
    "lon": 104.105629,
    "description": "地址: 双林路87号 | 类别: 风景名胜;公园广场;公园",
    "city": "成都"
  },
  {
    "name": "天府公园",
    "category": "outdoor",
    "duration_minutes": 120,
    "rating": 4.0,
    "lat": 30.432313,
    "lon": 104.072372,
    "description": "地址: 天府新区天府大道南二段与杭州路交叉口南 | 类别: 风景名胜;公园广场;公园",
    "city": "成都"
  },
  {
    "name": "糖果乐园",
    "category": "outdoor",
    "duration_minutes": 120,
    "rating": 4.0,
    "lat": 30.579844,
    "lon": 104.081226,
    "description": "地址: 科华南路与锦云东四巷交叉口东320米 | 类别: 风景名胜;公园广场;公园广场",
    "city": "成都"
  },
  {
    "name": "桂溪生态公园(西区)-儿童活动区",
    "category": "outdoor",
    "duration_minutes": 120,
    "rating": 4.0,
    "lat": 30.563212,
    "lon": 104.064289,
    "description": "地址: 桂溪生态公园西区 | 类别: 风景名胜;风景名胜相关;旅游景点",
    "city": "成都"
  },
  {
    "name": "1906创意工厂",
    "category": "sightseeing",
    "duration_minutes": 120,
    "rating": 4.0,
    "lat": 30.613768,
    "lon": 104.083087,
    "description": "地址: 高攀路26号7322厂 | 类别: 商务住宅;产业园区;产业园区",
    "city": "成都"
  },
  {
    "name": "文化公园",
    "category": "outdoor",
    "duration_minutes": 120,
    "rating": 4.0,
    "lat": 30.660523,
    "lon": 104.043118,
    "description": "电话: 028-87769637 | 地址: 琴台路73号(青羊宫地铁站C口旁) | 类别: 风景名胜;公园广场;公园",
    "city": "成都"
  },
  {
    "name": "骑龙中水湿地公园",
    "category": "outdoor",
    "duration_minutes": 120,
    "rating": 4.0,
    "lat": 30.539507,
    "lon": 104.021071,
    "description": "地址: 昆华路与老双中路交叉口西南320米 | 类别: 风景名胜;公园广场;公园",
    "city": "成都"
  },
  {
    "name": "双流空港花田",
    "category": "sightseeing",
    "duration_minutes": 120,
    "rating": 4.0,
    "lat": 30.503254,
    "lon": 103.93052,
    "description": "电话: 028-85695326 | 地址: 胜利镇牧华路(菜鸟网络成都双流园区东) | 类别: 风景名胜;风景名胜;风景名胜",
    "city": "成都"
  },
  {
    "name": "东安湖公园",
    "category": "outdoor",
    "duration_minutes": 120,
    "rating": 4.0,
    "lat": 30.589811,
    "lon": 104.244966,
    "description": "电话: 028-83476860 | 地址: 龙泉街道都市汽车城大道四段辅路 | 类别: 风景名胜;公园广场;公园",
    "city": "成都"
  },
  {
    "name": "昭觉寺",
    "category": "history",
    "duration_minutes": 120,
    "rating": 4.0,
    "lat": 30.708103,
    "lon": 104.105956,
    "description": "电话: 028-83501419 | 地址: 昭青路333号 | 类别: 风景名胜;风景名胜;寺庙道观",
    "city": "成都"
  },
  {
    "name": "升仙湖公园",
    "category": "outdoor",
    "duration_minutes": 120,
    "rating": 4.0,
    "lat": 30.708547,
    "lon": 104.083924,
    "description": "地址: 双水碾街道升仙湖北路与双沙桥路交叉口东150米 | 类别: 风景名胜;公园广场;公园",
    "city": "成都"
  },
  {
    "name": "成都自然博物馆",
    "category": "museum",
    "duration_minutes": 120,
    "rating": 4.0,
    "lat": 30.67821,
    "lon": 104.144295,
    "description": "电话: 028-60828500 | 地址: 成华大道十里店路88号(十里店地铁站B口步行110米) | 类别: 科教文化服务;博物馆;博物馆",
    "city": "成都"
  },
  {
    "name": "锦城湖",
    "category": "outdoor",
    "duration_minutes": 120,
    "rating": 4.0,
    "lat": 30.573865,
    "lon": 104.03991,
    "description": "地址: 锦城大道1333号 | 类别: 风景名胜;公园广场;公园",
    "city": "成都"
  },
  {
    "name": "锦里古街",
    "category": "sightseeing",
    "duration_minutes": 120,
    "rating": 4.0,
    "lat": 30.645994,
    "lon": 104.049828,
    "description": "电话: 028-66311313;028-66311333;028-85538914 | 地址: 武侯祠大街231号附1号 | 类别: 风景名胜;风景名胜;风景名胜",
    "city": "成都"
  },
  {
    "name": "安顺廊桥",
    "category": "history",
    "duration_minutes": 120,
    "rating": 4.0,
    "lat": 30.641325,
    "lon": 104.085716,
    "description": "地址: 滨江东路66号 | 类别: 风景名胜;风景名胜;风景名胜",
    "city": "成都"
  },
  {
    "name": "三圣花乡·花乡农居",
    "category": "sightseeing",
    "duration_minutes": 120,
    "rating": 4.0,
    "lat": 30.583761,
    "lon": 104.160874,
    "description": "电话: 028-84676767 | 地址: 三圣街道红砂社区136号 | 类别: 风景名胜;风景名胜;国家级景点",
    "city": "成都"
  },
  {
    "name": "金沙遗址博物馆(暂停开放)",
    "category": "museum",
    "duration_minutes": 120,
    "rating": 4.0,
    "lat": 30.681709,
    "lon": 104.012634,
    "description": "电话: 028-87303522;028-87303533 | 地址: 金沙遗址路2号(金沙博物馆地铁站C口步行200米) | 类别: 科教文化服务;博物馆;博物馆",
    "city": "成都"
  },
  {
    "name": "庙山广场",
    "category": "outdoor",
    "duration_minutes": 120,
    "rating": 4.0,
    "lat": 30.561072,
    "lon": 104.141176,
    "description": "地址: 新兴镇庙山街 | 类别: 风景名胜;公园广场;城市广场",
    "city": "成都"
  },
  {
    "name": "兴隆湖湿地公园",
    "category": "outdoor",
    "duration_minutes": 120,
    "rating": 4.0,
    "lat": 30.399681,
    "lon": 104.09383,
    "description": "地址: 天府新区 | 类别: 风景名胜;风景名胜;风景名胜",
    "city": "成都"
  },
  {
    "name": "空港中央公园",
    "category": "outdoor",
    "duration_minutes": 120,
    "rating": 4.0,
    "lat": 30.585804,
    "lon": 103.912622,
    "description": "地址: 航鹰东路与五洞桥北路二段交叉口东北180米 | 类别: 风景名胜;公园广场;公园",
    "city": "成都"
  },
  {
    "name": "棠湖公园",
    "category": "outdoor",
    "duration_minutes": 120,
    "rating": 4.0,
    "lat": 30.570315,
    "lon": 103.918481,
    "description": "电话: 028-85803025 | 地址: 棠湖西路一段2号 | 类别: 风景名胜;公园广场;公园",
    "city": "成都"
  },
  {
    "name": "北湖生态公园",
    "category": "outdoor",
    "duration_minutes": 120,
    "rating": 4.0,
    "lat": 30.718909,
    "lon": 104.154455,
    "description": "电话: 028-62275604 | 地址: 龙潭街道环湖路5号 | 类别: 风景名胜;公园广场;公园",
    "city": "成都"
  },
  {
    "name": "双流区中心公园",
    "category": "outdoor",
    "duration_minutes": 120,
    "rating": 4.0,
    "lat": 30.588206,
    "lon": 103.905719,
    "description": "地址: 双流普贤村金河路 | 类别: 风景名胜;公园广场;公园",
    "city": "成都"
  },
  {
    "name": "成飞公园",
    "category": "outdoor",
    "duration_minutes": 120,
    "rating": 4.0,
    "lat": 30.69984,
    "lon": 103.956765,
    "description": "电话: 028-81192636 | 地址: 纬一路220号 | 类别: 风景名胜;公园广场;公园",
    "city": "成都"
  },
  {
    "name": "玉石湿地公园",
    "category": "outdoor",
    "duration_minutes": 120,
    "rating": 4.0,
    "lat": 30.607139,
    "lon": 104.195369,
    "description": "地址: 大面街道玉石社区5-136 | 类别: 风景名胜;公园广场;公园",
    "city": "成都"
  },
  {
    "name": "易园园林博物馆",
    "category": "museum",
    "duration_minutes": 120,
    "rating": 4.0,
    "lat": 30.71778,
    "lon": 104.014958,
    "description": "电话: 028-87506046;028-87512222 | 地址: 金泉路8号 | 类别: 风景名胜;风景名胜;风景名胜",
    "city": "成都"
  },
  {
    "name": "神仙树公园",
    "category": "outdoor",
    "duration_minutes": 120,
    "rating": 4.0,
    "lat": 30.612881,
    "lon": 104.047819,
    "description": "地址: 紫荆西路(神仙树地铁站F口步行250米) | 类别: 风景名胜;公园广场;公园",
    "city": "成都"
  },
  {
    "name": "爬墙熊猫",
    "category": "sightseeing",
    "duration_minutes": 120,
    "rating": 4.0,
    "lat": 30.655194,
    "lon": 104.080777,
    "description": "地址: 红星路三段辅路与小科甲巷交叉口东60米 | 类别: 风景名胜;风景名胜;风景名胜",
    "city": "成都"
  },
  {
    "name": "二郎山喇叭河旅游景区-成都办事处",
    "category": "outdoor",
    "duration_minutes": 120,
    "rating": 4.0,
    "lat": 30.576124,
    "lon": 104.062033,
    "description": "地址: 锦城大道666号奥克斯广场B座 | 类别: 公司企业;公司;公司",
    "city": "成都"
  },
  {
    "name": "清水河公园",
    "category": "outdoor",
    "duration_minutes": 120,
    "rating": 4.0,
    "lat": 30.659083,
    "lon": 103.986952,
    "description": "地址: 西三环路三段 | 类别: 风景名胜;公园广场;公园",
    "city": "成都"
  },
  {
    "name": "成都市烈士陵园",
    "category": "sightseeing",
    "duration_minutes": 120,
    "rating": 4.0,
    "lat": 30.550796,
    "lon": 104.122689,
    "description": "电话: 028-85936660 | 地址: 大安桥路579号 | 类别: 生活服务;丧葬设施;陵园",
    "city": "成都"
  },
  {
    "name": "新怡公园",
    "category": "outdoor",
    "duration_minutes": 120,
    "rating": 4.0,
    "lat": 30.53241,
    "lon": 104.092681,
    "description": "地址: 应龙路 | 类别: 风景名胜;公园广场;公园",
    "city": "成都"
  },
  {
    "name": "琴台故径",
    "category": "sightseeing",
    "duration_minutes": 120,
    "rating": 4.0,
    "lat": 30.660197,
    "lon": 104.045772,
    "description": "地址: 琴台路205号(通惠门地铁站E口步行100米) | 类别: 风景名胜;风景名胜;风景名胜|购物服务;特色商业街;特色商业街",
    "city": "成都"
  },
  {
    "name": "成都露天音乐公园",
    "category": "outdoor",
    "duration_minutes": 120,
    "rating": 4.0,
    "lat": 30.726133,
    "lon": 104.078655,
    "description": "地址: 北星大道一段1500号 | 类别: 风景名胜;公园广场;公园",
    "city": "成都"
  },
  {
    "name": "文殊坊",
    "category": "sightseeing",
    "duration_minutes": 120,
    "rating": 4.0,
    "lat": 30.67338,
    "lon": 104.073409,
    "description": "电话: 028-86510706 | 地址: 草市街街道文殊院大街66号(近省市政务中心) | 类别: 风景名胜;风景名胜;风景名胜",
    "city": "成都"
  },
  {
    "name": "蛟龙港活水公园",
    "category": "outdoor",
    "duration_minutes": 120,
    "rating": 4.0,
    "lat": 30.605475,
    "lon": 103.898634,
    "description": "地址: 蛟龙港余家碾滨江大道四段水口路八段 | 类别: 风景名胜;公园广场;公园",
    "city": "成都"
  },
  {
    "name": "皇城清真寺",
    "category": "sightseeing",
    "duration_minutes": 120,
    "rating": 4.0,
    "lat": 30.65671,
    "lon": 104.062909,
    "description": "地址: 小河街2号附2号 | 类别: 风景名胜;风景名胜;回教寺",
    "city": "成都"
  },
  {
    "name": "国际非物质文化遗产博览园",
    "category": "sightseeing",
    "duration_minutes": 120,
    "rating": 4.0,
    "lat": 30.666557,
    "lon": 103.929802,
    "description": "电话: 028-87077777 | 地址: 光华大道二段601号 | 类别: 风景名胜;风景名胜;风景名胜",
    "city": "成都"
  },
  {
    "name": "悦动彩林",
    "category": "outdoor",
    "duration_minutes": 120,
    "rating": 4.0,
    "lat": 30.602437,
    "lon": 103.958572,
    "description": "地址: 成双大道旁江安河畔 | 类别: 风景名胜;公园广场;公园",
    "city": "成都"
  },
  {
    "name": "龙潭水乡",
    "category": "sightseeing",
    "duration_minutes": 120,
    "rating": 4.0,
    "lat": 30.687699,
    "lon": 104.181765,
    "description": "地址: 航天路88号(近华翰路) | 类别: 风景名胜;风景名胜;风景名胜",
    "city": "成都"
  },
  {
    "name": "中和广场",
    "category": "outdoor",
    "duration_minutes": 120,
    "rating": 4.0,
    "lat": 30.552577,
    "lon": 104.087632,
    "description": "地址: 新下街244号靠近锦华建材家私城 | 类别: 风景名胜;公园广场;城市广场",
    "city": "成都"
  },
  {
    "name": "锦城湖3号湖区",
    "category": "outdoor",
    "duration_minutes": 120,
    "rating": 4.0,
    "lat": 30.569117,
    "lon": 104.042122,
    "description": "地址: 剑南大道西侧 | 类别: 风景名胜;公园广场;公园",
    "city": "成都"
  },
  {
    "name": "黄甲广场",
    "category": "outdoor",
    "duration_minutes": 120,
    "rating": 4.0,
    "lat": 30.491038,
    "lon": 103.949315,
    "description": "地址: 黄甲镇黄甲大道48号 | 类别: 风景名胜;公园广场;城市广场",
    "city": "成都"
  },
  {
    "name": "华阳音乐广场",
    "category": "outdoor",
    "duration_minutes": 120,
    "rating": 4.0,
    "lat": 30.520838,
    "lon": 104.056418,
    "description": "地址: 安公路三段 | 类别: 风景名胜;公园广场;城市广场",
    "city": "成都"
  },
  {
    "name": "合江亭",
    "category": "outdoor",
    "duration_minutes": 120,
    "rating": 4.0,
    "lat": 30.642929,
    "lon": 104.083659,
    "description": "地址: 滨江东路与天仙桥南路交叉口东南80米 | 类别: 风景名胜;风景名胜;风景名胜",
    "city": "成都"
  },
  {
    "name": "火烧堰碧翠廊",
    "category": "sightseeing",
    "duration_minutes": 120,
    "rating": 4.0,
    "lat": 30.626024,
    "lon": 104.053923,
    "description": "地址: 高新区城区(芳草街地铁站D口步行120米) | 类别: 风景名胜;风景名胜相关;旅游景点",
    "city": "成都"
  },
  {
    "name": "成都锦城",
    "category": "outdoor",
    "duration_minutes": 120,
    "rating": 4.0,
    "lat": 30.562731,
    "lon": 104.057586,
    "description": "地址: 益州大道中段与天府一街交叉口北260米 | 类别: 风景名胜;公园广场;公园",
    "city": "成都"
  },
  {
    "name": "太古里东广场",
    "category": "outdoor",
    "duration_minutes": 120,
    "rating": 4.0,
    "lat": 30.653124,
    "lon": 104.083786,
    "description": "地址: 纱帽街8号(春熙路地铁站出入口步行410米) | 类别: 风景名胜;公园广场;城市广场",
    "city": "成都"
  },
  {
    "name": "空港体育公园",
    "category": "outdoor",
    "duration_minutes": 120,
    "rating": 4.0,
    "lat": 30.594153,
    "lon": 103.955803,
    "description": "地址: 成双大道双流空港商务区起步区内 | 类别: 风景名胜;公园广场;公园",
    "city": "成都"
  },
  {
    "name": "凤凰山公园",
    "category": "outdoor",
    "duration_minutes": 120,
    "rating": 4.0,
    "lat": 30.737724,
    "lon": 104.081896,
    "description": "地址: 熊猫大道西段969号 | 类别: 风景名胜;公园广场;公园",
    "city": "成都"
  },
  {
    "name": "东方莎莉花园",
    "category": "sightseeing",
    "duration_minutes": 120,
    "rating": 4.0,
    "lat": 30.584972,
    "lon": 104.131077,
    "description": "地址: 三圣乡幸福联合7组301号 | 类别: 餐饮服务;餐饮相关场所;餐饮相关",
    "city": "成都"
  },
  {
    "name": "新川湿地公园",
    "category": "outdoor",
    "duration_minutes": 120,
    "rating": 4.0,
    "lat": 30.526646,
    "lon": 104.106199,
    "description": "地址: 新通北三路 | 类别: 风景名胜;公园广场;公园",
    "city": "成都"
  },
  {
    "name": "邓小平广场",
    "category": "outdoor",
    "duration_minutes": 120,
    "rating": 4.0,
    "lat": 30.606491,
    "lon": 103.990128,
    "description": "电话: 17708029627 | 地址: 簇锦北路与玉锦路交叉口西南40米 | 类别: 风景名胜;公园广场;城市广场",
    "city": "成都"
  },
  {
    "name": "双流广场",
    "category": "outdoor",
    "duration_minutes": 120,
    "rating": 4.0,
    "lat": 30.564376,
    "lon": 103.921356,
    "description": "地址: 广都大道2号(双流广场地铁站A1口步行170米) | 类别: 风景名胜;公园广场;城市广场",
    "city": "成都"
  },
  {
    "name": "三圣花乡荷塘月色",
    "category": "sightseeing",
    "duration_minutes": 120,
    "rating": 4.0,
    "lat": 30.567605,
    "lon": 104.158143,
    "description": "地址: 簧柏路 | 类别: 风景名胜;风景名胜;国家级景点",
    "city": "成都"
  },
  {
    "name": "桂溪生态公园-成都锦城绿道",
    "category": "outdoor",
    "duration_minutes": 120,
    "rating": 4.0,
    "lat": 30.563592,
    "lon": 104.078089,
    "description": "地址: 桂溪生态公园东区内(东侧) | 类别: 风景名胜;公园广场;公园",
    "city": "成都"
  },
  {
    "name": "麓镇广场",
    "category": "outdoor",
    "duration_minutes": 120,
    "rating": 4.0,
    "lat": 30.483431,
    "lon": 104.093005,
    "description": "地址: 万安街道麓山大道麓山小镇 | 类别: 风景名胜;公园广场;公园广场",
    "city": "成都"
  },
  {
    "name": "江安河公园",
    "category": "outdoor",
    "duration_minutes": 120,
    "rating": 4.0,
    "lat": 30.537057,
    "lon": 104.005706,
    "description": "地址: 滨河路与光电大道交叉口南40米 | 类别: 风景名胜;公园广场;公园",
    "city": "成都"
  },
  {
    "name": "江安河公园",
    "category": "outdoor",
    "duration_minutes": 120,
    "rating": 4.0,
    "lat": 30.537057,
    "lon": 104.005706,
    "description": "地址: 滨河路与光电大道交叉口南40米 | 类别: 风景名胜;公园广场;公园",
    "city": "成都"
  },
  {
    "name": "丽都公园",
    "category": "outdoor",
    "duration_minutes": 120,
    "rating": 4.0,
    "lat": 30.628864,
    "lon": 104.036066,
    "description": "地址: 丽都路1号(科园地铁站A1口步行410米) | 类别: 风景名胜;公园广场;公园",
    "city": "成都"
  },
  {
    "name": "杜甫草堂-茅屋故居",
    "category": "sightseeing",
    "duration_minutes": 120,
    "rating": 4.0,
    "lat": 30.660655,
    "lon": 104.027718,
    "description": "地址: 草堂路28号成都杜甫草堂博物馆内 | 类别: 风景名胜;风景名胜相关;旅游景点",
    "city": "成都"
  },
  {
    "name": "儿童影视科技博物馆",
    "category": "museum",
    "duration_minutes": 120,
    "rating": 4.0,
    "lat": 30.552988,
    "lon": 104.079792,
    "description": "地址: 科华南路辅路与梓州大道交叉口西南400米 | 类别: 科教文化服务;博物馆;博物馆",
    "city": "成都"
  },
  {
    "name": "永安湖旅游景区",
    "category": "outdoor",
    "duration_minutes": 120,
    "rating": 4.0,
    "lat": 30.421804,
    "lon": 103.977792,
    "description": "地址: 生物城中路二段3号 | 类别: 风景名胜;公园广场;公园",
    "city": "成都"
  },
  {
    "name": "怡心湖公园",
    "category": "outdoor",
    "duration_minutes": 120,
    "rating": 4.0,
    "lat": 30.477577,
    "lon": 104.020709,
    "description": "地址: 华阳街道 | 类别: 风景名胜;公园广场;公园",
    "city": "成都"
  },
  {
    "name": "天府国际动漫城",
    "category": "sightseeing",
    "duration_minutes": 120,
    "rating": 4.0,
    "lat": 30.705738,
    "lon": 104.107574,
    "description": "电话: 028-67598666 | 地址: 青龙街道西林社区十组 | 类别: 购物服务;购物相关场所;购物相关场所",
    "city": "成都"
  },
  {
    "name": "春熙路IFS爬墙大熊猫打卡点",
    "category": "sightseeing",
    "duration_minutes": 120,
    "rating": 4.0,
    "lat": 30.655441,
    "lon": 104.080816,
    "description": "地址: 成都IFS(春熙路地铁站C口步行220米) | 类别: 风景名胜;风景名胜;风景名胜",
    "city": "成都"
  },
  {
    "name": "锦江绿道",
    "category": "outdoor",
    "duration_minutes": 120,
    "rating": 4.0,
    "lat": 30.567325,
    "lon": 104.083527,
    "description": "地址: G4202成都绕城高速与G4202成都绕城高速入口交叉口西140米 | 类别: 风景名胜;风景名胜相关;旅游景点",
    "city": "成都"
  },
  {
    "name": "龙泉仰天窝",
    "category": "sightseeing",
    "duration_minutes": 120,
    "rating": 4.0,
    "lat": 30.548198,
    "lon": 104.282551,
    "description": "地址: 318国道山泉镇联合村六组50号 | 类别: 风景名胜;风景名胜;风景名胜",
    "city": "成都"
  },
  {
    "name": "人民公园-相亲角",
    "category": "outdoor",
    "duration_minutes": 120,
    "rating": 4.0,
    "lat": 30.657573,
    "lon": 104.056645,
    "description": "电话: 028-86139234 | 地址: 祠堂街9号人民公园(人民公园地铁站H口步行250米) | 类别: 风景名胜;风景名胜相关;旅游景点",
    "city": "成都"
  },
  {
    "name": "南郊公园",
    "category": "outdoor",
    "duration_minutes": 120,
    "rating": 4.0,
    "lat": 30.6449,
    "lon": 104.046043,
    "description": "电话: 028-85535951;028-85552397 | 地址: 武侯祠大街231号武侯祠景区内 | 类别: 风景名胜;公园广场;公园",
    "city": "成都"
  },
  {
    "name": "永陵公园",
    "category": "outdoor",
    "duration_minutes": 120,
    "rating": 4.0,
    "lat": 30.674447,
    "lon": 104.047296,
    "description": "电话: 028-87769665;028-87718027 | 地址: 永陵路10号 | 类别: 风景名胜;公园广场;公园",
    "city": "成都"
  },
  {
    "name": "芙蓉岛公园",
    "category": "outdoor",
    "duration_minutes": 120,
    "rating": 4.0,
    "lat": 30.55571,
    "lon": 104.084723,
    "description": "地址: 熊家桥路55号 | 类别: 风景名胜;公园广场;公园",
    "city": "成都"
  },
  {
    "name": "东郊记忆成都墙",
    "category": "sightseeing",
    "duration_minutes": 120,
    "rating": 4.0,
    "lat": 30.669697,
    "lon": 104.123288,
    "description": "地址: 建设南支路4号-46号楼 | 类别: 风景名胜;风景名胜;风景名胜",
    "city": "成都"
  },
  {
    "name": "昭觉寺-第一禅林",
    "category": "history",
    "duration_minutes": 120,
    "rating": 4.0,
    "lat": 30.705981,
    "lon": 104.105909,
    "description": "电话: 028-83501419 | 地址: 昭青路333号昭觉寺内(南侧) | 类别: 风景名胜;风景名胜;寺庙道观",
    "city": "成都"
  },
  {
    "name": "天府熊猫塔(暂停开放)",
    "category": "history",
    "duration_minutes": 120,
    "rating": 4.0,
    "lat": 30.662303,
    "lon": 104.09458,
    "description": "地址: 猛追湾街168号成都339购物中心 | 类别: 风景名胜;风景名胜;风景名胜",
    "city": "成都"
  },
  {
    "name": "梵木创艺区",
    "category": "sightseeing",
    "duration_minutes": 120,
    "rating": 4.0,
    "lat": 30.621954,
    "lon": 104.150358,
    "description": "电话: 028-86910505 | 地址: 悦来街与外东洪路交叉口东南220米 | 类别: 商务住宅;产业园区;产业园区",
    "city": "成都"
  },
  {
    "name": "成都市植物园",
    "category": "outdoor",
    "duration_minutes": 120,
    "rating": 4.0,
    "lat": 30.763468,
    "lon": 104.128542,
    "description": "电话: 028-83583439 | 地址: 蓉都大道天回路1116号 | 类别: 风景名胜;公园广场;植物园",
    "city": "成都"
  },
  {
    "name": "成都蜀锦织绣博物馆",
    "category": "museum",
    "duration_minutes": 120,
    "rating": 4.0,
    "lat": 30.657296,
    "lon": 104.037045,
    "description": "电话: 028-87337990 | 地址: 草堂东路18号锦绣工场古玩城3号楼 | 类别: 科教文化服务;博物馆;博物馆",
    "city": "成都"
  },
  {
    "name": "成都蜀锦织绣博物馆",
    "category": "museum",
    "duration_minutes": 120,
    "rating": 4.0,
    "lat": 30.657296,
    "lon": 104.037045,
    "description": "电话: 028-87337990 | 地址: 草堂东路18号锦绣工场古玩城3号楼 | 类别: 科教文化服务;博物馆;博物馆",
    "city": "成都"
  },
  {
    "name": "青龙湖二期公园",
    "category": "outdoor",
    "duration_minutes": 120,
    "rating": 4.0,
    "lat": 30.623817,
    "lon": 104.194671,
    "description": "电话: 18123234326 | 地址: 青龙湖湿地公园(东南角) | 类别: 风景名胜;公园广场;公园",
    "city": "成都"
  },
  {
    "name": "武侯生活广场",
    "category": "outdoor",
    "duration_minutes": 120,
    "rating": 4.0,
    "lat": 30.636814,
    "lon": 104.032067,
    "description": "地址: 二环路西一段2号 | 类别: 风景名胜;公园广场;城市广场",
    "city": "成都"
  },
  {
    "name": "铁佛公园",
    "category": "outdoor",
    "duration_minutes": 120,
    "rating": 4.0,
    "lat": 30.616038,
    "lon": 103.990998,
    "description": "地址: 福锦路1段167号附8号 | 类别: 风景名胜;公园广场;公园",
    "city": "成都"
  },
  {
    "name": "漫花庄园(暂停开放)",
    "category": "sightseeing",
    "duration_minutes": 120,
    "rating": 4.0,
    "lat": 30.761951,
    "lon": 104.140799,
    "description": "电话: 028-83933394;028-83955350;18328721963 | 地址: 蜀龙大道1528号 | 类别: 风景名胜;风景名胜相关;旅游景点",
    "city": "成都"
  },
  {
    "name": "荒野之国",
    "category": "sightseeing",
    "duration_minutes": 120,
    "rating": 4.0,
    "lat": 30.455104,
    "lon": 104.064822,
    "description": "电话: 028-60616886;19382079206 | 地址: 天府新区华阳街道青岛路西段3199号 | 类别: 购物服务;购物相关场所;购物相关场所",
    "city": "成都"
  },
  {
    "name": "浩海立方海洋公园",
    "category": "outdoor",
    "duration_minutes": 120,
    "rating": 4.0,
    "lat": 30.60342,
    "lon": 103.908872,
    "description": "电话: 028-85755566;028-85755588 | 地址: 九江街道双楠大道88号1层B101号 | 类别: 风景名胜;公园广场;水族馆",
    "city": "成都"
  },
  {
    "name": "石人公园",
    "category": "outdoor",
    "duration_minutes": 120,
    "rating": 4.0,
    "lat": 30.675594,
    "lon": 104.029802,
    "description": "地址: 石人北路2号(白果林地铁站D口步行460米) | 类别: 风景名胜;公园广场;公园",
    "city": "成都"
  },
  {
    "name": "龙泉山观景台",
    "category": "outdoor",
    "duration_minutes": 120,
    "rating": 4.0,
    "lat": 30.557215,
    "lon": 104.307044,
    "description": "地址: 美满路 | 类别: 风景名胜;风景名胜相关;旅游景点",
    "city": "成都"
  },
  {
    "name": "活水公园",
    "category": "outdoor",
    "duration_minutes": 120,
    "rating": 4.0,
    "lat": 30.66848,
    "lon": 104.091456,
    "description": "电话: 028-86924981 | 地址: 华星路5号(红星桥地铁站A口步行170米) | 类别: 风景名胜;公园广场;公园",
    "city": "成都"
  },
  {
    "name": "成华公园",
    "category": "outdoor",
    "duration_minutes": 120,
    "rating": 4.0,
    "lat": 30.667419,
    "lon": 104.095223,
    "description": "地址: 猛追湾街22号 | 类别: 风景名胜;公园广场;公园",
    "city": "成都"
  },
  {
    "name": "应天寺",
    "category": "history",
    "duration_minutes": 120,
    "rating": 4.0,
    "lat": 30.532201,
    "lon": 103.910307,
    "description": "地址: 胜利镇牧马山麓 | 类别: 风景名胜;风景名胜;寺庙道观",
    "city": "成都"
  },
  {
    "name": "白云寺",
    "category": "history",
    "duration_minutes": 120,
    "rating": 4.0,
    "lat": 30.484176,
    "lon": 103.893037,
    "description": "地址: 柳河路1号 | 类别: 风景名胜;风景名胜;寺庙道观",
    "city": "成都"
  },
  {
    "name": "交子·极限运动公园",
    "category": "outdoor",
    "duration_minutes": 120,
    "rating": 4.0,
    "lat": 30.576135,
    "lon": 104.089601,
    "description": "地址: 锦华路三段786号 | 类别: 风景名胜;风景名胜相关;旅游景点",
    "city": "成都"
  },
  {
    "name": "宽窄巷子东广场",
    "category": "outdoor",
    "duration_minutes": 120,
    "rating": 4.0,
    "lat": 30.663117,
    "lon": 104.055681,
    "description": "地址: 长顺上街116号(人民公园地铁站D口步行470米) | 类别: 风景名胜;公园广场;城市广场",
    "city": "成都"
  },
  {
    "name": "水井街酒坊遗址",
    "category": "history",
    "duration_minutes": 120,
    "rating": 4.0,
    "lat": 30.645027,
    "lon": 104.086004,
    "description": "地址: 水井街21号(东门大桥地铁站B口步行430米) | 类别: 风景名胜;风景名胜;风景名胜",
    "city": "成都"
  },
  {
    "name": "麻石烟云公园",
    "category": "outdoor",
    "duration_minutes": 120,
    "rating": 4.0,
    "lat": 30.665508,
    "lon": 104.113353,
    "description": "地址: 二环路东二段22正东方向130米 | 类别: 风景名胜;公园广场;公园",
    "city": "成都"
  },
  {
    "name": "彭镇古镇",
    "category": "sightseeing",
    "duration_minutes": 120,
    "rating": 4.0,
    "lat": 30.5832,
    "lon": 103.870827,
    "description": "地址: 永丰路与黄温路交叉口东北20米 | 类别: 风景名胜;风景名胜;风景名胜",
    "city": "成都"
  },
  {
    "name": "百仁城市文化公园",
    "category": "outdoor",
    "duration_minutes": 120,
    "rating": 4.0,
    "lat": 30.691448,
    "lon": 103.994736,
    "description": "地址: 蜀江路与清源一路交叉口东北280米 | 类别: 风景名胜;公园广场;公园",
    "city": "成都"
  },
  {
    "name": "动感熊猫体育公园",
    "category": "outdoor",
    "duration_minutes": 120,
    "rating": 4.0,
    "lat": 30.594312,
    "lon": 104.12115,
    "description": "电话: 19150039601;19150262945 | 地址: 锦江大道1488号 | 类别: 风景名胜;公园广场;公园|体育休闲服务;体育休闲服务场所;体育休闲服务场所",
    "city": "成都"
  },
  {
    "name": "金牛公园",
    "category": "outdoor",
    "duration_minutes": 120,
    "rating": 4.0,
    "lat": 30.703512,
    "lon": 104.024656,
    "description": "地址: 金府路66号 | 类别: 风景名胜;公园广场;公园",
    "city": "成都"
  },
  {
    "name": "龙泉驿欢乐田园",
    "category": "sightseeing",
    "duration_minutes": 120,
    "rating": 4.0,
    "lat": 30.604917,
    "lon": 104.253478,
    "description": "电话: 028-86215633 | 地址: 汽车城大道四段 | 类别: 风景名胜;风景名胜相关;旅游景点",
    "city": "成都"
  },
  {
    "name": "广都博物馆",
    "category": "museum",
    "duration_minutes": 120,
    "rating": 4.0,
    "lat": 30.49368,
    "lon": 103.918856,
    "description": "地址: 瞿上城路117号 | 类别: 科教文化服务;博物馆;博物馆",
    "city": "成都"
  },
  {
    "name": "中国小镇(A区)",
    "category": "sightseeing",
    "duration_minutes": 120,
    "rating": 4.0,
    "lat": 30.707265,
    "lon": 103.979305,
    "description": "地址: 两河路555号 | 类别: 风景名胜;风景名胜相关;旅游景点",
    "city": "成都"
  },
  {
    "name": "万科公园",
    "category": "outdoor",
    "duration_minutes": 120,
    "rating": 4.0,
    "lat": 30.564527,
    "lon": 104.039772,
    "description": "地址: 盛兴街与盛兴街(西)交叉口西240米 | 类别: 商务住宅;住宅区;住宅小区",
    "city": "成都"
  },
  {
    "name": "二仙桥公园",
    "category": "outdoor",
    "duration_minutes": 120,
    "rating": 4.0,
    "lat": 30.686443,
    "lon": 104.122879,
    "description": "地址: 仙韵一路133号 | 类别: 风景名胜;公园广场;公园广场",
    "city": "成都"
  },
  {
    "name": "成都市东部副中心市政景观公园",
    "category": "outdoor",
    "duration_minutes": 120,
    "rating": 4.0,
    "lat": 30.601621,
    "lon": 104.143142,
    "description": "地址: 成都市东部副中心 | 类别: 风景名胜;公园广场;公园",
    "city": "成都"
  },
  {
    "name": "洛带古镇",
    "category": "sightseeing",
    "duration_minutes": 120,
    "rating": 4.0,
    "lat": 30.636189,
    "lon": 104.328377,
    "description": "电话: 028-84893693 | 地址: 三峨街 | 类别: 风景名胜;风景名胜;国家级景点",
    "city": "成都"
  },
  {
    "name": "大源中央公园下沉广场",
    "category": "outdoor",
    "duration_minutes": 120,
    "rating": 4.0,
    "lat": 30.550013,
    "lon": 104.047118,
    "description": "地址: 成都高新区天府二街777号大源中央公园(西北角) | 类别: 风景名胜;风景名胜;风景名胜",
    "city": "成都"
  },
  {
    "name": "白鹭湾湿地公园观景台",
    "category": "outdoor",
    "duration_minutes": 120,
    "rating": 4.0,
    "lat": 30.567865,
    "lon": 104.130861,
    "description": "地址: 聚宝路白鹭湾湿地公园(西侧) | 类别: 风景名胜;风景名胜;观景点",
    "city": "成都"
  },
  {
    "name": "东站绿轴公园",
    "category": "outdoor",
    "duration_minutes": 120,
    "rating": 4.0,
    "lat": 30.63216,
    "lon": 104.13197,
    "description": "地址: 沱江路与九寨沟路交叉口西北80米 | 类别: 风景名胜;公园广场;公园",
    "city": "成都"
  },
  {
    "name": "龙泉山森林绿道高空栈道",
    "category": "outdoor",
    "duration_minutes": 120,
    "rating": 4.0,
    "lat": 30.381712,
    "lon": 104.178723,
    "description": "地址: 白三路与丹寨路交叉口西480米 | 类别: 风景名胜;风景名胜;风景名胜",
    "city": "成都"
  },
  {
    "name": "两河城市森林公园",
    "category": "outdoor",
    "duration_minutes": 120,
    "rating": 4.0,
    "lat": 30.717903,
    "lon": 103.968,
    "description": "地址: 土龙路38号 | 类别: 风景名胜;公园广场;公园",
    "city": "成都"
  },
  {
    "name": "锦城绿道",
    "category": "sightseeing",
    "duration_minutes": 120,
    "rating": 4.0,
    "lat": 30.572736,
    "lon": 104.11849,
    "description": "地址: 琉新路与驸江路交叉口北500米 | 类别: 风景名胜;风景名胜;风景名胜",
    "city": "成都"
  },
  {
    "name": "天一广场",
    "category": "sightseeing",
    "duration_minutes": 120,
    "rating": 4.0,
    "lat": 30.650853,
    "lon": 104.065581,
    "description": "地址: 人民南路二段30号附3(锦江宾馆地铁站A口步行60米) | 类别: 商务住宅;楼宇;商务写字楼",
    "city": "成都"
  },
  {
    "name": "成都川剧艺术博物馆(暂停开放)",
    "category": "museum",
    "duration_minutes": 120,
    "rating": 4.0,
    "lat": 30.659687,
    "lon": 104.080315,
    "description": "地址: 华兴正街54号(市二医院地铁站A口步行440米) | 类别: 科教文化服务;博物馆;博物馆",
    "city": "成都"
  },
  {
    "name": "成都SKP圣诞树森林",
    "category": "outdoor",
    "duration_minutes": 120,
    "rating": 4.0,
    "lat": 30.56747,
    "lon": 104.070315,
    "description": "地址: 濯锦立交桥与G4202成都绕城高速交叉口北180米 | 类别: 风景名胜;风景名胜;风景名胜",
    "city": "成都"
  },
  {
    "name": "萌宠乐园",
    "category": "outdoor",
    "duration_minutes": 120,
    "rating": 4.0,
    "lat": 30.619582,
    "lon": 103.943512,
    "description": "地址: 绕城高速双流段与双楠大道交叉口 | 类别: 风景名胜;公园广场;公园",
    "city": "成都"
  },
  {
    "name": "平澜夕照",
    "category": "sightseeing",
    "duration_minutes": 120,
    "rating": 4.0,
    "lat": 30.57167,
    "lon": 104.045061,
    "description": "地址: 锦城大道1333号锦城湖(东南角) | 类别: 风景名胜;风景名胜;风景名胜",
    "city": "成都"
  },
  {
    "name": "秦皇湖",
    "category": "outdoor",
    "duration_minutes": 120,
    "rating": 4.0,
    "lat": 30.429692,
    "lon": 104.07618,
    "description": "地址: 杭州路东段与蜀州路交叉口西南150米天府公园(东南角) | 类别: 风景名胜;风景名胜;风景名胜",
    "city": "成都"
  },
  {
    "name": "会龙公园",
    "category": "outdoor",
    "duration_minutes": 120,
    "rating": 4.0,
    "lat": 30.524171,
    "lon": 104.066449,
    "description": "地址: 华阳镇街道华阳绕城路口 | 类别: 风景名胜;公园广场;公园",
    "city": "成都"
  },
  {
    "name": "天府森林公园",
    "category": "outdoor",
    "duration_minutes": 120,
    "rating": 4.0,
    "lat": 30.469362,
    "lon": 104.064592,
    "description": "地址: 华阳镇街道沈阳路东段与东山大道一段交叉口西80米 | 类别: 风景名胜;公园广场;公园",
    "city": "成都"
  },
  {
    "name": "中山广场",
    "category": "outdoor",
    "duration_minutes": 120,
    "rating": 4.0,
    "lat": 30.655146,
    "lon": 104.076988,
    "description": "地址: 春熙路北段(春熙路地铁站D口步行360米) | 类别: 风景名胜;公园广场;城市广场",
    "city": "成都"
  },
  {
    "name": "晨辉路公园",
    "category": "outdoor",
    "duration_minutes": 120,
    "rating": 4.0,
    "lat": 30.60634,
    "lon": 104.111579,
    "description": "地址: 静思南巷与静思里交叉口西南280米 | 类别: 风景名胜;公园广场;公园",
    "city": "成都"
  },
  {
    "name": "金菊广场",
    "category": "outdoor",
    "duration_minutes": 120,
    "rating": 4.0,
    "lat": 30.57619,
    "lon": 104.143662,
    "description": "电话: 028-84676660 | 地址: 赏菊路与东篱路交叉口西北180米 | 类别: 风景名胜;公园广场;城市广场",
    "city": "成都"
  },
  {
    "name": "银沙滩乐园",
    "category": "sightseeing",
    "duration_minutes": 120,
    "rating": 4.0,
    "lat": 30.582122,
    "lon": 104.232041,
    "description": "地址: 汽车城大道四段辅路东安湖公园(西南角) | 类别: 体育休闲服务;休闲场所;休闲场所",
    "city": "成都"
  },
  {
    "name": "成都鸟语林",
    "category": "sightseeing",
    "duration_minutes": 120,
    "rating": 4.0,
    "lat": 30.632627,
    "lon": 104.126443,
    "description": "地址: 外东下沙铺43号塔子山公园内(东南角) | 类别: 风景名胜;风景名胜相关;旅游景点",
    "city": "成都"
  },
  {
    "name": "多乐岛运动游乐城(金牛店)",
    "category": "sightseeing",
    "duration_minutes": 120,
    "rating": 4.0,
    "lat": 30.709117,
    "lon": 104.064699,
    "description": "电话: 028-87777929 | 地址: 五块石路1号27栋1层龙湖北城天街A馆5楼Z1号 | 类别: 体育休闲服务;休闲场所;游乐场",
    "city": "成都"
  },
  {
    "name": "一片森林儿童亲子乐园(暂停营业)",
    "category": "outdoor",
    "duration_minutes": 120,
    "rating": 4.0,
    "lat": 30.462719,
    "lon": 104.056783,
    "description": "电话: 19950274531 | 地址: 华阳街道天津路西段899号 | 类别: 体育休闲服务;休闲场所;游乐场",
    "city": "成都"
  },
  {
    "name": "蜀绣公园",
    "category": "outdoor",
    "duration_minutes": 120,
    "rating": 4.0,
    "lat": 30.768811,
    "lon": 104.010036,
    "description": "地址: 成都市郫都区安靖镇高桥村金河路350号附3-4号 | 类别: 风景名胜;公园广场;公园",
    "city": "成都"
  },
  {
    "name": "鹿溪河生态区",
    "category": "sightseeing",
    "duration_minutes": 120,
    "rating": 4.0,
    "lat": 30.415394,
    "lon": 104.086791,
    "description": "地址: 蜀州路 | 类别: 风景名胜;风景名胜;风景名胜",
    "city": "成都"
  },
  {
    "name": "大熊猫6号别墅",
    "category": "sightseeing",
    "duration_minutes": 120,
    "rating": 4.0,
    "lat": 30.736354,
    "lon": 104.143231,
    "description": "地址: 外北三环熊猫大道1375号成都大熊猫繁育研究基地内(东南角) | 类别: 风景名胜;风景名胜;风景名胜",
    "city": "成都"
  },
  {
    "name": "保利198公园",
    "category": "outdoor",
    "duration_minutes": 120,
    "rating": 4.0,
    "lat": 30.743434,
    "lon": 104.148313,
    "description": "地址: 蜀龙大道南段1752号 | 类别: 风景名胜;公园广场;公园",
    "city": "成都"
  },
  {
    "name": "云朵乐园",
    "category": "sightseeing",
    "duration_minutes": 120,
    "rating": 4.0,
    "lat": 30.46373,
    "lon": 104.064414,
    "description": "地址: 麓湖生态城内 | 类别: 体育休闲服务;体育休闲服务场所;体育休闲服务场所",
    "city": "成都"
  },
  {
    "name": "秀丽东方",
    "category": "sightseeing",
    "duration_minutes": 120,
    "rating": 4.0,
    "lat": 30.579293,
    "lon": 104.131431,
    "description": "地址: 幸福联合七组308号 | 类别: 风景名胜;风景名胜;风景名胜",
    "city": "成都"
  },
  {
    "name": "观景楼",
    "category": "sightseeing",
    "duration_minutes": 120,
    "rating": 4.0,
    "lat": 30.657768,
    "lon": 104.040258,
    "description": "地址: 一环路西一段166号(青羊宫地铁站C口步行250米) | 类别: 商务住宅;楼宇;商务写字楼",
    "city": "成都"
  },
  {
    "name": "火车头广场",
    "category": "outdoor",
    "duration_minutes": 120,
    "rating": 4.0,
    "lat": 30.668202,
    "lon": 104.124609,
    "description": "电话: 13096395545 | 地址: 跳蹬河街道建设南支路1号东郊记忆内(东侧) | 类别: 风景名胜;公园广场;城市广场",
    "city": "成都"
  },
  {
    "name": "麓湖生态城红石公园",
    "category": "outdoor",
    "duration_minutes": 120,
    "rating": 4.0,
    "lat": 30.459281,
    "lon": 104.078571,
    "description": "地址: 麓湖生态城云树 | 类别: 风景名胜;风景名胜相关;旅游景点",
    "city": "成都"
  },
  {
    "name": "沙河公园(萃锦东路)",
    "category": "outdoor",
    "duration_minutes": 120,
    "rating": 4.0,
    "lat": 30.616618,
    "lon": 104.10833,
    "description": "电话: 028-83128995 | 地址: 观音桥街74号-附12号 | 类别: 风景名胜;公园广场;公园",
    "city": "成都"
  },
  {
    "name": "毛主席像",
    "category": "sightseeing",
    "duration_minutes": 120,
    "rating": 4.0,
    "lat": 30.658808,
    "lon": 104.065851,
    "description": "地址: 人民中路一段16号(天府广场地铁站出入口步行140米) | 类别: 风景名胜;风景名胜;观景点",
    "city": "成都"
  }
]