[
  {
    "name": "西园戒幢律寺",
    "category": "history",
    "duration_minutes": 120,
    "rating": 4.0,
    "lat": 31.314823,
    "lon": 120.587334,
    "description": "电话: 0512-65349545 | 地址: 留园路西园弄18号 | 类别: 风景名胜;风景名胜;寺庙道观",
    "city": "苏州"
  },
  {
    "name": "寒山寺",
    "category": "outdoor",
    "duration_minutes": 120,
    "rating": 4.0,
    "lat": 31.310469,
    "lon": 120.568391,
    "description": "电话: 0512-67236213 | 地址: 寒山寺弄24号 | 类别: 风景名胜;风景名胜;国家级景点",
    "city": "苏州"
  },
  {
    "name": "苏州市枫桥风景名胜区",
    "category": "history",
    "duration_minutes": 120,
    "rating": 4.0,
    "lat": 31.309475,
    "lon": 120.568304,
    "description": "电话: 0512-65320288;0512-65575100 | 地址: 枫桥路底(何山大桥东堍) | 类别: 风景名胜;风景名胜;省级景点",
    "city": "苏州"
  },
  {
    "name": "七里山塘景区",
    "category": "outdoor",
    "duration_minutes": 120,
    "rating": 4.0,
    "lat": 31.317059,
    "lon": 120.602105,
    "description": "电话: 0512-65314467 | 地址: 山塘街177号 | 类别: 风景名胜;风景名胜;国家级景点",
    "city": "苏州"
  },
  {
    "name": "留园",
    "category": "sightseeing",
    "duration_minutes": 120,
    "rating": 4.0,
    "lat": 31.315369,
    "lon": 120.59226,
    "description": "电话: 0512-962015 | 地址: 阊门外留园路338号 | 类别: 风景名胜;风景名胜;世界遗产",
    "city": "苏州"
  },
  {
    "name": "石路步行街",
    "category": "sightseeing",
    "duration_minutes": 120,
    "rating": 4.0,
    "lat": 31.312356,
    "lon": 120.601762,
    "description": "地址: 金门路158号协和大厦苏宁电器 | 类别: 购物服务;特色商业街;步行街",
    "city": "苏州"
  },
  {
    "name": "苏州园林",
    "category": "sightseeing",
    "duration_minutes": 120,
    "rating": 4.0,
    "lat": 31.324225,
    "lon": 120.629969,
    "description": "电话: 4009722963 | 地址: 东北街178号拙政园内(东侧) | 类别: 风景名胜;风景名胜;世界遗产|公司企业;公司;公司",
    "city": "苏州"
  },
  {
    "name": "虎丘山风景区",
    "category": "outdoor",
    "duration_minutes": 120,
    "rating": 4.0,
    "lat": 31.334584,
    "lon": 120.580016,
    "description": "电话: 0512-65323488 | 地址: 虎丘山门内8号 | 类别: 风景名胜;风景名胜;世界遗产",
    "city": "苏州"
  },
  {
    "name": "平江路",
    "category": "outdoor",
    "duration_minutes": 120,
    "rating": 4.0,
    "lat": 31.313969,
    "lon": 120.634556,
    "description": "电话: 0512-69163907 | 地址: 白塔东路65号 | 类别: 风景名胜;风景名胜;国家级景点|购物服务;特色商业街;特色商业街",
    "city": "苏州"
  },
  {
    "name": "唐少傅白公祠",
    "category": "history",
    "duration_minutes": 120,
    "rating": 4.0,
    "lat": 31.315369,
    "lon": 120.603717,
    "description": "地址: 山塘街18号白居易纪念苑内 | 类别: 风景名胜;风景名胜;寺庙道观",
    "city": "苏州"
  },
  {
    "name": "拙政园",
    "category": "sightseeing",
    "duration_minutes": 120,
    "rating": 4.0,
    "lat": 31.324194,
    "lon": 120.629211,
    "description": "地址: 东北街178号 | 类别: 风景名胜;风景名胜;国家级景点",
    "city": "苏州"
  },
  {
    "name": "盘门景区",
    "category": "sightseeing",
    "duration_minutes": 120,
    "rating": 4.0,
    "lat": 31.288477,
    "lon": 120.617335,
    "description": "电话: 0512-65260004;0512-65193054;12301 | 地址: 东大街49号(阊胥路苏州火柴厂旧址) | 类别: 风景名胜;风景名胜;国家级景点",
    "city": "苏州"
  },
  {
    "name": "观前街",
    "category": "sightseeing",
    "duration_minutes": 120,
    "rating": 4.0,
    "lat": 31.310624,
    "lon": 120.625637,
    "description": "地址: 观前(察院场地铁站2东南口步行410米) | 类别: 购物服务;特色商业街;特色商业街",
    "city": "苏州"
  },
  {
    "name": "苏州博物馆西馆",
    "category": "museum",
    "duration_minutes": 120,
    "rating": 4.0,
    "lat": 31.289366,
    "lon": 120.548055,
    "description": "电话: 0512-67571665 | 地址: 高新区长江路399号(狮子山地铁站3A口步行310米) | 类别: 科教文化服务;博物馆;博物馆",
    "city": "苏州"
  },
  {
    "name": "苏州博物馆(本馆)",
    "category": "museum",
    "duration_minutes": 120,
    "rating": 4.0,
    "lat": 31.322948,
    "lon": 120.627856,
    "description": "电话: 0512-67575666 | 地址: 东北街204号 | 类别: 科教文化服务;博物馆;博物馆",
    "city": "苏州"
  },
  {
    "name": "桐泾公园",
    "category": "outdoor",
    "duration_minutes": 120,
    "rating": 4.0,
    "lat": 31.282618,
    "lon": 120.602069,
    "description": "电话: 0512-68155027 | 地址: 桐泾南路1号 | 类别: 风景名胜;公园广场;公园",
    "city": "苏州"
  },
  {
    "name": "苏州市运河体育公园",
    "category": "outdoor",
    "duration_minutes": 120,
    "rating": 4.0,
    "lat": 31.299497,
    "lon": 120.573833,
    "description": "电话: 0512-68284307;0512-68662436 | 地址: 狮山桥北 | 类别: 风景名胜;公园广场;公园",
    "city": "苏州"
  },
  {
    "name": "艺圃",
    "category": "sightseeing",
    "duration_minutes": 120,
    "rating": 4.0,
    "lat": 31.313032,
    "lon": 120.608921,
    "description": "电话: 0512-962015 | 地址: 苏州园林 | 类别: 风景名胜;风景名胜;世界遗产",
    "city": "苏州"
  },
  {
    "name": "沧浪亭",
    "category": "sightseeing",
    "duration_minutes": 120,
    "rating": 4.0,
    "lat": 31.294656,
    "lon": 120.625746,
    "description": "电话: 0512-962015 | 地址: 苏州园林(三元坊地铁站2号东南口步行340米) | 类别: 风景名胜;风景名胜;世界遗产",
    "city": "苏州"
  },
  {
    "name": "狮子林",
    "category": "sightseeing",
    "duration_minutes": 120,
    "rating": 4.0,
    "lat": 31.321068,
    "lon": 120.629095,
    "description": "电话: 0512-67773263 | 地址: 园林路23号 | 类别: 风景名胜;风景名胜;国家级景点",
    "city": "苏州"
  },
  {
    "name": "苏州革命博物馆",
    "category": "museum",
    "duration_minutes": 120,
    "rating": 4.0,
    "lat": 31.297287,
    "lon": 120.580798,
    "description": "电话: 0512-68286732 | 地址: 三香路1216号(近体育中心) | 类别: 科教文化服务;博物馆;博物馆",
    "city": "苏州"
  },
  {
    "name": "天主堂",
    "category": "sightseeing",
    "duration_minutes": 120,
    "rating": 4.0,
    "lat": 31.298058,
    "lon": 120.581819,
    "description": "地址: 三香路1162号 | 类别: 风景名胜;风景名胜;教堂",
    "city": "苏州"
  },
  {
    "name": "七里山塘千年古街",
    "category": "outdoor",
    "duration_minutes": 120,
    "rating": 4.0,
    "lat": 31.314609,
    "lon": 120.60334,
    "description": "地址: 山塘街与上塘街交叉口西北20米 | 类别: 风景名胜;风景名胜;风景名胜",
    "city": "苏州"
  },
  {
    "name": "苏州市寒山寺-枫桥夜泊",
    "category": "outdoor",
    "duration_minutes": 120,
    "rating": 4.0,
    "lat": 31.310975,
    "lon": 120.56673,
    "description": "电话: 0512-67236213 | 地址: 枫桥寒山寺枫桥大街4号(寒山寺慈善中心西5米) | 类别: 风景名胜;风景名胜;风景名胜",
    "city": "苏州"
  },
  {
    "name": "阊门遗址",
    "category": "history",
    "duration_minutes": 120,
    "rating": 4.0,
    "lat": 31.315116,
    "lon": 120.6056,
    "description": "地址: 金阊街道阊胥路521号 | 类别: 风景名胜;风景名胜;风景名胜",
    "city": "苏州"
  },
  {
    "name": "定慧寺街",
    "category": "sightseeing",
    "duration_minutes": 120,
    "rating": 4.0,
    "lat": 31.306094,
    "lon": 120.632356,
    "description": "地址: 定慧寺巷139号(临顿路地铁站1号口步行320米) | 类别: 购物服务;特色商业街;特色商业街",
    "city": "苏州"
  },
  {
    "name": "网师园",
    "category": "sightseeing",
    "duration_minutes": 120,
    "rating": 4.0,
    "lat": 31.298075,
    "lon": 120.63377,
    "description": "电话: 0512-962015 | 地址: 带城桥路阔家头巷11号 | 类别: 风景名胜;风景名胜;国家级景点",
    "city": "苏州"
  },
  {
    "name": "山塘街白居易码头游船",
    "category": "outdoor",
    "duration_minutes": 120,
    "rating": 4.0,
    "lat": 31.315316,
    "lon": 120.604131,
    "description": "电话: 0512-65355503 | 地址: 唐少傅白公祠内(东侧) | 类别: 风景名胜;风景名胜相关;旅游景点",
    "city": "苏州"
  },
  {
    "name": "怡园",
    "category": "sightseeing",
    "duration_minutes": 120,
    "rating": 4.0,
    "lat": 31.307521,
    "lon": 120.621266,
    "description": "电话: 0512-65249317 | 地址: 人民路1265号 | 类别: 风景名胜;风景名胜;风景名胜",
    "city": "苏州"
  },
  {
    "name": "天平山风景名胜区",
    "category": "outdoor",
    "duration_minutes": 120,
    "rating": 4.0,
    "lat": 31.287304,
    "lon": 120.504155,
    "description": "电话: 0512-66261382 | 地址: 木渎镇灵天路 | 类别: 风景名胜;风景名胜;国家级景点",
    "city": "苏州"
  },
  {
    "name": "天都广场",
    "category": "sightseeing",
    "duration_minutes": 120,
    "rating": 4.0,
    "lat": 31.282827,
    "lon": 120.549054,
    "description": "地址: 长江路与竹园路交叉口西北280米 | 类别: 购物服务;商场;购物中心",
    "city": "苏州"
  },
  {
    "name": "三香广场",
    "category": "outdoor",
    "duration_minutes": 120,
    "rating": 4.0,
    "lat": 31.297827,
    "lon": 120.59797,
    "description": "电话: 13205117567 | 地址: 三香路353号(雅都大酒店对面) | 类别: 风景名胜;公园广场;公园广场",
    "city": "苏州"
  },
  {
    "name": "苏州市桂花公园",
    "category": "outdoor",
    "duration_minutes": 120,
    "rating": 4.0,
    "lat": 31.291563,
    "lon": 120.642676,
    "description": "地址: 竹辉路1号(竹辉桥地铁站1西南口步行470米) | 类别: 风景名胜;公园广场;公园",
    "city": "苏州"
  },
  {
    "name": "环秀山庄",
    "category": "outdoor",
    "duration_minutes": 120,
    "rating": 4.0,
    "lat": 31.310945,
    "lon": 120.613522,
    "description": "电话: 0512-65816805 | 地址: 苏州园林 | 类别: 风景名胜;风景名胜;风景名胜",
    "city": "苏州"
  },
  {
    "name": "苏州桃花坞历史文化片区",
    "category": "sightseeing",
    "duration_minutes": 120,
    "rating": 4.0,
    "lat": 31.322761,
    "lon": 120.612645,
    "description": "地址: 廖家巷28号唐寅文化区(江苏省纺织工业设计研究院对面) | 类别: 风景名胜;风景名胜相关;旅游景点",
    "city": "苏州"
  },
  {
    "name": "虎丘湿地公园",
    "category": "outdoor",
    "duration_minutes": 120,
    "rating": 4.0,
    "lat": 31.365051,
    "lon": 120.571201,
    "description": "电话: 0512-65292021 | 地址: 阳澄湖西路1800号 | 类别: 风景名胜;风景名胜;风景名胜",
    "city": "苏州"
  },
  {
    "name": "苏州公园",
    "category": "outdoor",
    "duration_minutes": 120,
    "rating": 4.0,
    "lat": 31.304485,
    "lon": 120.627537,
    "description": "电话: 0512-65233549 | 地址: 民治路258号(临顿路地铁站1号口步行380米) | 类别: 风景名胜;公园广场;公园",
    "city": "苏州"
  },
  {
    "name": "姑苏·69阁文化创意产业园",
    "category": "sightseeing",
    "duration_minutes": 120,
    "rating": 4.0,
    "lat": 31.294126,
    "lon": 120.60922,
    "description": "地址: 盘胥路859号(新市桥地铁站3西北口步行480米) | 类别: 商务住宅;产业园区;产业园区",
    "city": "苏州"
  },
  {
    "name": "狮山文化广场",
    "category": "outdoor",
    "duration_minutes": 120,
    "rating": 4.0,
    "lat": 31.290714,
    "lon": 120.54431,
    "description": "地址: 狮山路长江路交叉口 | 类别: 风景名胜;公园广场;城市广场",
    "city": "苏州"
  },
  {
    "name": "石湖景区",
    "category": "outdoor",
    "duration_minutes": 120,
    "rating": 4.0,
    "lat": 31.242582,
    "lon": 120.597414,
    "description": "电话: 0512-65646668;0512-68230300 | 地址: 友新高架出口处 | 类别: 风景名胜;风景名胜;风景名胜",
    "city": "苏州"
  },
  {
    "name": "耦园",
    "category": "sightseeing",
    "duration_minutes": 120,
    "rating": 4.0,
    "lat": 31.31623,
    "lon": 120.63835,
    "description": "电话: 0512-67272717;0512-67272722 | 地址: 苏州园林 | 类别: 风景名胜;风景名胜;世界遗产",
    "city": "苏州"
  },
  {
    "name": "定慧寺",
    "category": "history",
    "duration_minutes": 120,
    "rating": 4.0,
    "lat": 31.307083,
    "lon": 120.632646,
    "description": "电话: 18550258069 | 地址: 定慧寺巷118号(临顿路地铁站1号口步行390米) | 类别: 风景名胜;风景名胜;寺庙道观",
    "city": "苏州"
  },
  {
    "name": "狮山公园",
    "category": "outdoor",
    "duration_minutes": 120,
    "rating": 4.0,
    "lat": 31.293849,
    "lon": 120.547794,
    "description": "地址: 长江路与狮山路交叉口西北180米 | 类别: 风景名胜;公园广场;公园",
    "city": "苏州"
  },
  {
    "name": "玄妙广场",
    "category": "sightseeing",
    "duration_minutes": 120,
    "rating": 4.0,
    "lat": 31.308086,
    "lon": 120.626084,
    "description": "地址: 观前街道干将东路818号 | 类别: 购物服务;商场;购物中心",
    "city": "苏州"
  },
  {
    "name": "唐寅故居文化区",
    "category": "sightseeing",
    "duration_minutes": 120,
    "rating": 4.0,
    "lat": 31.322351,
    "lon": 120.613603,
    "description": "地址: 桃花坞历史文化片区 | 类别: 风景名胜;风景名胜;风景名胜",
    "city": "苏州"
  },
  {
    "name": "苏州上方山国家森林公园",
    "category": "outdoor",
    "duration_minutes": 120,
    "rating": 4.0,
    "lat": 31.245575,
    "lon": 120.583049,
    "description": "电话: 0512-68230800;0512-68231404 | 地址: 上方山行春桥吴越路57号 | 类别: 风景名胜;风景名胜;国家级景点",
    "city": "苏州"
  },
  {
    "name": "何山公园",
    "category": "outdoor",
    "duration_minutes": 120,
    "rating": 4.0,
    "lat": 31.30257,
    "lon": 120.542054,
    "description": "电话: 0512-66616942 | 地址: 长江路461号 | 类别: 风景名胜;风景名胜;省级景点",
    "city": "苏州"
  },
  {
    "name": "虎丘塔",
    "category": "history",
    "duration_minutes": 120,
    "rating": 4.0,
    "lat": 31.335827,
    "lon": 120.580553,
    "description": "电话: 0512-65323488 | 地址: 虎丘街道山门内8号虎丘山风景名胜区内 | 类别: 风景名胜;风景名胜;风景名胜",
    "city": "苏州"
  },
  {
    "name": "山塘街",
    "category": "outdoor",
    "duration_minutes": 120,
    "rating": 4.0,
    "lat": 31.323675,
    "lon": 120.594426,
    "description": "电话: 0512-65314467 | 地址: 北环快速路与北环快速路入口交叉口东南200米 | 类别: 风景名胜;风景名胜相关;旅游景点",
    "city": "苏州"
  },
  {
    "name": "上方山森林动物世界",
    "category": "outdoor",
    "duration_minutes": 120,
    "rating": 4.0,
    "lat": 31.238321,
    "lon": 120.582076,
    "description": "电话: 0512-68189818;0512-68189820;0512-68189838 | 地址: 吴越路南200米 | 类别: 风景名胜;公园广场;动物园",
    "city": "苏州"
  },
  {
    "name": "双塔",
    "category": "history",
    "duration_minutes": 120,
    "rating": 4.0,
    "lat": 31.306689,
    "lon": 120.633892,
    "description": "电话: 0512-65227778 | 地址: 定慧寺巷罗汉院双塔及正殿遗址 | 类别: 风景名胜;风景名胜;风景名胜",
    "city": "苏州"
  },
  {
    "name": "东园",
    "category": "outdoor",
    "duration_minutes": 120,
    "rating": 4.0,
    "lat": 31.320822,
    "lon": 120.638839,
    "description": "电话: 0512-67272717;0512-67272722 | 地址: 白塔东路1号 | 类别: 风景名胜;公园广场;公园",
    "city": "苏州"
  },
  {
    "name": "玄妙观",
    "category": "history",
    "duration_minutes": 120,
    "rating": 4.0,
    "lat": 31.31196,
    "lon": 120.626314,
    "description": "电话: 0512-67775479;0512-67276616 | 地址: 观前街94号(悬桥巷地铁站出入口步行440米) | 类别: 风景名胜;风景名胜;寺庙道观",
    "city": "苏州"
  },
  {
    "name": "苏州丝绸博物馆",
    "category": "museum",
    "duration_minutes": 120,
    "rating": 4.0,
    "lat": 31.322841,
    "lon": 120.618228,
    "description": "电话: 0512-67536506 | 地址: 人民路2001号 | 类别: 科教文化服务;博物馆;博物馆",
    "city": "苏州"
  },
  {
    "name": "美地PARK广场",
    "category": "sightseeing",
    "duration_minutes": 120,
    "rating": 4.0,
    "lat": 31.282997,
    "lon": 120.626795,
    "description": "地址: 人民路148号 | 类别: 商务住宅;楼宇;商务写字楼|购物服务;综合市场;综合市场",
    "city": "苏州"
  },
  {
    "name": "百花洲公园(百花洲)",
    "category": "outdoor",
    "duration_minutes": 120,
    "rating": 4.0,
    "lat": 31.295719,
    "lon": 120.612469,
    "description": "地址: 沧浪街道百花洲西大街105号(近学士街) | 类别: 风景名胜;公园广场;公园",
    "city": "苏州"
  },
  {
    "name": "苏州文庙",
    "category": "history",
    "duration_minutes": 120,
    "rating": 4.0,
    "lat": 31.295298,
    "lon": 120.623381,
    "description": "电话: 0512-65197203 | 地址: 沧浪街道人民路613号(沧浪亭西南角) | 类别: 风景名胜;风景名胜;寺庙道观",
    "city": "苏州"
  },
  {
    "name": "城隍庙",
    "category": "history",
    "duration_minutes": 120,
    "rating": 4.0,
    "lat": 31.311501,
    "lon": 120.618903,
    "description": "电话: 0512-65155897 | 地址: 景德路94号(察院场地铁站1A西南口步行230米) | 类别: 风景名胜;风景名胜;寺庙道观",
    "city": "苏州"
  },
  {
    "name": "木渎古镇",
    "category": "sightseeing",
    "duration_minutes": 120,
    "rating": 4.0,
    "lat": 31.2524,
    "lon": 120.512068,
    "description": "电话: 0512-66514042;0512-66561218 | 地址: 木渎镇山塘街188号 | 类别: 风景名胜;风景名胜;国家级景点",
    "city": "苏州"
  },
  {
    "name": "石湖公园",
    "category": "outdoor",
    "duration_minutes": 120,
    "rating": 4.0,
    "lat": 31.253389,
    "lon": 120.600637,
    "description": "电话: 0512-65646668 | 地址: 石湖西路与友新路交叉口西280米 | 类别: 体育休闲服务;休闲场所;游乐场",
    "city": "苏州"
  },
  {
    "name": "苏州御窑遗址园",
    "category": "museum",
    "duration_minutes": 120,
    "rating": 4.0,
    "lat": 31.361302,
    "lon": 120.612421,
    "description": "电话: 0512-66182178 | 地址: 阳澄湖西路95号(御窑地铁站1号口步行110米) | 类别: 风景名胜;风景名胜;风景名胜|科教文化服务;博物馆;博物馆",
    "city": "苏州"
  },
  {
    "name": "东汇",
    "category": "outdoor",
    "duration_minutes": 120,
    "rating": 4.0,
    "lat": 31.331826,
    "lon": 120.632695,
    "description": "地址: 挹秀巷16号正西方向130米 | 类别: 风景名胜;公园广场;公园",
    "city": "苏州"
  },
  {
    "name": "阳澄湖半岛旅游度假",
    "category": "outdoor",
    "duration_minutes": 120,
    "rating": 4.0,
    "lat": 31.351117,
    "lon": 120.659469,
    "description": "电话: 0512-67338623 | 地址: 阳澄湖环路999号阳澄湖半岛星华街游客中心 | 类别: 体育休闲服务;度假疗养场所;度假村|风景名胜;风景名胜相关;旅游景点",
    "city": "苏州"
  },
  {
    "name": "可园",
    "category": "sightseeing",
    "duration_minutes": 120,
    "rating": 4.0,
    "lat": 31.295432,
    "lon": 120.625003,
    "description": "电话: 0512-962015 | 地址: 城南三元坊(人民路708号) | 类别: 风景名胜;风景名胜;风景名胜",
    "city": "苏州"
  },
  {
    "name": "平江历史街区-尚堂弄",
    "category": "outdoor",
    "duration_minutes": 120,
    "rating": 4.0,
    "lat": 31.315127,
    "lon": 120.633177,
    "description": "地址: 平江路与悬桥巷交叉口西50米 | 类别: 风景名胜;风景名胜相关;旅游景点",
    "city": "苏州"
  },
  {
    "name": "苏州市枫桥风景名胜区-寒山钟苑",
    "category": "outdoor",
    "duration_minutes": 120,
    "rating": 4.0,
    "lat": 31.308801,
    "lon": 120.569181,
    "description": "电话: 0512-65332689 | 地址: 金阊街道枫桥大街28-18号 | 类别: 风景名胜;风景名胜相关;旅游景点",
    "city": "苏州"
  },
  {
    "name": "苏纶文创园",
    "category": "sightseeing",
    "duration_minutes": 120,
    "rating": 4.0,
    "lat": 31.285785,
    "lon": 120.622929,
    "description": "电话: 0512-65309993;0512-67873628 | 地址: 人民路239号(人民桥南地铁站4号西北口步行370米) | 类别: 购物服务;特色商业街;特色商业街",
    "city": "苏州"
  },
  {
    "name": "曲园",
    "category": "sightseeing",
    "duration_minutes": 120,
    "rating": 4.0,
    "lat": 31.30921,
    "lon": 120.618452,
    "description": "地址: 平江街道马医科1号 | 类别: 风景名胜;风景名胜;风景名胜",
    "city": "苏州"
  },
  {
    "name": "新区公园",
    "category": "outdoor",
    "duration_minutes": 120,
    "rating": 4.0,
    "lat": 31.302275,
    "lon": 120.537829,
    "description": "地址: 何山路279号 | 类别: 风景名胜;公园广场;公园",
    "city": "苏州"
  },
  {
    "name": "畅园",
    "category": "sightseeing",
    "duration_minutes": 120,
    "rating": 4.0,
    "lat": 31.303177,
    "lon": 120.614624,
    "description": "地址: 庙堂巷22-1、23 | 类别: 风景名胜;风景名胜;风景名胜",
    "city": "苏州"
  },
  {
    "name": "苏州考古博物馆",
    "category": "museum",
    "duration_minutes": 120,
    "rating": 4.0,
    "lat": 31.255807,
    "lon": 120.592787,
    "description": "地址: 越堤路321号 | 类别: 科教文化服务;博物馆;博物馆",
    "city": "苏州"
  },
  {
    "name": "天狮公园",
    "category": "outdoor",
    "duration_minutes": 120,
    "rating": 4.0,
    "lat": 31.294113,
    "lon": 120.560966,
    "description": "地址: 狮山路68号(狮山路地铁站2东南口步行360米) | 类别: 风景名胜;公园广场;公园",
    "city": "苏州"
  },
  {
    "name": "五峰园",
    "category": "sightseeing",
    "duration_minutes": 120,
    "rating": 4.0,
    "lat": 31.317127,
    "lon": 120.609836,
    "description": "电话: 0512-67275866 | 地址: 五峰园弄15号 | 类别: 风景名胜;风景名胜;风景名胜",
    "city": "苏州"
  },
  {
    "name": "娄门",
    "category": "sightseeing",
    "duration_minutes": 120,
    "rating": 4.0,
    "lat": 31.325022,
    "lon": 120.639582,
    "description": "地址: 东北街12号附近 | 类别: 风景名胜;风景名胜;风景名胜",
    "city": "苏州"
  },
  {
    "name": "西园寺-山门殿",
    "category": "history",
    "duration_minutes": 120,
    "rating": 4.0,
    "lat": 31.313267,
    "lon": 120.587797,
    "description": "电话: 0512-65349545 | 地址: 枫桥路戒幢律寺 | 类别: 风景名胜;风景名胜;寺庙道观",
    "city": "苏州"
  },
  {
    "name": "唐寅园",
    "category": "sightseeing",
    "duration_minutes": 120,
    "rating": 4.0,
    "lat": 31.277372,
    "lon": 120.59219,
    "description": "电话: 0512-68201200 | 地址: 解放西路146号 | 类别: 风景名胜;风景名胜;世界遗产",
    "city": "苏州"
  },
  {
    "name": "广济公园",
    "category": "outdoor",
    "duration_minutes": 120,
    "rating": 4.0,
    "lat": 31.316217,
    "lon": 120.598375,
    "description": "地址: 广济路与西杨安浜交叉口西150米 | 类别: 风景名胜;公园广场;公园",
    "city": "苏州"
  },
  {
    "name": "七狸香花园",
    "category": "sightseeing",
    "duration_minutes": 120,
    "rating": 4.0,
    "lat": 31.335401,
    "lon": 120.576287,
    "description": "地址: 海涌山路与金姬墩路交界处东50米 | 类别: 风景名胜;风景名胜;风景名胜",
    "city": "苏州"
  },
  {
    "name": "占鱼墩",
    "category": "outdoor",
    "duration_minutes": 120,
    "rating": 4.0,
    "lat": 31.314328,
    "lon": 120.603972,
    "description": "地址: 南浩街746号旁(石路地铁站12号口步行420米) | 类别: 风景名胜;公园广场;公园",
    "city": "苏州"
  },
  {
    "name": "柴园",
    "category": "sightseeing",
    "duration_minutes": 120,
    "rating": 4.0,
    "lat": 31.300712,
    "lon": 120.629598,
    "description": "电话: 0512-65231558 | 地址: 醋库巷44号 | 类别: 风景名胜;风景名胜;风景名胜",
    "city": "苏州"
  },
  {
    "name": "水上杉林",
    "category": "sightseeing",
    "duration_minutes": 120,
    "rating": 4.0,
    "lat": 31.359261,
    "lon": 120.573697,
    "description": "地址: 阳澄湖西路1800号虎丘湿地公园 | 类别: 风景名胜;风景名胜;风景名胜",
    "city": "苏州"
  },
  {
    "name": "报恩寺",
    "category": "history",
    "duration_minutes": 120,
    "rating": 4.0,
    "lat": 31.322737,
    "lon": 120.619753,
    "description": "地址: 观前街道人民路1918号(北寺塔地铁站4号东北口旁) | 类别: 风景名胜;风景名胜;纪念馆",
    "city": "苏州"
  },
  {
    "name": "胥门",
    "category": "sightseeing",
    "duration_minutes": 120,
    "rating": 4.0,
    "lat": 31.297378,
    "lon": 120.612512,
    "description": "电话: 13906132607 | 地址: 百花洲99号 | 类别: 风景名胜;风景名胜;风景名胜",
    "city": "苏州"
  },
  {
    "name": "白马涧龙池风景区",
    "category": "sightseeing",
    "duration_minutes": 120,
    "rating": 4.0,
    "lat": 31.294789,
    "lon": 120.494368,
    "description": "电话: 0512-66627912;0512-66658111;0512-66658711 | 地址: 苏州市新区华山路往西白马涧生态园 | 类别: 风景名胜;风景名胜;国家级景点",
    "city": "苏州"
  },
  {
    "name": "古运河夜游",
    "category": "sightseeing",
    "duration_minutes": 120,
    "rating": 4.0,
    "lat": 31.291771,
    "lon": 120.611608,
    "description": "电话: 0512-68150770;0512-68152152 | 地址: 盘胥路798号新市桥北侧 | 类别: 风景名胜;风景名胜;风景名胜",
    "city": "苏州"
  },
  {
    "name": "旺山景区",
    "category": "outdoor",
    "duration_minutes": 120,
    "rating": 4.0,
    "lat": 31.215651,
    "lon": 120.550366,
    "description": "电话: 0512-66300333;0512-66306102 | 地址: 吴中大道 | 类别: 风景名胜;风景名胜;国家级景点",
    "city": "苏州"
  },
  {
    "name": "横山公园",
    "category": "outdoor",
    "duration_minutes": 120,
    "rating": 4.0,
    "lat": 31.273565,
    "lon": 120.57512,
    "description": "地址: 滨河路87号(横山地铁站1东南口步行240米) | 类别: 风景名胜;公园广场;公园",
    "city": "苏州"
  },
  {
    "name": "澹台湖公园",
    "category": "outdoor",
    "duration_minutes": 120,
    "rating": 4.0,
    "lat": 31.258965,
    "lon": 120.647243,
    "description": "地址: 太湖东路363号 | 类别: 风景名胜;公园广场;公园",
    "city": "苏州"
  },
  {
    "name": "凤凰广场",
    "category": "sightseeing",
    "duration_minutes": 120,
    "rating": 4.0,
    "lat": 31.265791,
    "lon": 120.629319,
    "description": "电话: 0512-67071911 | 地址: 东吴北路66号(宝带路地铁站3东南口旁) | 类别: 购物服务;商场;购物中心",
    "city": "苏州"
  },
  {
    "name": "石湖-滨湖景区",
    "category": "outdoor",
    "duration_minutes": 120,
    "rating": 4.0,
    "lat": 31.22766,
    "lon": 120.607308,
    "description": "电话: 0512-65646668 | 地址: 石湖景区(石湖莫舍地铁站3号东北口步行470米) | 类别: 风景名胜;风景名胜;风景名胜",
    "city": "苏州"
  },
  {
    "name": "蓝·SPORT文化创意产业园(苏州·盘胥路)",
    "category": "sightseeing",
    "duration_minutes": 120,
    "rating": 4.0,
    "lat": 31.28181,
    "lon": 120.612899,
    "description": "地址: 盘胥路188号 | 类别: 商务住宅;产业园区;产业园区",
    "city": "苏州"
  },
  {
    "name": "苏州乐园森林世界",
    "category": "outdoor",
    "duration_minutes": 120,
    "rating": 4.0,
    "lat": 31.323242,
    "lon": 120.477035,
    "description": "电话: 0512-68717155;0512-68717166 | 地址: 高新区象山路99号 | 类别: 风景名胜;风景名胜相关;旅游景点",
    "city": "苏州"
  },
  {
    "name": "报恩寺塔",
    "category": "history",
    "duration_minutes": 120,
    "rating": 4.0,
    "lat": 31.32235,
    "lon": 120.619574,
    "description": "地址: 平江街道人民路1918号 | 类别: 风景名胜;风景名胜相关;旅游景点",
    "city": "苏州"
  },
  {
    "name": "唐寅故居文化区唐寅故居遗址",
    "category": "history",
    "duration_minutes": 120,
    "rating": 4.0,
    "lat": 31.323196,
    "lon": 120.61384,
    "description": "地址: 金阊街道桃花坞 | 类别: 风景名胜;风景名胜;风景名胜",
    "city": "苏州"
  },
  {
    "name": "相门古城墙",
    "category": "history",
    "duration_minutes": 120,
    "rating": 4.0,
    "lat": 31.312978,
    "lon": 120.640261,
    "description": "地址: 干将东路(相门地铁站2号口步行150米) | 类别: 风景名胜;风景名胜;风景名胜",
    "city": "苏州"
  },
  {
    "name": "灵岩山景区",
    "category": "outdoor",
    "duration_minutes": 120,
    "rating": 4.0,
    "lat": 31.264014,
    "lon": 120.499748,
    "description": "地址: 木渎古镇山塘街市梢(近灵山路)木渎镇西北 | 类别: 风景名胜;风景名胜;风景名胜",
    "city": "苏州"
  },
  {
    "name": "江苏按察使署旧址",
    "category": "outdoor",
    "duration_minutes": 120,
    "rating": 4.0,
    "lat": 31.300856,
    "lon": 120.6153,
    "description": "地址: 沧浪街道道前街170号 | 类别: 风景名胜;风景名胜相关;旅游景点",
    "city": "苏州"
  },
  {
    "name": "太平坊清真寺(装修中)",
    "category": "sightseeing",
    "duration_minutes": 120,
    "rating": 4.0,
    "lat": 31.311341,
    "lon": 120.603037,
    "description": "电话: 0512-65334325 | 地址: 文化用品大厦旁 | 类别: 风景名胜;风景名胜;回教寺",
    "city": "苏州"
  },
  {
    "name": "寿桃湖风景区",
    "category": "outdoor",
    "duration_minutes": 120,
    "rating": 4.0,
    "lat": 31.282595,
    "lon": 120.511269,
    "description": "地址: 木渎镇桃湖路 | 类别: 风景名胜;风景名胜;风景名胜",
    "city": "苏州"
  },
  {
    "name": "东吴塔",
    "category": "history",
    "duration_minutes": 120,
    "rating": 4.0,
    "lat": 31.262127,
    "lon": 120.629281,
    "description": "地址: 东吴北路长桥桥堍 | 类别: 科教文化服务;传媒机构;电视台",
    "city": "苏州"
  },
  {
    "name": "山塘桥",
    "category": "outdoor",
    "duration_minutes": 120,
    "rating": 4.0,
    "lat": 31.316021,
    "lon": 120.603614,
    "description": "电话: 0512-65314467 | 地址: 山塘街177号七里山塘景区 | 类别: 风景名胜;风景名胜相关;旅游景点",
    "city": "苏州"
  },
  {
    "name": "姑苏网红墙",
    "category": "sightseeing",
    "duration_minutes": 120,
    "rating": 4.0,
    "lat": 31.310685,
    "lon": 120.596208,
    "description": "地址: 枫桥路华贸·姑苏里 | 类别: 风景名胜;风景名胜;风景名胜",
    "city": "苏州"
  },
  {
    "name": "苏州古运河",
    "category": "sightseeing",
    "duration_minutes": 120,
    "rating": 4.0,
    "lat": 31.29172,
    "lon": 120.611501,
    "description": "电话: 0512-68150770 | 地址: 盘胥路古运河码头(新市桥地铁站2东北口步行150米) | 类别: 风景名胜;风景名胜;风景名胜",
    "city": "苏州"
  },
  {
    "name": "金鸡湖音乐喷泉",
    "category": "outdoor",
    "duration_minutes": 120,
    "rating": 4.0,
    "lat": 31.318664,
    "lon": 120.683342,
    "description": "电话: 4007558558 | 地址: 金鸡湖湖西(东方之门地铁站8东北口步行490米) | 类别: 风景名胜;风景名胜相关;旅游景点",
    "city": "苏州"
  },
  {
    "name": "江枫桥码头",
    "category": "outdoor",
    "duration_minutes": 120,
    "rating": 4.0,
    "lat": 31.31144,
    "lon": 120.573463,
    "description": "电话: 0512-67236980 | 地址: 枫桥路61号 | 类别: 风景名胜;风景名胜相关;旅游景点|交通设施服务;交通服务相关;交通服务相关",
    "city": "苏州"
  },
  {
    "name": "三香公园",
    "category": "outdoor",
    "duration_minutes": 120,
    "rating": 4.0,
    "lat": 31.299752,
    "lon": 120.604282,
    "description": "地址: 三香路108-1号(三香公园对面) | 类别: 风景名胜;公园广场;公园",
    "city": "苏州"
  },
  {
    "name": "苏州市吴中太湖旅游区",
    "category": "outdoor",
    "duration_minutes": 120,
    "rating": 4.0,
    "lat": 31.237324,
    "lon": 120.44673,
    "description": "电话: 0512-66555665 | 地址: 东山镇湖滨路8号 | 类别: 风景名胜;风景名胜;国家级景点",
    "city": "苏州"
  },
  {
    "name": "苏州园林博物馆",
    "category": "museum",
    "duration_minutes": 120,
    "rating": 4.0,
    "lat": 31.323113,
    "lon": 120.629196,
    "description": "地址: 东北街202号 | 类别: 科教文化服务;博物馆;博物馆",
    "city": "苏州"
  },
  {
    "name": "活力岛",
    "category": "outdoor",
    "duration_minutes": 120,
    "rating": 4.0,
    "lat": 31.368679,
    "lon": 120.611242,
    "description": "地址: 华元路 | 类别: 风景名胜;公园广场;城市广场",
    "city": "苏州"
  },
  {
    "name": "苏州状元博物馆",
    "category": "museum",
    "duration_minutes": 120,
    "rating": 4.0,
    "lat": 31.310478,
    "lon": 120.630649,
    "description": "地址: 平江街道平江街道钮家巷3号 | 类别: 科教文化服务;博物馆;博物馆",
    "city": "苏州"
  },
  {
    "name": "尹山湖歌林公园",
    "category": "outdoor",
    "duration_minutes": 120,
    "rating": 4.0,
    "lat": 31.245014,
    "lon": 120.703271,
    "description": "电话: 0512-85550006 | 地址: 清禾路888号 | 类别: 购物服务;商场;商场",
    "city": "苏州"
  },
  {
    "name": "苏州古城之巅观景台",
    "category": "history",
    "duration_minutes": 120,
    "rating": 4.0,
    "lat": 31.314229,
    "lon": 120.603075,
    "description": "地址: 阊胥路795号(石路地铁站12号口步行390米) | 类别: 风景名胜;风景名胜;观景点",
    "city": "苏州"
  },
  {
    "name": "铁铃关",
    "category": "sightseeing",
    "duration_minutes": 120,
    "rating": 4.0,
    "lat": 31.310831,
    "lon": 120.567154,
    "description": "电话: 0512-65575100 | 地址: 枫桥堍铁铃关(近寒山寺) | 类别: 风景名胜;风景名胜;风景名胜",
    "city": "苏州"
  },
  {
    "name": "索山公园",
    "category": "outdoor",
    "duration_minutes": 120,
    "rating": 4.0,
    "lat": 31.291767,
    "lon": 120.55124,
    "description": "地址: 苏州高新区狮山路(狮子山地铁站3B口步行220米) | 类别: 风景名胜;公园广场;公园",
    "city": "苏州"
  },
  {
    "name": "虎丘山风景区虎丘剑池",
    "category": "outdoor",
    "duration_minutes": 120,
    "rating": 4.0,
    "lat": 31.335412,
    "lon": 120.580632,
    "description": "电话: 0512-65323488;0512-67232305 | 地址: 山门内8号虎丘山风景区 | 类别: 风景名胜;风景名胜相关;旅游景点",
    "city": "苏州"
  },
  {
    "name": "天池山",
    "category": "outdoor",
    "duration_minutes": 120,
    "rating": 4.0,
    "lat": 31.290117,
    "lon": 120.477562,
    "description": "电话: 0512-66246498;0512-66241774 | 地址: 藏书镇天池村306号 | 类别: 风景名胜;风景名胜;国家级景点",
    "city": "苏州"
  },
  {
    "name": "苏州恋爱博物馆(平江路店)",
    "category": "museum",
    "duration_minutes": 120,
    "rating": 4.0,
    "lat": 31.317391,
    "lon": 120.632649,
    "description": "电话: 18112663588 | 地址: 平江路曹胡徐巷87-1(公共厕所旁) | 类别: 科教文化服务;博物馆;博物馆",
    "city": "苏州"
  },
  {
    "name": "苏州烈士陵园",
    "category": "sightseeing",
    "duration_minutes": 120,
    "rating": 4.0,
    "lat": 31.269003,
    "lon": 120.569366,
    "description": "电话: 0512-68231730 | 地址: 青石路5号 | 类别: 生活服务;丧葬设施;陵园",
    "city": "苏州"
  },
  {
    "name": "穹窿山景区",
    "category": "outdoor",
    "duration_minutes": 120,
    "rating": 4.0,
    "lat": 31.255619,
    "lon": 120.432259,
    "description": "电话: 0512-66245716 | 地址: 藏书镇兵圣路穹窿山麓 | 类别: 风景名胜;风景名胜;国家级景点",
    "city": "苏州"
  },
  {
    "name": "白洋湾公园",
    "category": "outdoor",
    "duration_minutes": 120,
    "rating": 4.0,
    "lat": 31.339004,
    "lon": 120.566152,
    "description": "地址: 312国道 | 类别: 风景名胜;公园广场;公园",
    "city": "苏州"
  },
  {
    "name": "平门",
    "category": "sightseeing",
    "duration_minutes": 120,
    "rating": 4.0,
    "lat": 31.32636,
    "lon": 120.610956,
    "description": "地址: 平四路与廖家巷交叉口西北20米 | 类别: 风景名胜;风景名胜;风景名胜",
    "city": "苏州"
  },
  {
    "name": "中共苏州独立支部旧址",
    "category": "history",
    "duration_minutes": 120,
    "rating": 4.0,
    "lat": 31.302402,
    "lon": 120.62582,
    "description": "电话: 0512-67701925 | 地址: 体育场路4号 | 类别: 风景名胜;风景名胜;纪念馆",
    "city": "苏州"
  },
  {
    "name": "大阳山翡翠湖",
    "category": "outdoor",
    "duration_minutes": 120,
    "rating": 4.0,
    "lat": 31.352635,
    "lon": 120.454047,
    "description": "地址: 通安镇青峰村 | 类别: 风景名胜;风景名胜;风景名胜",
    "city": "苏州"
  },
  {
    "name": "中央公园",
    "category": "outdoor",
    "duration_minutes": 120,
    "rating": 4.0,
    "lat": 31.314102,
    "lon": 120.662274,
    "description": "地址: 工业园区星明街海关大楼旁 | 类别: 风景名胜;公园广场;公园",
    "city": "苏州"
  },
  {
    "name": "李公堤",
    "category": "sightseeing",
    "duration_minutes": 120,
    "rating": 4.0,
    "lat": 31.299976,
    "lon": 120.696997,
    "description": "电话: 0512-66966777 | 地址: 李公堤南地铁站3西北口步行380米 | 类别: 风景名胜;风景名胜相关;旅游景点",
    "city": "苏州"
  },
  {
    "name": "江苏大阳山国家森林公园",
    "category": "outdoor",
    "duration_minutes": 120,
    "rating": 4.0,
    "lat": 31.343134,
    "lon": 120.466966,
    "description": "电话: 0512-66163111 | 地址: 山神湾路8号 | 类别: 风景名胜;风景名胜;风景名胜",
    "city": "苏州"
  },
  {
    "name": "苏州吴文化博物馆",
    "category": "museum",
    "duration_minutes": 120,
    "rating": 4.0,
    "lat": 31.253742,
    "lon": 120.648596,
    "description": "电话: 0512-65655999 | 地址: 澹台街9号 | 类别: 科教文化服务;博物馆;博物馆",
    "city": "苏州"
  },
  {
    "name": "观前公园",
    "category": "outdoor",
    "duration_minutes": 120,
    "rating": 4.0,
    "lat": 31.308894,
    "lon": 120.625059,
    "description": "地址: 富仁坊巷新埃及城时尚百货附近 | 类别: 风景名胜;公园广场;公园",
    "city": "苏州"
  },
  {
    "name": "树山生态村",
    "category": "outdoor",
    "duration_minutes": 120,
    "rating": 4.0,
    "lat": 31.362525,
    "lon": 120.465733,
    "description": "电话: 0512-66060119;0512-66060116 | 地址: 兴贤路 | 类别: 风景名胜;风景名胜;风景名胜",
    "city": "苏州"
  },
  {
    "name": "苏州市枫桥风景名胜区-寒山寺钟楼",
    "category": "outdoor",
    "duration_minutes": 120,
    "rating": 4.0,
    "lat": 31.308586,
    "lon": 120.569324,
    "description": "电话: 0512-65332689 | 地址: 金阊街道枫桥大街28-18号寒山钟苑内苏州市枫桥风景名胜区(东南角) | 类别: 风景名胜;风景名胜相关;旅游景点",
    "city": "苏州"
  },
  {
    "name": "天街下沉广场",
    "category": "outdoor",
    "duration_minutes": 120,
    "rating": 4.0,
    "lat": 31.294581,
    "lon": 120.55647,
    "description": "地址: 塔园路181号龙湖狮山天街B1(狮山路地铁站出入口旁) | 类别: 风景名胜;公园广场;城市广场",
    "city": "苏州"
  },
  {
    "name": "斜塘老街",
    "category": "sightseeing",
    "duration_minutes": 120,
    "rating": 4.0,
    "lat": 31.303093,
    "lon": 120.738641,
    "description": "电话: 0512-62587188 | 地址: 苏州工业园区斜塘街道松涛街1088号 | 类别: 风景名胜;风景名胜相关;旅游景点",
    "city": "苏州"
  },
  {
    "name": "苏州乐园森林水世界(暂停营业)",
    "category": "outdoor",
    "duration_minutes": 120,
    "rating": 4.0,
    "lat": 31.331417,
    "lon": 120.472594,
    "description": "电话: 0512-68717107 | 地址: 阳山东路与山神湾路交汇处 | 类别: 体育休闲服务;休闲场所;水上活动中心",
    "city": "苏州"
  },
  {
    "name": "中国苏州评弹博物馆(暂停开放)",
    "category": "museum",
    "duration_minutes": 120,
    "rating": 4.0,
    "lat": 31.312786,
    "lon": 120.634794,
    "description": "电话: 0512-67270103;0512-67275338 | 地址: 中张家巷3号 | 类别: 科教文化服务;博物馆;博物馆",
    "city": "苏州"
  },
  {
    "name": "遂园",
    "category": "sightseeing",
    "duration_minutes": 120,
    "rating": 4.0,
    "lat": 31.309213,
    "lon": 120.612375,
    "description": "地址: 景德路444号 | 类别: 风景名胜;风景名胜;风景名胜",
    "city": "苏州"
  },
  {
    "name": "白鹭园",
    "category": "outdoor",
    "duration_minutes": 120,
    "rating": 4.0,
    "lat": 31.270827,
    "lon": 120.720819,
    "description": "地址: 苏州工业园区翠薇街101号(近独墅湖图书馆) | 类别: 风景名胜;公园广场;公园",
    "city": "苏州"
  },
  {
    "name": "天平山庄-法螺寺",
    "category": "history",
    "duration_minutes": 120,
    "rating": 4.0,
    "lat": 31.293915,
    "lon": 120.502607,
    "description": "电话: 0512-66613951 | 类别: 风景名胜;风景名胜;寺庙道观",
    "city": "苏州"
  },
  {
    "name": "相门古城墙-古运河游船",
    "category": "history",
    "duration_minutes": 120,
    "rating": 4.0,
    "lat": 31.31407,
    "lon": 120.640166,
    "description": "电话: 0512-67539061 | 地址: 平江街道干将东路相门古城墙内(北侧) | 类别: 风景名胜;风景名胜相关;旅游景点",
    "city": "苏州"
  },
  {
    "name": "苏州之眼摩天轮",
    "category": "sightseeing",
    "duration_minutes": 120,
    "rating": 4.0,
    "lat": 31.31437,
    "lon": 120.712845,
    "description": "电话: 0512-62373737;4007558558 | 地址: 右岸街99号(苏州当代美术馆地铁站1号口步行260米) | 类别: 体育休闲服务;休闲场所;游乐场",
    "city": "苏州"
  },
  {
    "name": "宝带桥",
    "category": "history",
    "duration_minutes": 120,
    "rating": 4.0,
    "lat": 31.255173,
    "lon": 120.654001,
    "description": "地址: 宝南路北端 | 类别: 风景名胜;风景名胜;风景名胜",
    "city": "苏州"
  },
  {
    "name": "灵岩山寺",
    "category": "history",
    "duration_minutes": 120,
    "rating": 4.0,
    "lat": 31.262398,
    "lon": 120.501571,
    "description": "电话: 0512-66261310 | 地址: 木渎镇灵岩山景区中山西路38号 | 类别: 风景名胜;风景名胜;寺庙道观",
    "city": "苏州"
  },
  {
    "name": "庆余年2沉浸式主题街区",
    "category": "sightseeing",
    "duration_minutes": 120,
    "rating": 4.0,
    "lat": 31.313977,
    "lon": 120.635664,
    "description": "地址: 平江街道平江路卫道观国潮商业街区18号7幢 | 类别: 风景名胜;风景名胜相关;旅游景点",
    "city": "苏州"
  },
  {
    "name": "德必·桃花坞",
    "category": "sightseeing",
    "duration_minutes": 120,
    "rating": 4.0,
    "lat": 31.320723,
    "lon": 120.614556,
    "description": "地址: 桃花坞大街158号 | 类别: 商务住宅;产业园区;产业园区",
    "city": "苏州"
  },
  {
    "name": "金门",
    "category": "sightseeing",
    "duration_minutes": 120,
    "rating": 4.0,
    "lat": 31.310551,
    "lon": 120.606594,
    "description": "地址: 金门路与景德路交叉口西20米 | 类别: 风景名胜;风景名胜;风景名胜",
    "city": "苏州"
  },
  {
    "name": "唐少傅白公祠-白居易纪念苑",
    "category": "history",
    "duration_minutes": 120,
    "rating": 4.0,
    "lat": 31.315348,
    "lon": 120.603445,
    "description": "地址: 虎丘街道老阊门山塘街口唐少傅白公祠内(西侧) | 类别: 风景名胜;风景名胜;纪念馆",
    "city": "苏州"
  },
  {
    "name": "宜两亭",
    "category": "sightseeing",
    "duration_minutes": 120,
    "rating": 4.0,
    "lat": 31.324041,
    "lon": 120.627983,
    "description": "电话: 0512-67576105;0512-67576116 | 地址: 东北街178号拙政园内(西侧) | 类别: 风景名胜;风景名胜相关;旅游景点",
    "city": "苏州"
  },
  {
    "name": "天池山景区-花山自然风景区",
    "category": "outdoor",
    "duration_minutes": 120,
    "rating": 4.0,
    "lat": 31.29767,
    "lon": 120.48417,
    "description": "电话: 0512-66719991 | 地址: 枫桥镇建林村 | 类别: 风景名胜;风景名胜;风景名胜",
    "city": "苏州"
  },
  {
    "name": "苏州民俗博物馆",
    "category": "museum",
    "duration_minutes": 120,
    "rating": 4.0,
    "lat": 31.321158,
    "lon": 120.629546,
    "description": "电话: 0512-67272478 | 地址: 平江街道潘儒巷32号 | 类别: 科教文化服务;博物馆;博物馆",
    "city": "苏州"
  },
  {
    "name": "唐寅祠(暂停开放)",
    "category": "sightseeing",
    "duration_minutes": 120,
    "rating": 4.0,
    "lat": 31.321024,
    "lon": 120.612897,
    "description": "地址: 大营弄新光里 | 类别: 风景名胜;风景名胜;风景名胜",
    "city": "苏州"
  },
  {
    "name": "报国寺",
    "category": "history",
    "duration_minutes": 120,
    "rating": 4.0,
    "lat": 31.303118,
    "lon": 120.623504,
    "description": "电话: 0512-68361006 | 地址: 穿心街38号(乐桥地铁站3号口步行230米) | 类别: 风景名胜;风景名胜;寺庙道观",
    "city": "苏州"
  },
  {
    "name": "金鸡湖风之园",
    "category": "outdoor",
    "duration_minutes": 120,
    "rating": 4.0,
    "lat": 31.306596,
    "lon": 120.683981,
    "description": "地址: 苏州工业园区金鸡湖景区内(西侧) | 类别: 体育休闲服务;休闲场所;游乐场|风景名胜;风景名胜相关;旅游景点",
    "city": "苏州"
  },
  {
    "name": "旺山景区-叆叇岭景区",
    "category": "outdoor",
    "duration_minutes": 120,
    "rating": 4.0,
    "lat": 31.214022,
    "lon": 120.543067,
    "description": "电话: 0512-66300333 | 地址: 越溪街道旺山生态园景区内 | 类别: 风景名胜;风景名胜相关;旅游景点",
    "city": "苏州"
  },
  {
    "name": "章太炎故居",
    "category": "history",
    "duration_minutes": 120,
    "rating": 4.0,
    "lat": 31.30239,
    "lon": 120.624498,
    "description": "电话: 0512-65226618 | 地址: 锦帆路38号(乐桥地铁站3号口步行350米) | 类别: 风景名胜;风景名胜;纪念馆",
    "city": "苏州"
  },
  {
    "name": "苏州同里古镇旅游区",
    "category": "sightseeing",
    "duration_minutes": 120,
    "rating": 4.0,
    "lat": 31.154999,
    "lon": 120.723765,
    "description": "地址: 中川南路1号 | 类别: 风景名胜;风景名胜;国家级景点",
    "city": "苏州"
  },
  {
    "name": "泰伯庙",
    "category": "history",
    "duration_minutes": 120,
    "rating": 4.0,
    "lat": 31.316527,
    "lon": 120.609441,
    "description": "地址: 阊门内下塘附近 | 类别: 风景名胜;风景名胜;寺庙道观",
    "city": "苏州"
  },
  {
    "name": "大白荡城市生态公园",
    "category": "outdoor",
    "duration_minutes": 120,
    "rating": 4.0,
    "lat": 31.35161,
    "lon": 120.513938,
    "description": "电话: 0512-66161366 | 地址: 大同路17号 | 类别: 风景名胜;公园广场;公园",
    "city": "苏州"
  },
  {
    "name": "平江历史街区-状元第",
    "category": "outdoor",
    "duration_minutes": 120,
    "rating": 4.0,
    "lat": 31.315067,
    "lon": 120.630926,
    "description": "地址: 悬桥巷与楚春巷交叉口东北120米 | 类别: 风景名胜;风景名胜相关;旅游景点",
    "city": "苏州"
  },
  {
    "name": "文山禅寺",
    "category": "history",
    "duration_minutes": 120,
    "rating": 4.0,
    "lat": 31.318274,
    "lon": 120.612333,
    "description": "电话: 0512-67276971 | 地址: 桃花坞街道中街路文丞相弄30-1号 | 类别: 风景名胜;风景名胜;寺庙道观",
    "city": "苏州"
  },
  {
    "name": "苏州市海绵城市主题公园",
    "category": "outdoor",
    "duration_minutes": 120,
    "rating": 4.0,
    "lat": 31.346527,
    "lon": 120.585247,
    "description": "地址: 平海路1650号 | 类别: 风景名胜;公园广场;公园",
    "city": "苏州"
  },
  {
    "name": "虎丘花事",
    "category": "sightseeing",
    "duration_minutes": 120,
    "rating": 4.0,
    "lat": 31.331675,
    "lon": 120.584775,
    "description": "电话: 18362616158 | 地址: 虎丘街道虎阜路南山塘街东 | 类别: 风景名胜;风景名胜;风景名胜",
    "city": "苏州"
  },
  {
    "name": "平江图碑亭",
    "category": "outdoor",
    "duration_minutes": 120,
    "rating": 4.0,
    "lat": 31.309213,
    "lon": 120.634784,
    "description": "地址: 干将东路与平江路交叉口西北50米 | 类别: 风景名胜;风景名胜相关;旅游景点",
    "city": "苏州"
  },
  {
    "name": "苏州斜杠广场",
    "category": "sightseeing",
    "duration_minutes": 120,
    "rating": 4.0,
    "lat": 31.350371,
    "lon": 120.625374,
    "description": "电话: 17712689037 | 地址: 喜庆路99号直梯F3(陆慕地铁站4号口步行410米) | 类别: 公司企业;公司;公司",
    "city": "苏州"
  },
  {
    "name": "金水湾栈桥",
    "category": "history",
    "duration_minutes": 120,
    "rating": 4.0,
    "lat": 31.303103,
    "lon": 120.71559,
    "description": "地址: 金鸡湖景区(东南角) | 类别: 风景名胜;风景名胜相关;旅游景点",
    "city": "苏州"
  },
  {
    "name": "蓝天广场",
    "category": "sightseeing",
    "duration_minutes": 120,
    "rating": 4.0,
    "lat": 31.318908,
    "lon": 120.559787,
    "description": "地址: 滨河路与马运路交叉口东40米 | 类别: 商务住宅;楼宇;商务写字楼",
    "city": "苏州"
  },
  {
    "name": "苏州警察博物馆",
    "category": "museum",
    "duration_minutes": 120,
    "rating": 4.0,
    "lat": 31.299928,
    "lon": 120.61654,
    "description": "电话: 0512-65164989 | 地址: 西善长巷3号 | 类别: 科教文化服务;博物馆;博物馆",
    "city": "苏州"
  },
  {
    "name": "月光码头",
    "category": "sightseeing",
    "duration_minutes": 120,
    "rating": 4.0,
    "lat": 31.320659,
    "lon": 120.705882,
    "description": "地址: 水阁路 | 类别: 购物服务;特色商业街;特色商业街",
    "city": "苏州"
  },
  {
    "name": "太平天国忠王府",
    "category": "sightseeing",
    "duration_minutes": 120,
    "rating": 4.0,
    "lat": 31.323392,
    "lon": 120.628539,
    "description": "地址: 平江街道娄门内东北街204号 | 类别: 风景名胜;风景名胜;风景名胜",
    "city": "苏州"
  },
  {
    "name": "高景山公园",
    "category": "outdoor",
    "duration_minutes": 120,
    "rating": 4.0,
    "lat": 31.314248,
    "lon": 120.507184,
    "description": "地址: 华山路192号 | 类别: 风景名胜;公园广场;公园|风景名胜;风景名胜;风景名胜",
    "city": "苏州"
  },
  {
    "name": "苏州太湖国家旅游度假区",
    "category": "outdoor",
    "duration_minutes": 120,
    "rating": 4.0,
    "lat": 31.212199,
    "lon": 120.415498,
    "description": "地址: 环太湖大道烟波路1号 | 类别: 体育休闲服务;度假疗养场所;度假村|风景名胜;风景名胜相关;旅游景点",
    "city": "苏州"
  },
  {
    "name": "白鹤寺",
    "category": "history",
    "duration_minutes": 120,
    "rating": 4.0,
    "lat": 31.316144,
    "lon": 120.510651,
    "description": "电话: 0512-66677170 | 地址: 枫桥街道马涧路景山公寓斜对面 | 类别: 风景名胜;风景名胜;寺庙道观",
    "city": "苏州"
  },
  {
    "name": "苏州市枫桥风景名胜区-枫桥",
    "category": "history",
    "duration_minutes": 120,
    "rating": 4.0,
    "lat": 31.310857,
    "lon": 120.567015,
    "description": "地址: 苏州市枫桥风景名胜区(西北角) | 类别: 风景名胜;风景名胜相关;旅游景点",
    "city": "苏州"
  },
  {
    "name": "文征明纪念园",
    "category": "history",
    "duration_minutes": 120,
    "rating": 4.0,
    "lat": 31.358738,
    "lon": 120.602066,
    "description": "电话: 0512-66185178 | 地址: 文灵路1号 | 类别: 风景名胜;风景名胜;纪念馆",
    "city": "苏州"
  },
  {
    "name": "白塔公园",
    "category": "outdoor",
    "duration_minutes": 120,
    "rating": 4.0,
    "lat": 31.317517,
    "lon": 120.624701,
    "description": "地址: 国土局旁 | 类别: 风景名胜;公园广场;公园",
    "city": "苏州"
  },
  {
    "name": "狮山十八景",
    "category": "outdoor",
    "duration_minutes": 120,
    "rating": 4.0,
    "lat": 31.291333,
    "lon": 120.541587,
    "description": "地址: 长江路397号苏州乐园狮山奇观 | 类别: 风景名胜;风景名胜相关;旅游景点",
    "city": "苏州"
  },
  {
    "name": "苏州湾黄金湖岸旅游区",
    "category": "outdoor",
    "duration_minutes": 120,
    "rating": 4.0,
    "lat": 31.135846,
    "lon": 120.586047,
    "description": "电话: 0512-60901036 | 地址: 东太湖苏州湾畔 | 类别: 风景名胜;风景名胜;国家级景点",
    "city": "苏州"
  },
  {
    "name": "相城基督教堂",
    "category": "sightseeing",
    "duration_minutes": 120,
    "rating": 4.0,
    "lat": 31.362085,
    "lon": 120.587475,
    "description": "电话: 0512-65868502 | 地址: 阳澄湖西路1800号(相城公路管理处马路对面) | 类别: 风景名胜;风景名胜;教堂",
    "city": "苏州"
  },
  {
    "name": "况公祠",
    "category": "sightseeing",
    "duration_minutes": 120,
    "rating": 4.0,
    "lat": 31.302564,
    "lon": 120.618967,
    "description": "地址: 道前街西美巷31号(乐桥地铁站3号口步行480米) | 类别: 风景名胜;风景名胜;风景名胜",
    "city": "苏州"
  },
  {
    "name": "苏州织造署旧址",
    "category": "sightseeing",
    "duration_minutes": 120,
    "rating": 4.0,
    "lat": 31.299436,
    "lon": 120.634556,
    "description": "地址: 带城桥下塘18号 | 类别: 风景名胜;风景名胜相关;旅游景点",
    "city": "苏州"
  },
  {
    "name": "江苏大阳山国家森林公园-俯象峰",
    "category": "outdoor",
    "duration_minutes": 120,
    "rating": 4.0,
    "lat": 31.332678,
    "lon": 120.461712,
    "description": "地址: 山神湾路苏州乐园森林水世界停车场旁 | 类别: 风景名胜;风景名胜;风景名胜",
    "city": "苏州"
  },
  {
    "name": "旺山茶博园",
    "category": "outdoor",
    "duration_minutes": 120,
    "rating": 4.0,
    "lat": 31.213361,
    "lon": 120.546333,
    "description": "电话: 0512-66300333 | 地址: 旺山景区-叆叇岭景区内(东侧) | 类别: 风景名胜;风景名胜;风景名胜",
    "city": "苏州"
  },
  {
    "name": "苏州阳澄半岛乐园",
    "category": "sightseeing",
    "duration_minutes": 120,
    "rating": 4.0,
    "lat": 31.375192,
    "lon": 120.78643,
    "description": "电话: 0512-67990518 | 地址: 工业园区阳澄湖大道188号 | 类别: 风景名胜;风景名胜相关;旅游景点",
    "city": "苏州"
  },
  {
    "name": "林江郎观音堂",
    "category": "history",
    "duration_minutes": 120,
    "rating": 4.0,
    "lat": 31.304563,
    "lon": 120.483212,
    "description": "地址: 龙池西路与何山路交叉口西160米 | 类别: 风景名胜;风景名胜;寺庙道观",
    "city": "苏州"
  },
  {
    "name": "中国昆曲博物馆",
    "category": "museum",
    "duration_minutes": 120,
    "rating": 4.0,
    "lat": 31.313091,
    "lon": 120.635691,
    "description": "电话: 0512-67273334;0512-67273741 | 地址: 中张家巷14号 | 类别: 科教文化服务;博物馆;博物馆",
    "city": "苏州"
  },
  {
    "name": "苏州五龙桥公园",
    "category": "outdoor",
    "duration_minutes": 120,
    "rating": 4.0,
    "lat": 31.261081,
    "lon": 120.629939,
    "description": "电话: 0512-66058129 | 地址: 长桥街道太湖西路325号 | 类别: 风景名胜;公园广场;公园",
    "city": "苏州"
  },
  {
    "name": "孙武文化园",
    "category": "sightseeing",
    "duration_minutes": 120,
    "rating": 4.0,
    "lat": 31.254019,
    "lon": 120.438111,
    "description": "电话: 0512-66931397 | 地址: 松海路 | 类别: 风景名胜;风景名胜;国家级景点",
    "city": "苏州"
  },
  {
    "name": "贺九岭",
    "category": "history",
    "duration_minutes": 120,
    "rating": 4.0,
    "lat": 31.303908,
    "lon": 120.481825,
    "description": "地址: 涧溪路302乡 | 类别: 风景名胜;风景名胜;寺庙道观",
    "city": "苏州"
  },
  {
    "name": "苏州乐园糖果世界",
    "category": "sightseeing",
    "duration_minutes": 120,
    "rating": 4.0,
    "lat": 31.325523,
    "lon": 120.475619,
    "description": "地址: 象山路99号苏州乐园森林世界(西北角) | 类别: 体育休闲服务;休闲场所;游乐场",
    "city": "苏州"
  },
  {
    "name": "苏州工业园区天主教堂",
    "category": "sightseeing",
    "duration_minutes": 120,
    "rating": 4.0,
    "lat": 31.353575,
    "lon": 120.660075,
    "description": "地址: 娄葑街道工业园区阳澄湖大道1288号 | 类别: 风景名胜;风景名胜;教堂",
    "city": "苏州"
  },
  {
    "name": "旺山景区-乾元寺",
    "category": "history",
    "duration_minutes": 120,
    "rating": 4.0,
    "lat": 31.229919,
    "lon": 120.559091,
    "description": "电话: 0512-66031138 | 地址: 横泾镇旺山景区 | 类别: 风景名胜;风景名胜;寺庙道观",
    "city": "苏州"
  },
  {
    "name": "苏州碑刻博物馆",
    "category": "museum",
    "duration_minutes": 120,
    "rating": 4.0,
    "lat": 31.294683,
    "lon": 120.623718,
    "description": "电话: 0512-65197203;0512-65194343 | 地址: 人民路613号苏州文庙内 | 类别: 科教文化服务;博物馆;博物馆",
    "city": "苏州"
  },
  {
    "name": "江苏大阳山国家森林公园植物园景区",
    "category": "outdoor",
    "duration_minutes": 120,
    "rating": 4.0,
    "lat": 31.324752,
    "lon": 120.460534,
    "description": "电话: 0512-66162111 | 地址: 阳山南路 | 类别: 风景名胜;公园广场;植物园",
    "city": "苏州"
  },
  {
    "name": "静思园",
    "category": "sightseeing",
    "duration_minutes": 120,
    "rating": 4.0,
    "lat": 31.160335,
    "lon": 120.687663,
    "description": "电话: 0512-63439650;0512-63439118;12301 | 地址: 云梨路919号 | 类别: 风景名胜;风景名胜;国家级景点",
    "city": "苏州"
  },
  {
    "name": "旺山景区-九龙潭景区",
    "category": "outdoor",
    "duration_minutes": 120,
    "rating": 4.0,
    "lat": 31.218705,
    "lon": 120.555699,
    "description": "电话: 0512-66306102 | 地址: 横泾镇旺山景区(东北角) | 类别: 风景名胜;风景名胜;风景名胜",
    "city": "苏州"
  },
  {
    "name": "苏州独墅湖基督教堂",
    "category": "outdoor",
    "duration_minutes": 120,
    "rating": 4.0,
    "lat": 31.268678,
    "lon": 120.719354,
    "description": "电话: 0512-69566001 | 地址: 翠薇街99号 | 类别: 风景名胜;风景名胜;教堂",
    "city": "苏州"
  },
  {
    "name": "冠云楼",
    "category": "sightseeing",
    "duration_minutes": 120,
    "rating": 4.0,
    "lat": 31.316182,
    "lon": 120.592945,
    "description": "电话: 0512-65337903 | 地址: 阊门外留园路338号留园(东北角) | 类别: 风景名胜;风景名胜相关;旅游景点",
    "city": "苏州"
  },
  {
    "name": "虎丘山风景区-一榭园",
    "category": "outdoor",
    "duration_minutes": 120,
    "rating": 4.0,
    "lat": 31.33753,
    "lon": 120.581623,
    "description": "电话: 0512-65323488 | 地址: 山塘街虎丘山门内8号 | 类别: 风景名胜;风景名胜相关;旅游景点",
    "city": "苏州"
  },
  {
    "name": "苏州太湖国家湿地公园",
    "category": "outdoor",
    "duration_minutes": 120,
    "rating": 4.0,
    "lat": 31.319163,
    "lon": 120.357106,
    "description": "电话: 0512-66918088;0512-66915871 | 地址: 苏州高新区镇湖街道绣品街1号 | 类别: 风景名胜;风景名胜;国家级景点",
    "city": "苏州"
  },
  {
    "name": "吴中第一山牌坊",
    "category": "outdoor",
    "duration_minutes": 120,
    "rating": 4.0,
    "lat": 31.331395,
    "lon": 120.579024,
    "description": "电话: 0512-65323488 | 地址: 虎丘路559号附近 | 类别: 风景名胜;风景名胜相关;旅游景点",
    "city": "苏州"
  },
  {
    "name": "朴园",
    "category": "outdoor",
    "duration_minutes": 120,
    "rating": 4.0,
    "lat": 31.324421,
    "lon": 120.615199,
    "description": "电话: 0512-67512397 | 地址: 平门校场桥路8号 | 类别: 风景名胜;公园广场;公园",
    "city": "苏州"
  },
  {
    "name": "荷塘月色湿地公园",
    "category": "outdoor",
    "duration_minutes": 120,
    "rating": 4.0,
    "lat": 31.408919,
    "lon": 120.583458,
    "description": "电话: 0512-66152223;0512-66152227 | 地址: 太阳路西4575号 | 类别: 风景名胜;公园广场;公园",
    "city": "苏州"
  },
  {
    "name": "严家花园",
    "category": "sightseeing",
    "duration_minutes": 120,
    "rating": 4.0,
    "lat": 31.252685,
    "lon": 120.508918,
    "description": "电话: 0512-66366123;0512-66514042 | 地址: 木渎镇山塘街188号 | 类别: 风景名胜;风景名胜;风景名胜",
    "city": "苏州"
  },
  {
    "name": "重元寺",
    "category": "history",
    "duration_minutes": 120,
    "rating": 4.0,
    "lat": 31.406252,
    "lon": 120.781295,
    "description": "电话: 0512-62890880 | 地址: 阳澄环路333号 | 类别: 风景名胜;风景名胜;寺庙道观",
    "city": "苏州"
  },
  {
    "name": "玉山公园",
    "category": "outdoor",
    "duration_minutes": 120,
    "rating": 4.0,
    "lat": 31.284801,
    "lon": 120.548249,
    "description": "地址: 高新区玉山路(玉山路地铁站3B口步行320米) | 类别: 风景名胜;公园广场;公园",
    "city": "苏州"
  },
  {
    "name": "苏州中国花卉植物园",
    "category": "outdoor",
    "duration_minutes": 120,
    "rating": 4.0,
    "lat": 31.419188,
    "lon": 120.602582,
    "description": "电话: 0512-65799153 | 地址: 太阳路与广济北路交叉口 | 类别: 风景名胜;公园广场;植物园",
    "city": "苏州"
  },
  {
    "name": "苏州小黄鸭主题乐园",
    "category": "sightseeing",
    "duration_minutes": 120,
    "rating": 4.0,
    "lat": 31.255325,
    "lon": 120.459228,
    "description": "电话: 18021627907 | 地址: 胥口镇藏胥路555号 | 类别: 体育休闲服务;休闲场所;水上活动中心|体育休闲服务;休闲场所;游乐场",
    "city": "苏州"
  },
  {
    "name": "万公堤",
    "category": "sightseeing",
    "duration_minutes": 120,
    "rating": 4.0,
    "lat": 31.165796,
    "lon": 120.615857,
    "description": "地址: 夏蓉街2255号 | 类别: 风景名胜;风景名胜相关;旅游景点",
    "city": "苏州"
  },
  {
    "name": "横山体育公园",
    "category": "outdoor",
    "duration_minutes": 120,
    "rating": 4.0,
    "lat": 31.264307,
    "lon": 120.573053,
    "description": "地址: 晋源路与青春路交叉口西120米 | 类别: 风景名胜;公园广场;公园",
    "city": "苏州"
  },
  {
    "name": "太湖湖滨国家湿地",
    "category": "outdoor",
    "duration_minutes": 120,
    "rating": 4.0,
    "lat": 31.219448,
    "lon": 120.442245,
    "description": "电话: 0512-66311098 | 地址: 胥香路与环太湖大道交汇处 | 类别: 风景名胜;风景名胜;国家级景点",
    "city": "苏州"
  },
  {
    "name": "灵白线",
    "category": "sightseeing",
    "duration_minutes": 120,
    "rating": 4.0,
    "lat": 31.264013,
    "lon": 120.499748,
    "description": "地址: 灵岩山寺西北侧250米 | 类别: 风景名胜;风景名胜;风景名胜",
    "city": "苏州"
  },
  {
    "name": "白塘生态植物园",
    "category": "outdoor",
    "duration_minutes": 120,
    "rating": 4.0,
    "lat": 31.330087,
    "lon": 120.73757,
    "description": "地址: 现代大道 | 类别: 风景名胜;公园广场;植物园",
    "city": "苏州"
  },
  {
    "name": "宫巷基督教堂",
    "category": "history",
    "duration_minutes": 120,
    "rating": 4.0,
    "lat": 31.308524,
    "lon": 120.627095,
    "description": "电话: 0512-65224152 | 地址: 宫巷20号(乐桥地铁站6号口步行480米) | 类别: 风景名胜;风景名胜;教堂",
    "city": "苏州"
  },
  {
    "name": "东方之门展示中心",
    "category": "sightseeing",
    "duration_minutes": 120,
    "rating": 4.0,
    "lat": 31.316465,
    "lon": 120.679639,
    "description": "电话: 13815256641 | 地址: 星港街199号(东方之门地铁站出入口旁) | 类别: 生活服务;生活服务场所;生活服务场所",
    "city": "苏州"
  },
  {
    "name": "伍相祠",
    "category": "sightseeing",
    "duration_minutes": 120,
    "rating": 4.0,
    "lat": 31.287528,
    "lon": 120.615543,
    "description": "电话: 0512-65260004 | 地址: 东大街49号盘门景区内(西南角) | 类别: 风景名胜;风景名胜相关;旅游景点",
    "city": "苏州"
  },
  {
    "name": "苏州洛嘉部落(暂停营业)",
    "category": "sightseeing",
    "duration_minutes": 120,
    "rating": 4.0,
    "lat": 31.213841,
    "lon": 120.546236,
    "description": "电话: 0512-88188818;13182671959 | 地址: 尧旺路182号 | 类别: 体育休闲服务;休闲场所;休闲场所",
    "city": "苏州"
  },
  {
    "name": "光福景区",
    "category": "sightseeing",
    "duration_minutes": 120,
    "rating": 4.0,
    "lat": 31.286813,
    "lon": 120.368267,
    "description": "电话: 0512-66958218;0512-66959608 | 地址: 倪巷村福湖路 | 类别: 风景名胜;风景名胜;国家级景点",
    "city": "苏州"
  },
  {
    "name": "古胥门广场",
    "category": "outdoor",
    "duration_minutes": 120,
    "rating": 4.0,
    "lat": 31.297247,
    "lon": 120.612075,
    "description": "地址: 南门古胥门广场(吉庆桥西南) | 类别: 风景名胜;公园广场;城市广场",
    "city": "苏州"
  },
  {
    "name": "金鸡湖景区-入戏雕塑(大相框)",
    "category": "outdoor",
    "duration_minutes": 120,
    "rating": 4.0,
    "lat": 31.319636,
    "lon": 120.701454,
    "description": "地址: 水阁路与金琚路交叉口西南480米 | 类别: 风景名胜;风景名胜;风景名胜",
    "city": "苏州"
  },
  {
    "name": "西园寺-罗汉堂(西园弄)",
    "category": "history",
    "duration_minutes": 120,
    "rating": 4.0,
    "lat": 31.31473,
    "lon": 120.587416,
    "description": "地址: 留园路西园弄18号西园寺内(大雄宝殿西南侧) | 类别: 风景名胜;风景名胜;寺庙道观",
    "city": "苏州"
  },
  {
    "name": "金鸡湖景区-月光游船码头",
    "category": "outdoor",
    "duration_minutes": 120,
    "rating": 4.0,
    "lat": 31.320136,
    "lon": 120.704846,
    "description": "电话: 0512-62659666 | 地址: 工业园区月光码头(近科文中心) | 类别: 交通设施服务;交通服务相关;交通服务相关",
    "city": "苏州"
  },
  {
    "name": "米堆山",
    "category": "outdoor",
    "duration_minutes": 120,
    "rating": 4.0,
    "lat": 31.263943,
    "lon": 120.393483,
    "description": "地址: 光福镇坎上村 | 类别: 风景名胜;风景名胜;风景名胜",
    "city": "苏州"
  }
]