[
    {
        "name": "London Eye",
        "lat": 51.5033,
        "lon": -0.1195,
        "category": "outdoor",
        "duration_minutes": 60,
        "rating": 4.2,
        "description": "London Eye — Popular outdoor attraction with scenic views and good photo opportunities. Highlights: London Eye. Typical visit ~60 minutes. Rating reflects typical visitor satisfaction and category averages. Consider booking tickets in advance for busy seasons."
    },
    {
        "name": "British Museum",
        "lat": 51.5194,
        "lon": -0.127,
        "category": "indoor",
        "duration_minutes": 90,
        "rating": 4.3,
        "description": "British Museum — Well-curated indoor spot; expect exhibits or sheltered activities. Highlights: British Museum. Typical visit ~90 minutes. Rating reflects typical visitor satisfaction and category averages. Consider booking tickets in advance for busy seasons."
    },
    {
        "name": "Tower of London",
        "lat": 51.5081,
        "lon": -0.0759,
        "category": "temple",
        "duration_minutes": 45,
        "rating": 4.1,
        "description": "Tower of London — Historic or religious site, usually quiet and culturally significant. Highlights: Tower of. Typical visit ~45 minutes. Rating reflects typical visitor satisfaction and category averages. Consider booking tickets in advance for busy seasons."
    },
    {
        "name": "Oxford Street",
        "lat": 51.5154,
        "lon": -0.141,
        "category": "shopping",
        "duration_minutes": 60,
        "rating": 3.9,
        "description": "Oxford Street — Shopping area with stores and local vendors; good for browsing. Highlights: Oxford Street. Typical visit ~60 minutes. Rating reflects typical visitor satisfaction and category averages. Consider booking tickets in advance for busy seasons."
    },
    {
        "name": "Hyde Park",
        "lat": 51.5073,
        "lon": -0.1657,
        "category": "outdoor",
        "duration_minutes": 60,
        "rating": 4.2,
        "description": "Hyde Park — Popular outdoor attraction with scenic views and good photo opportunities. Highlights: Hyde Park. Typical visit ~60 minutes. Rating reflects typical visitor satisfaction and category averages. Consider booking tickets in advance for busy seasons."
    },
    {
        "name": "Tate Modern",
        "lat": 51.5076,
        "lon": -0.0994,
        "category": "indoor",
        "duration_minutes": 90,
        "rating": 4.3,
        "description": "Tate Modern — Well-curated indoor spot; expect exhibits or sheltered activities. Highlights: Tate Modern. Typical visit ~90 minutes. Rating reflects typical visitor satisfaction and category averages. Consider booking tickets in advance for busy seasons."
    },
    {
        "name": "Kew Gardens",
        "lat": 51.478,
        "lon": -0.2956,
        "category": "outdoor",
        "duration_minutes": 60,
        "rating": 4.2,
        "description": "Kew Gardens — Popular outdoor attraction with scenic views and good photo opportunities. Highlights: Kew Gardens. Typical visit ~60 minutes. Rating reflects typical visitor satisfaction and category averages. Consider booking tickets in advance for busy seasons."
    },
    {
        "name": "Westminster Abbey",
        "lat": 51.4993,
        "lon": -0.1273,
        "category": "temple",
        "duration_minutes": 45,
        "rating": 4.1,
        "description": "Westminster Abbey — Historic or religious site, usually quiet and culturally significant. Highlights: Westminster Abbey. Typical visit ~45 minutes. Rating reflects typical visitor satisfaction and category averages. Consider booking tickets in advance for busy seasons."
    },
    {
        "name": "Covent Garden",
        "lat": 51.5129,
        "lon": -0.1247,
        "category": "shopping",
        "duration_minutes": 60,
        "rating": 3.9,
        "description": "Covent Garden — Shopping area with stores and local vendors; good for browsing. Highlights: Covent Garden. Typical visit ~60 minutes. Rating reflects typical visitor satisfaction and category averages. Consider booking tickets in advance for busy seasons."
    }
]